,가게이름,가게 주소,음식 종류,가격 범위,리뷰개수,평점,lat,lng
1,어머니대성집,서울특별시 동대문구 왕산로11길 4,탕 / 찌개 / 전골,만원 미만,108,4.4,37.5774367,127.0285492
2,안동집손칼국시,서울특별시 동대문구 고산자로36길 3 경동시장 B1,국수 / 면 요리,만원 미만,9,4.2,37.5792013,127.0391628
3,79번지국수집,서울특별시 동대문구 회기로13길 25,국수 / 면 요리,만원 미만,29,4.1,37.59263929999999,127.0509567
4,답십리별미,서울특별시 동대문구 답십리로48길 98,한정식 / 백반 / 정통 한식,만원 미만,10,4.1,37.5683251,127.0575286
5,춘천메밀막국수,서울특별시 동대문구 고산자로38길 25,국수 / 면 요리,만원 미만,7,4.1,37.5801269,127.0398608
6,고래돈가스,서울특별시 동대문구 안암로 154,기타 한식,만원 미만,24,4.1,37.5883631,127.0350877
7,성천막국수,서울특별시 동대문구 전농로 48,국수 / 면 요리,만원 미만,31,4.0,37.56902609999999,127.0573024
8,레알라면,서울특별시 동대문구 회기로25길 23-5,국수 / 면 요리,만원 미만,26,4.0,37.59108519999999,127.0553631
9,토성옥,서울특별시 동대문구 약령서길 28,탕 / 찌개 / 전골,만원 미만,5,4.0,37.5795271,127.0362433
10,뚝닭,서울특별시 동대문구 제기로5길 31,닭 / 오리 요리,만원 미만,5,4.0,37.5878503,127.0349641
11,혜성칼국수,서울특별시 동대문구 왕산로 247-1,국수 / 면 요리,만원 미만,31,3.9,37.5833859,127.0489751
12,고향집,서울특별시 동대문구 왕산로37길 7,탕 / 찌개 / 전골,만원 미만,12,3.9,37.5802522,127.0438625
13,여기가좋겠네,서울특별시 동대문구 회기로19길 18,닭 / 오리 요리,만원 미만,30,3.8,37.5922964,127.0530242
14,본가할머니보쌈,서울특별시 동대문구 휘경로 6-7,고기 요리,만원 미만,16,3.8,37.5957612,127.0607395
15,솔낭구,서울특별시 동대문구 회기로13길 11,한정식 / 백반 / 정통 한식,만원 미만,10,3.8,37.5920377,127.0507798
16,19뜯고맛보고,서울특별시 동대문구 전농로 221,고기 요리,만원 미만,9,3.8,37.583802,127.0531035
17,평양냉면,서울특별시 동대문구 홍릉로 14-3,국수 / 면 요리,만원 미만,29,3.7,37.5816311,127.0450144
18,할머니냉면집,서울특별시 동대문구 왕산로37길 51,국수 / 면 요리,만원 미만,21,3.7,37.5822259,127.043698
19,푸른하늘,서울특별시 동대문구 경희대로6길 3-4 1F,기타 한식,만원 미만,14,3.7,37.5935067,127.0530599
20,물고기,서울특별시 동대문구 이문로25길 36,기타 한식,만원 미만,32,3.6,37.5954892,127.0577013
21,장안정,서울특별시 동대문구 답십리로 314,탕 / 찌개 / 전골,만원 미만,19,3.6,37.571729,127.075158
22,39돈가스,서울특별시 동대문구 휘경로2길 5-2,기타 한식,만원 미만,11,3.6,37.5955963,127.0610813
23,고황24시 뼈다귀해장국감자탕,서울특별시 동대문구 경희대로1길 8-16,탕 / 찌개 / 전골,만원 미만,22,3.5,37.592301,127.0520356
24,광주식당,서울특별시 동대문구 홍릉로1길 21-6,한정식 / 백반 / 정통 한식,만원 미만,15,3.5,37.5805697,127.0436807
25,도란도란야채곱창,서울특별시 동대문구 휘경로2길 5-7,고기 요리,만원 미만,13,3.4,37.5955678,127.0614509
26,독,서울특별시 동대문구 왕산로 278-1,고기 요리,만원 미만,10,3.4,37.5852639,127.0514682
27,부산밀면냉면,서울특별시 동대문구 경희대로4길 73 1F,국수 / 면 요리,만원 미만,12,3.4,37.5913654,127.0562677
28,방앗간,서울특별시 동대문구 고산자로28길 73,한정식 / 백반 / 정통 한식,만원 미만,9,,37.574336,127.0423136
29,곰돌이돈까스,서울특별시 동대문구 한빛로1길 3,기타 한식,만원 미만,4,,37.57639030000001,127.0239291
30,자연밥상,서울특별시 동대문구 천장산로 42,기타 한식,만원 미만,12,,37.599583,127.0576395
31,장안면옥,서울특별시 동대문구 사가정로 258,국수 / 면 요리,만원 미만,4,,37.5790017,127.0735928
32,일광쪽갈비,서울특별시 동대문구 전농로 48,고기 요리,만원 미만,7,,37.56902609999999,127.0573024
33,장안설렁탕,서울특별시 동대문구 천호대로89길 3,탕 / 찌개 / 전골,만원 미만,1,,37.562078,127.0679449
34,모두랑,서울특별시 동대문구 회기로23가길 20,기타 한식,만원 미만,4,,37.5920541,127.0542819
35,해물알탕전문,서울특별시 동대문구 전농로14길 12,해산물 요리,만원 미만,4,,37.5762764,127.0580454
36,군만두의달인,서울특별시 동대문구 전농로2가길 13,기타 한식,만원 미만,4,,37.5674081,127.0572255
37,골목식당,서울특별시 동대문구 경동시장로2길 49-1,한정식 / 백반 / 정통 한식,만원 미만,3,,37.5805697,127.0436807
38,경북손칼국수,서울특별시 동대문구 왕산로41길 4,국수 / 면 요리,만원 미만,2,,37.5813305,127.0461742
39,순대국집,서울특별시 동대문구 하정로4길 12,탕 / 찌개 / 전골,만원 미만,5,,37.575652,127.0271629
40,양지함박왕돈까스,서울특별시 동대문구 장한로 194,기타 한식,만원 미만,2,,37.5776753,127.0724398
41,락식락당,서울특별시 동대문구 경희대로4길 6 B1,퓨전 한식,만원 미만,7,,37.59242649999999,127.0528437
42,용용이네식당,서울특별시 동대문구 회기로21길 17 1F,한정식 / 백반 / 정통 한식,만원 미만,8,,37.5921812,127.0531559
43,막국수한,서울특별시 동대문구 답십리로 220,국수 / 면 요리,만원 미만,4,,37.5725656,127.0646841
44,오소록,서울특별시 동대문구 전농로3길 1-2,국수 / 면 요리,만원 미만,3,,37.5679393,127.0566052
45,압구정닭꼬치,서울특별시 동대문구 회기로 184,닭 / 오리 요리,만원 미만,6,,37.5897551,127.0562518
46,용,서울특별시 동대문구 회기로 156 1F,기타 한식,만원 미만,1,,37.59089609999999,127.0533534
47,크치치킨,서울특별시 동대문구 회기로 125 1F,닭 / 오리 요리,만원 미만,5,,37.591587,127.0505228
48,정석김밥,서울특별시 동대문구 장한로 115,기타 한식,만원 미만,2,,37.5708961,127.0705258
49,미락칼국수,서울특별시 동대문구 천호대로 241,국수 / 면 요리,만원 미만,1,,37.5697684,127.049643
50,명성순대국,서울특별시 동대문구 이문로 31-2,탕 / 찌개 / 전골,만원 미만,6,,37.5904634,127.0560255
51,청량리할머니냉면,서울특별시 동대문구 무학로34길 56,국수 / 면 요리,만원 미만,4,,37.5763205,127.0337363
52,거복이식당,서울특별시 동대문구 경희대로3길 6,고기 요리,만원 미만,2,,37.5927625,127.05216
53,남다른감자탕,서울특별시 동대문구 고산자로 406,탕 / 찌개 / 전골,만원 미만,1,,37.5757799,127.0385977
54,계림원,서울특별시 동대문구 회기로28길 9,닭 / 오리 요리,만원 미만,4,,37.5894272,127.0562616
55,원골전통순대국,서울특별시 동대문구 사가정로 232,탕 / 찌개 / 전골,만원 미만,2,,37.5784137,127.0707777
56,버드나무순대국,서울특별시 동대문구 휘경로2길 42,탕 / 찌개 / 전골,만원 미만,4,,37.5943439,127.0599477
57,엉터리갈비,서울특별시 동대문구 왕산로37길 33-4,고기 요리,만원 미만,1,,37.5814942,127.0439089
58,불타는닭갈비,서울특별시 동대문구 회기로21길 4,닭 / 오리 요리,만원 미만,4,,37.5915598,127.0530879
59,싸움의고수,서울특별시 동대문구 경희대로4길 8,고기 요리,만원 미만,4,,37.5923936,127.053134
60,비사벌전주콩나물국밥,서울특별시 동대문구 장한로 51 성안빌딩,탕 / 찌개 / 전골,만원 미만,2,,37.5656711,127.0671202
61,휘경곱창,서울특별시 동대문구 휘경로14길 15-1,고기 요리,만원 미만,3,,37.5944894,127.0632864
62,장안벌함흥냉면,서울특별시 동대문구 장한로 60 1F,국수 / 면 요리,만원 미만,2,,37.5662964,127.0682557
63,소허파전골,서울특별시 동대문구 왕산로23길 41,탕 / 찌개 / 전골,만원 미만,5,,37.5801328,127.0342882
64,불란서삼겹살,서울특별시 동대문구 경희대로4길 8,고기 요리,만원 미만,3,,37.5923936,127.053134
65,삼대나주곰탕,서울특별시 동대문구 회기로 190-1,탕 / 찌개 / 전골,만원 미만,1,,37.5897254,127.0569304
66,기와옥,서울특별시 동대문구 답십리로66길 5,국수 / 면 요리,만원 미만,1,,37.5721156,127.0684039
67,이가네바지락칼국수,서울특별시 동대문구 전농로 50-1,국수 / 면 요리,만원 미만,1,,37.5693842,127.0573443
68,도읍지,서울특별시 동대문구 회기로21길 38-1,한정식 / 백반 / 정통 한식,만원 미만,5,,37.5930293,127.0530738
69,행운돈까스,서울특별시 동대문구 장한로 173,기타 한식,만원 미만,4,,37.5758783,127.0717137
70,땡스컵밥,서울특별시 동대문구 경희대로4길 29,기타 한식,만원 미만,4,,37.5921301,127.0540941
71,팔당동동육개장,서울특별시 동대문구 장한로2길 36,탕 / 찌개 / 전골,만원 미만,1,,37.5617314,127.0671874
72,외대철판마을,서울특별시 동대문구 이문로28길 8,닭 / 오리 요리,만원 미만,5,,37.5957416,127.0601951
73,목화왕순대국,서울특별시 동대문구 전농로15길 22,탕 / 찌개 / 전골,만원 미만,2,,37.57799139999999,127.0562735
74,양평순대국,서울특별시 동대문구 고산자로38길 29,탕 / 찌개 / 전골,만원 미만,1,,37.5802111,127.0401269
75,마장동2c,서울특별시 동대문구 천호대로85길 27  1F,고기 요리,만원 미만,1,,37.56322050000001,127.066458
76,예향칼국수,서울특별시 동대문구 이문로9가길 35,국수 / 면 요리,만원 미만,5,,37.5981988,127.0560263
77,함경면옥,서울특별시 동대문구 왕산로 87,국수 / 면 요리,만원 미만,1,,37.5784853,127.0332509
78,엄마손돼지불백,서울특별시 동대문구 한천로18길 19,한정식 / 백반 / 정통 한식,만원 미만,1,,37.5688363,127.0650499
79,서병장대김이병,서울특별시 동대문구 회기로21길 34,탕 / 찌개 / 전골,만원 미만,8,,37.5928673,127.0530985
80,따봉하우스,서울특별시 동대문구 경희대로4길 73,기타 한식,만원 미만,4,,37.5913654,127.0562677
81,광주회관,서울특별시 동대문구 이문로 118,한정식 / 백반 / 정통 한식,만원 미만,5,,37.5971041,127.0608993
82,진한순대국,서울특별시 동대문구 천호대로83길 52,탕 / 찌개 / 전골,만원 미만,4,,37.5643288,127.0657809
83,다손김밥,서울특별시 동대문구 안암로 148-1,기타 한식,만원 미만,3,,37.5879873,127.0346328
84,곰이네국밥집,서울특별시 동대문구 제기로 2-1,탕 / 찌개 / 전골,만원 미만,3,,37.5862442,127.0332593
85,고향집,서울특별시 동대문구 고산자로34길 18,한정식 / 백반 / 정통 한식,만원 미만,1,,37.57756,127.0394307
86,행복한식탁,서울특별시 동대문구 장한로 150,한정식 / 백반 / 정통 한식,만원 미만,1,,37.5737534,127.0721352
87,이면,서울특별시 동대문구 고산자로36길 3 신관 3F 106호,국수 / 면 요리,만원 미만,1,,37.5792013,127.0391628
88,바른치킨,서울특별시 동대문구 답십리로69길 55,닭 / 오리 요리,만원 미만,1,,37.5745674,127.073684
89,일구구삼,서울특별시 동대문구 회기로19길 18,고기 요리,만원 미만,1,,37.5922964,127.0530242
90,강창구찹쌀진순대,서울특별시 동대문구 이문로 54,탕 / 찌개 / 전골,만원 미만,3,,37.5920539,127.0575227
91,신전떡볶이,서울특별시 동대문구 이문로 34-1,기타 한식,만원 미만,3,,37.590492,127.0564543
92,춘천막국수,서울특별시 동대문구 망우로18길 30,국수 / 면 요리,만원 미만,1,,37.5882421,127.0626289
93,아마자께,서울특별시 동대문구 천장산로7길 16,기타 한식,만원 미만,3,,37.5984631,127.0569663
94,은화수식당,서울특별시 동대문구 경희대로4길 22,기타 한식,만원 미만,3,,37.59214619999999,127.0537361
95,나주곰탕나주전,서울특별시 동대문구 고산자로 428,탕 / 찌개 / 전골,만원 미만,3,,37.577673,127.0385948
96,전농골목냉면,서울특별시 동대문구 전농로 105-1 1F,국수 / 면 요리,만원 미만,2,,37.5743902,127.0573288
97,낙지수제비,서울특별시 동대문구 왕산로 188,국수 / 면 요리,만원 미만,1,,37.5794966,127.0441359
98,굴다리전주콩나물국밥,서울특별시 동대문구 전농로 70-1,탕 / 찌개 / 전골,만원 미만,1,,37.5711678,127.0575166
99,일심해장국,서울특별시 동대문구 장한로 179,탕 / 찌개 / 전골,만원 미만,1,,37.5764181,127.0717172
100,왕순대국,서울특별시 동대문구 고산자로 426,탕 / 찌개 / 전골,만원 미만,1,,37.5775872,127.0385756
101,오뚜기왕돈까스,서울특별시 동대문구 전농로 226,기타 한식,만원 미만,5,,37.584246,127.0531885
102,버무리떡볶이,서울특별시 동대문구 경희대로 5,기타 한식,만원 미만,2,,37.592037,127.0521477
103,부부바지락손칼국수,서울특별시 동대문구 약령시로 9,국수 / 면 요리,만원 미만,4,,37.5827683,127.03087
104,다해식당,서울특별시 동대문구 이문로28길 13,한정식 / 백반 / 정통 한식,만원 미만,2,,37.5955702,127.060623
105,충주집,서울특별시 동대문구 제기로6길 5,닭 / 오리 요리,만원 미만,3,,37.5861657,127.0345624
106,조선감저,서울특별시 동대문구 전농로 124,탕 / 찌개 / 전골,만원 미만,4,,37.5758532,127.0578571
107,정화네동태국,서울특별시 동대문구 왕산로 254,해산물 요리,만원 미만,4,,37.5833991,127.0497279
108,주연이네집,서울특별시 동대문구 장한로26가길 11-1,한정식 / 백반 / 정통 한식,만원 미만,1,,37.5710899,127.0720222
109,이모네왕김밥,서울특별시 동대문구 회기로25길 24,기타 한식,만원 미만,3,,37.5910328,127.055691
110,삼삼데이,서울특별시 동대문구 천장산로 40 남경빌딩,고기 요리,만원 미만,2,,37.5994409,127.0576651
111,인생설렁탕,서울특별시 동대문구 경희대로 9-1,탕 / 찌개 / 전골,만원 미만,3,,37.5924758,127.0522542
112,국수사랑,서울특별시 동대문구 안암로22길 16,국수 / 면 요리,만원 미만,1,,37.5879367,127.035494
113,태경김밥마을,서울특별시 동대문구 제기로20길 3,기타 한식,만원 미만,1,,37.58639610000001,127.0416077
114,소문난의정부부대찌개,서울특별시 동대문구 안암로22길 5,탕 / 찌개 / 전골,만원 미만,2,,37.5882509,127.0351389
115,리얼 수타돈까스,서울특별시 동대문구 망우로18다길 27-8,기타 한식,만원 미만,1,,37.5861861,127.0611112
116,숯불꼼닭발,서울특별시 동대문구 휘경로2길 17,닭 / 오리 요리,만원 미만,1,,37.5952482,127.0608071
117,Jb국수공장,서울특별시 동대문구 고산자로 559-1,국수 / 면 요리,만원 미만,1,,37.5891914,127.0362195
118,동대문엽기떡볶이,서울특별시 동대문구 경희대로 8,기타 한식,만원 미만,1,,37.5922047,127.0526053
119,연희김밥,서울특별시 동대문구 경희대로4길 60 101호,기타 한식,만원 미만,4,,37.5913463,127.0554561
120,명가식당,서울특별시 동대문구 이문로30길 8,한정식 / 백반 / 정통 한식,만원 미만,2,,37.5970005,127.0610139
121,할매순대국,서울특별시 동대문구 이문로 34-1,탕 / 찌개 / 전골,만원 미만,2,,37.590492,127.0564543
122,아욱꽃,서울특별시 동대문구 휘경로2가길 5,기타 한식,만원 미만,2,,37.5954138,127.0612354
123,본수제돈까스,서울특별시 동대문구 회기로25가길 4,기타 한식,만원 미만,2,,37.5934915,127.0572294
124,내가찜한닭,서울특별시 동대문구 회기로21길 34 1F,닭 / 오리 요리,만원 미만,2,,37.5928673,127.0530985
125,고봉민김밥인,서울특별시 동대문구 장안벚꽃로 107 장안현대홈타운,기타 한식,만원 미만,1,,37.5708143,127.0745997
126,해장국감자탕,서울특별시 동대문구 휘경로 12,탕 / 찌개 / 전골,만원 미만,3,,37.59582040000001,127.0612654
127,김스토리,서울특별시 동대문구 전농로3길 1-2,기타 한식,만원 미만,1,,37.5679393,127.0566052
128,세도락,서울특별시 동대문구 전농로 98,기타 한식,만원 미만,3,,37.5736596,127.0576833
129,장안우동집,서울특별시 동대문구 장한로 76,기타 한식,만원 미만,1,,37.5674879,127.0689755
130,봄봄기사식당,서울특별시 동대문구 서울시립대로 128 1F,한정식 / 백반 / 정통 한식,만원 미만,2,,37.5816029,127.0523604
131,엉클정부대찌개생고기,서울특별시 동대문구 장한로25길 8 중일빌딩 1F,탕 / 찌개 / 전골,만원 미만,1,,37.5718414,127.0706826
132,다사리아꼬치,서울특별시 동대문구 전농로 239,기타 한식,만원 미만,1,,37.5850809,127.0521317
133,따봉왕돈까스,서울특별시 동대문구 답십리로65길 96,기타 한식,만원 미만,1,,37.5767025,127.0699657
134,더샵라이스,서울특별시 동대문구 회기로25길 11 1F,퓨전 한식,만원 미만,1,,37.5909306,127.054962
135,국가대표바지락손칼국수,서울특별시 동대문구 천호대로85길 44 대명연립,국수 / 면 요리,만원 미만,1,,37.563525,127.0672567
136,삼형제김밥,서울특별시 동대문구 전농로11길 65 ,기타 한식,만원 미만,1,,37.5748187,127.0564909
137,청량리경양식,서울특별시 동대문구 서울시립대로 64  1F,기타 한식,만원 미만,1,,37.576599,127.0482791
138,떡순튀,"서울특별시 동대문구 왕산로 52  대우아이빌102동 106, 108호",기타 한식,만원 미만,1,,37.5771477,127.0294575
139,맹자네떡볶이,서울특별시 동대문구 망우로16길 5 ,기타 한식,만원 미만,1,,37.5896091,127.061785
140,싸다김밥,서울특별시 동대문구 장한로 105 장안 NEW CITY,기타 한식,만원 미만,2,,37.5699851,127.0699406
141,외대불난곱창,서울특별시 동대문구 휘경로2길 5-7,고기 요리,만원 미만,3,,37.5955678,127.0614509
142,옥천옥,서울특별시 동대문구 하정로 16,탕 / 찌개 / 전골,만원 미만,3,,37.5724391,127.0269613
143,행복한한끼,서울특별시 동대문구 이문로25길 22-1,기타 한식,만원 미만,2,,37.5958499,127.0581826
144,불난철판,서울특별시 동대문구 회기로21길 26,퓨전 한식,만원 미만,3,,37.5925868,127.0533999
145,김밥애국시,서울특별시 동대문구 고산자로 409-1,기타 한식,만원 미만,1,,37.5762494,127.0379362
146,먹보소고기수육국밥,서울특별시 동대문구 홍릉로 14-1,탕 / 찌개 / 전골,만원 미만,2,,37.581542,127.0450269
147,자매랑아찌랑,서울특별시 동대문구 이문로28길 11 2F,기타 한식,만원 미만,1,,37.59570069999999,127.0604991
148,치즈밥있슈,서울특별시 동대문구 망우로18가길 70 1F,퓨전 한식,만원 미만,2,,37.5871893,127.0602472
149,정대감감자탕,서울특별시 동대문구 천호대로83길 46,탕 / 찌개 / 전골,만원 미만,2,,37.5640591,127.0656258
150,24시우동,서울특별시 동대문구 회기로 169-1,기타 한식,만원 미만,2,,37.5905269,127.0549535
151,꽃밭정이추어탕,서울특별시 동대문구 왕산로3가길 1,탕 / 찌개 / 전골,만원 미만,1,,37.576912,127.0258967
152,옛맛수제피순대,서울특별시 동대문구 장한로28길 14,탕 / 찌개 / 전골,만원 미만,1,,37.5728018,127.0727028
153,동네식당,서울특별시 동대문구 한빛로 30,기타 한식,만원 미만,1,,37.5779189,127.0261666
154,다와야식,서울특별시 동대문구 전농로38길 89 1F,한정식 / 백반 / 정통 한식,만원 미만,1,,37.58786990000001,127.0562145
155,명가옛날통닭,서울특별시 동대문구 전농로 105 1F,닭 / 오리 요리,만원 미만,1,,37.5743902,127.0573288
156,북촌손만두,서울특별시 동대문구 천호대로 133 1F,기타 한식,만원 미만,1,,37.5745108,127.0387578
157,우미설렁탕,서울특별시 동대문구 고미술로 57  답십리한화아파트상가,탕 / 찌개 / 전골,만원 미만,1,,37.5670083,127.0539343
158,꿀꿀,서울특별시 동대문구 휘경로2길 35,탕 / 찌개 / 전골,만원 미만,1,,37.5946415,127.0602078
159,꿀꿀이닭갈비,서울특별시 동대문구 천장산로 32-1 B1,닭 / 오리 요리,만원 미만,3,,37.5988292,127.0579084
160,육쌈냉면,서울특별시 동대문구 경희대로4길 6,국수 / 면 요리,만원 미만,4,,37.59242649999999,127.0528437
161,돈수백,서울특별시 동대문구 휘경로3길 4 1F,탕 / 찌개 / 전골,만원 미만,2,,37.5957733,127.062481
162,짱구네식당,서울특별시 동대문구 망우로18가길 25 1F,한정식 / 백반 / 정통 한식,만원 미만,2,,37.5888256,127.0613736
163,토속순대국,서울특별시 동대문구 회기로 124-1,탕 / 찌개 / 전골,만원 미만,2,,37.5912944,127.0503295
164,북창동순두부,서울특별시 동대문구 왕산로 214 청량리역사 3F,탕 / 찌개 / 전골,만원 미만,1,,37.5803056,127.0484479
165,주다냉면,서울특별시 동대문구 답십리로30길 18,국수 / 면 요리,만원 미만,2,,37.5743938,127.0484578
166,옹골진치킨,서울특별시 동대문구 안암로 86-1,닭 / 오리 요리,만원 미만,1,,37.5834803,127.0305698
167,명동찌개마을,서울특별시 동대문구 장한로 106,탕 / 찌개 / 전골,만원 미만,1,,37.5698487,127.07048
168,마늘떡볶이,서울특별시 동대문구 사가정로25길 22-4,기타 한식,만원 미만,2,,37.5796251,127.0705996
169,컵짱이야,서울특별시 동대문구 이문로 96-1,기타 한식,만원 미만,2,,37.5953992,127.0597453
170,범표어묵,서울특별시 동대문구 왕산로 214,기타 한식,만원 미만,2,,37.5792928,127.0479007
171,서울김밥,서울특별시 동대문구 답십리로72길 24,기타 한식,만원 미만,1,,37.5710492,127.0739596
172,소문난보배곱창,서울특별시 동대문구 고산자로 539-1,고기 요리,만원 미만,2,,37.58756839999999,127.0374044
173,동서비빔국수,서울특별시 동대문구 천호대로 265 ,국수 / 면 요리,만원 미만,2,,37.568254,127.0513523
174,사랑채,서울특별시 동대문구 이문로25길 22,한정식 / 백반 / 정통 한식,만원 미만,1,,37.5956196,127.0582319
175,전주분식,서울특별시 동대문구 경희대로6길 9,기타 한식,만원 미만,1,,37.5932374,127.0532954
176,천호낙지,서울특별시 동대문구 사가정로 207,해산물 요리,만원 미만,1,,37.5788332,127.067993
177,김씨네돌솥밥순두부,서울특별시 동대문구 망우로21길 4,탕 / 찌개 / 전골,만원 미만,1,,37.5906143,127.062984
178,용두감자탕,서울특별시 동대문구 왕산로16길 15,탕 / 찌개 / 전골,만원 미만,1,,37.5770462,127.0312498
179,육전식당,서울특별시 동대문구 난계로30길 16,고기 요리,만원-2만원,117,4.4,37.5742381,127.0242968
180,나정순할매쭈꾸미,서울특별시 동대문구 무학로 144,해산물 요리,만원-2만원,77,4.4,37.5770555,127.0307346
181,와가리피순대,서울특별시 동대문구 왕산로9길 22,탕 / 찌개 / 전골,만원-2만원,20,4.3,37.57808989999999,127.0278863
182,대흥설농탕,서울특별시 동대문구 한천로 60,탕 / 찌개 / 전골,만원-2만원,9,4.3,37.56694590000001,127.062547
183,회기왕족발보쌈,서울특별시 동대문구 회기로 158,고기 요리,만원-2만원,91,4.2,37.5907943,127.0534668
184,남원통닭,서울특별시 동대문구 제기동 635-1,닭 / 오리 요리,만원-2만원,9,4.1,37.5804222,127.0424972
185,오소리순대,서울특별시 동대문구 회기로4길 16,탕 / 찌개 / 전골,만원-2만원,7,4.1,37.5905137,127.037157
186,육전식당,서울특별시 동대문구 천호대로 38,고기 요리,만원-2만원,28,4.0,37.5736481,127.0274912
187,은하곱창,서울특별시 동대문구 전농로15길 22,고기 요리,만원-2만원,34,4.0,37.57799139999999,127.0562735
188,서울뼈구이매운족발,서울특별시 동대문구 왕산로 274-1 1F,고기 요리,만원-2만원,18,4.0,37.5849946,127.0512655
189,멍군집,서울특별시 동대문구 회기로 148-4,고기 요리,만원-2만원,16,4.0,37.5912389,127.0526255
190,정편백,서울특별시 동대문구 서울시립대로12길 3,고기 요리,만원-2만원,15,4.0,37.5787935,127.050237
191,홍도야빈대떡,서울특별시 동대문구 제기로 11-1 1F,한정식 / 백반 / 정통 한식,만원-2만원,9,4.0,37.586617,127.0343244
192,고깃집도훈,서울특별시 동대문구 회기로21길 29,탕 / 찌개 / 전골,만원-2만원,10,4.0,37.59267930000001,127.0531315
193,동경통닭,서울특별시 동대문구 왕산로35길 24 청량리전통시장,닭 / 오리 요리,만원-2만원,13,3.8,37.5807161,127.0431761
194,홍능족발,서울특별시 동대문구 홍릉로 20,고기 요리,만원-2만원,9,3.8,37.5819784,127.0449477
195,용두동쭈꾸미,서울특별시 동대문구 무학로36길 10,해산물 요리,만원-2만원,8,3.8,37.5771716,127.0310501
196,장군집,서울특별시 동대문구 회기로25길 23-5,고기 요리,만원-2만원,16,3.7,37.59108519999999,127.0553631
197,감초식당,서울특별시 동대문구 약령서길 28 1F,고기 요리,만원-2만원,14,3.7,37.5795271,127.0362433
198,고수찜닭,서울특별시 동대문구 이문로30길 31-4,닭 / 오리 요리,만원-2만원,19,3.7,37.5963445,127.0620266
199,이모네파전,서울특별시 동대문구 망우로1길 37,한정식 / 백반 / 정통 한식,만원-2만원,24,3.5,37.5890607,127.0560545
200,고기야미안해,서울특별시 동대문구 경희대로4길 20,해산물 요리,만원-2만원,20,3.5,37.5921956,127.0536087
201,규범곱창,서울특별시 동대문구 회기로 156,고기 요리,만원-2만원,8,,37.59089609999999,127.0533534
202,양대창구이전문점 왕십리,서울특별시 동대문구 장한로 58 태화빌딩 1F 101호,고기 요리,만원-2만원,3,,37.5660714,127.0680604
203,술사와,서울특별시 동대문구 답십리로63길 66,해산물 요리,만원-2만원,4,,37.5754991,127.0690965
204,열정쭈꾸미,서울특별시 동대문구 답십리로 241,해산물 요리,만원-2만원,4,,37.5728489,127.0671258
205,형제집,서울특별시 동대문구 제기로6길 14-2,닭 / 오리 요리,만원-2만원,14,,37.5859344,127.0342585
206,영천선비,서울특별시 동대문구 회기로 137 1F,고기 요리,만원-2만원,2,,37.5914447,127.0517657
207,마루샤브,서울특별시 동대문구 왕산로 61 한일빌딩 1F,탕 / 찌개 / 전골,만원-2만원,1,,37.577957,127.0300289
208,화덕고,서울특별시 동대문구 이문로 88-13,고기 요리,만원-2만원,4,,37.5949113,127.0598035
209,BK볏짚직화구이,서울특별시 동대문구 장한로26가길 29 1F,고기 요리,만원-2만원,4,,37.5704116,127.0715869
210,도톰,서울특별시 동대문구 천호대로85길 28 1F,고기 요리,만원-2만원,4,,37.5631302,127.066784
211,등촌샤브칼국수,서울특별시 동대문구 회기로21길 38,탕 / 찌개 / 전골,만원-2만원,4,,37.59294010000001,127.0529583
212,전국통일닭발,서울특별시 동대문구 장한로6길 10,닭 / 오리 요리,만원-2만원,8,,37.563491,127.0667173
213,다퍼줘,서울특별시 동대문구 왕산로 155,해산물 요리,만원-2만원,2,,37.57895329999999,127.0404679
214,홍익돈까스,서울특별시 동대문구 망우로21길 52,기타 한식,만원-2만원,6,,37.5903648,127.0600464
215,돈사돈,서울특별시 동대문구 안암로 6,고기 요리,만원-2만원,2,,37.577861,127.0247227
216,대한닭발1979,서울특별시 동대문구 장한로 116,닭 / 오리 요리,만원-2만원,2,,37.5707046,127.0710387
217,이문닭발,서울특별시 동대문구 회기로19길 10,닭 / 오리 요리,만원-2만원,2,,37.5918901,127.0529218
218,옹골진치킨,서울특별시 동대문구 이문로28길 15 2F,닭 / 오리 요리,만원-2만원,11,,37.59548729999999,127.0607407
219,고흥소곱창&부추생삼겹살,서울특별시 동대문구 휘경로2가길 1,고기 요리,만원-2만원,4,,37.5955084,127.0610168
220,선진국낙지마당,서울특별시 동대문구 장한로 149-1,해산물 요리,만원-2만원,3,,37.5738104,127.0714779
221,마포껍데기,서울특별시 동대문구 사가정로 221,고기 요리,만원-2만원,1,,37.57888080000001,127.0696884
222,봉추찜닭,서울특별시 동대문구 회기로19길 17,닭 / 오리 요리,만원-2만원,3,,37.5923308,127.0528211
223,신가네왕코등갈비,서울특별시 동대문구 천호대로 67,고기 요리,만원-2만원,4,,37.5740797,127.0309905
224,직앤쿡,서울특별시 동대문구 망우로 80,해산물 요리,만원-2만원,1,,37.5897489,127.0622531
225,퐈이야,서울특별시 동대문구 왕산로 278 2F,고기 요리,만원-2만원,2,,37.5851949,127.0514079
226,고기하다,서울특별시 동대문구 경희대로4길 64 1F,고기 요리,만원-2만원,3,,37.5912694,127.0556348
227,대성집,서울특별시 동대문구 제기로6길 14,닭 / 오리 요리,만원-2만원,8,,37.58579330000001,127.0343056
228,마약고기,서울특별시 동대문구 왕산로 94-2,고기 요리,만원-2만원,1,,37.5779069,127.0336886
229,장원닭한마리,서울특별시 동대문구 전농로 30-1,닭 / 오리 요리,만원-2만원,2,,37.56735740000001,127.0570744
230,신화쭈꾸미,서울특별시 동대문구 경희대로4길 74,해산물 요리,만원-2만원,3,,37.5911552,127.0563406
231,인생소곱창,서울특별시 동대문구 회기로21길 9 1F,고기 요리,만원-2만원,1,,37.591873,127.0530409
232,육회지존,서울특별시 동대문구 회기로 186,고기 요리,만원-2만원,1,,37.5897211,127.0563847
233,종구네통닭,서울특별시 동대문구 왕산로35길 24,닭 / 오리 요리,만원-2만원,1,,37.5807161,127.0431761
234,미미갈매기살,서울특별시 동대문구 왕산로 112-11,고기 요리,만원-2만원,1,,37.57752809999999,127.0361853
235,현고대닭발,서울특별시 동대문구 제기로2가길 3,닭 / 오리 요리,만원-2만원,4,,37.5853235,127.0345959
236,강금옥쭈꾸미,서울특별시 동대문구 이문로 40,해산물 요리,만원-2만원,2,,37.5908544,127.0566977
237,꽃세겹살,서울특별시 동대문구 경희대로3길 17,고기 요리,만원-2만원,5,,37.5926548,127.0514287
238,용두동임오네쭈꾸미,서울특별시 동대문구 무학로36길 6,해산물 요리,만원-2만원,6,,37.5771175,127.030941
239,전통춘천닭갈비,서울특별시 동대문구 답십리로 152,닭 / 오리 요리,만원-2만원,1,,37.5726519,127.0568492
240,골목족발,서울특별시 동대문구 회기로26길 5,고기 요리,만원-2만원,2,,37.59019929999999,127.0546734
241,참말로좋수닭 273,서울특별시 동대문구 회기로 160 1F,닭 / 오리 요리,만원-2만원,4,,37.5906198,127.0537328
242,이문동그집,서울특별시 동대문구 이문로 193-6,고기 요리,만원-2만원,2,,37.6039088,127.0618149
243,수타생고기,서울특별시 동대문구 천호대로2길 23-3,고기 요리,만원-2만원,3,,37.5740485,127.0242574
244,30년전통춘천닭갈비,서울특별시 동대문구 한천로14길 70,닭 / 오리 요리,만원-2만원,2,,37.5662982,127.0664298
245,더고집,서울특별시 동대문구 전농로 48,고기 요리,만원-2만원,1,,37.56902609999999,127.0573024
246,통일부대찌개,서울특별시 동대문구 이문로28길 9,탕 / 찌개 / 전골,만원-2만원,4,,37.5957488,127.0604226
247,흥부골숯불갈비,서울특별시 동대문구 장한로24길 46,고기 요리,만원-2만원,2,,37.5698661,127.07326
248,동의보쌈,서울특별시 동대문구 장한로 157,고기 요리,만원-2만원,3,,37.5744319,127.0715698
249,팔각도,서울특별시 동대문구 회기로13길 10  1F,닭 / 오리 요리,만원-2만원,1,,37.5919074,127.051043
250,이문시장,서울특별시 동대문구 휘경로2길 16 1F,고기 요리,만원-2만원,4,,37.5953476,127.0606236
251,안씨네쭈꾸미,서울특별시 동대문구 이문로 17-26,해산물 요리,만원-2만원,2,,37.59001660000001,127.0546904
252,서울본가,서울특별시 동대문구 사가정로25길 29,한정식 / 백반 / 정통 한식,만원-2만원,1,,37.5801135,127.0703784
253,굿아임찜닭,서울특별시 동대문구 경희대로1가길 16-1 1F,닭 / 오리 요리,만원-2만원,2,,37.5924609,127.0516328
254,조개베네,서울특별시 동대문구 안암로24길 31-6,해산물 요리,만원-2만원,2,,37.588197,127.0368143
255,달래진족,서울특별시 동대문구 장한로 126,고기 요리,만원-2만원,2,,37.5715037,127.071588
256,양님이네,서울특별시 동대문구 장한로24길 7,닭 / 오리 요리,만원-2만원,1,,37.5708388,127.0714876
257,선정숯불생고기,서울특별시 동대문구 천호대로 305,고기 요리,만원-2만원,1,,37.5658917,127.0545222
258,고깃,서울특별시 동대문구 무학로 134 ,고기 요리,만원-2만원,1,,37.5761293,127.03075
259,철계단집,서울특별시 동대문구 회기로31가길 35-1,고기 요리,만원-2만원,3,,37.59036040000001,127.0567798
260,명품금돼지,서울특별시 동대문구 사가정로23길 64 성우스타펠리스 104동 1F,고기 요리,만원-2만원,3,,37.5815929,127.0702457
261,답구정동,서울특별시 동대문구 고미술로 36 1F,고기 요리,만원-2만원,4,,37.5680163,127.0518262
262,형고깃집,서울특별시 동대문구 회기로 149-3,고기 요리,만원-2만원,1,,37.5914799,127.0532395
263,옛날처럼,서울특별시 동대문구 장한로 147,고기 요리,만원-2만원,1,,37.5734377,127.0715221
264,오동통닭,서울특별시 동대문구 홍릉로1길 37,닭 / 오리 요리,만원-2만원,1,,37.5804128,127.0428822
265,돈벼락돌김치삼겹살,서울특별시 동대문구 장한로26길 24,고기 요리,만원-2만원,2,,37.571443,127.0729325
266,광주집사철탕,서울특별시 동대문구 제기로 69,닭 / 오리 요리,만원-2만원,2,,37.5868112,127.0408007
267,씹는곱창,서울특별시 동대문구 휘경로2길 5-12,고기 요리,만원-2만원,3,,37.5953439,127.0616315
268,화주부,서울특별시 동대문구 경희대로3길 21,탕 / 찌개 / 전골,만원-2만원,1,,37.59263790000001,127.0512342
269,마포생주먹고기,서울특별시 동대문구 휘경로14길 7,고기 요리,만원-2만원,1,,37.59479839999999,127.063278
270,경성주막,서울특별시 동대문구 천호대로 7-10,한정식 / 백반 / 정통 한식,만원-2만원,1,,37.5754042,127.0248657
271,도야식당,서울특별시 동대문구 답십리로23길 80-18,고기 요리,만원-2만원,1,,37.5782838,127.051396
272,압구정제주집,서울특별시 동대문구 장한로5길 51 ,고기 요리,만원-2만원,1,,37.5650805,127.0637612
273,채선당,서울특별시 동대문구 사가정로 6,탕 / 찌개 / 전골,만원-2만원,3,,37.5771492,127.0643595
274,교촌치킨,서울특별시 동대문구 전농로 81,닭 / 오리 요리,만원-2만원,4,,37.5722376,127.0570978
275,진고복식당,서울특별시 동대문구 왕산로 214 7F,한정식 / 백반 / 정통 한식,만원-2만원,3,,37.5792928,127.0479007
276,영동교집,서울특별시 동대문구 천호대로83길 32,고기 요리,만원-2만원,1,,37.5634471,127.0652656
277,경동연탄불돼지,서울특별시 동대문구 약령서1길 34,고기 요리,만원-2만원,1,,37.5799748,127.0364504
278,육미반상,서울특별시 동대문구 왕산로3길 16 1F,한정식 / 백반 / 정통 한식,만원-2만원,1,,37.5772698,127.0257924
279,BHC치킨,서울특별시 동대문구 답십리로 237,닭 / 오리 요리,만원-2만원,1,,37.572875,127.0667881
280,우리집한상,서울특별시 동대문구 회기로13길 23,한정식 / 백반 / 정통 한식,만원-2만원,2,,37.5925607,127.0509396
281,나정순할매쭈꾸미,서울특별시 동대문구 약령시로 65,해산물 요리,만원-2만원,3,,37.582974,127.0370707
282,농푸꼬지기,서울특별시 동대문구 왕산로 200 7F,한정식 / 백반 / 정통 한식,만원-2만원,1,,37.5799838,127.0455472
283,태백돼지갈비,서울특별시 동대문구 천호대로 126,고기 요리,만원-2만원,1,,37.5738191,127.0374761
284,부산갈매기,서울특별시 동대문구 천호대로85길 26-6 ,고기 요리,만원-2만원,1,,37.5626758,127.0669696
285,일층집,서울특별시 동대문구 천장산로 40,탕 / 찌개 / 전골,만원-2만원,4,,37.5994409,127.0576651
286,해송,서울특별시 동대문구 이문로9가길 32,해산물 요리,만원-2만원,4,,37.5980995,127.0562314
287,썬더치킨,서울특별시 동대문구 이문로 31,닭 / 오리 요리,만원-2만원,2,,37.5903729,127.0559757
288,충만치킨,서울특별시 동대문구 휘경로2길 19,닭 / 오리 요리,만원-2만원,3,,37.595152,127.0607246
289,신가네왕코등갈비,서울특별시 동대문구 한천로 202,고기 요리,만원-2만원,1,,37.5788044,127.0686772
290,전통춘천닭갈비,서울특별시 동대문구 장한로28가길 1,닭 / 오리 요리,만원-2만원,1,,37.57303220000001,127.0724396
291,해적자연산횟집,서울특별시 동대문구 제기로 3-1,해산물 요리,만원-2만원,1,,37.5865586,127.0334726
292,로즈힐,서울특별시 동대문구 왕산로 214 7F,탕 / 찌개 / 전골,만원-2만원,2,,37.5792928,127.0479007
293,가정삼계탕,서울특별시 동대문구 난계로30길 55,탕 / 찌개 / 전골,만원-2만원,1,,37.5734757,127.0262516
294,꼬기92,서울특별시 동대문구 이문로 123,고기 요리,만원-2만원,1,,37.5977325,127.0608291
295,장안동대구반야월막창,서울특별시 동대문구 답십리로72길 66,고기 요리,만원-2만원,1,,37.5693771,127.072957
296,꾼들이 꾸운 누룽지통닭,서울특별시 동대문구 답십리로 313-6 1F,닭 / 오리 요리,만원-2만원,1,,37.5726157,127.0755104
297,삼보수제갈비,서울특별시 동대문구 망우로21길 24,고기 요리,만원-2만원,1,,37.590465,127.0618841
298,이문동그집,서울특별시 동대문구 회기로28길 14,고기 요리,만원-2만원,1,,37.5891363,127.0562676
299,서울우담냉채족발,서울특별시 동대문구 경희대로1가길 39,고기 요리,만원-2만원,2,,37.5931131,127.0521816
300,화통삼,서울특별시 동대문구 천호대로85길 14,고기 요리,만원-2만원,1,,37.5625197,127.0664871
301,굽네치킨,서울특별시 동대문구 이문로9길 8,닭 / 오리 요리,만원-2만원,1,,37.592929,127.0574268
302,우리동네연탄구이,서울특별시 동대문구 천호대로 281,고기 요리,만원-2만원,1,,37.5674369,127.0523757
303,모닥불,서울특별시 동대문구 회기로8길 34,고기 요리,만원-2만원,1,,37.590507,127.0409911
304,치악산흑염소요리전문점,서울특별시 동대문구 장한로 146,고기 요리,만원-2만원,1,,37.5733433,127.0721188
305,일번지곱창,서울특별시 동대문구 전농로4가길 12,고기 요리,만원-2만원,1,,37.5669987,127.0581996
306,20년전통외대닭갈비,서울특별시 동대문구 이문로 88-15 1F,닭 / 오리 요리,만원-2만원,1,,37.5948614,127.0599876
307,푸라닭치킨,서울특별시 동대문구 장한로 48,닭 / 오리 요리,만원-2만원,1,,37.5652288,127.0674743
308,BHC치킨,서울특별시 동대문구 장한로5길 50 1F,닭 / 오리 요리,만원-2만원,1,,37.565385,127.0638694
309,뚱보집,서울특별시 동대문구 경희대로1가길 3 ,고기 요리,만원-2만원,1,,37.5919485,127.0512169
310,돈보네 숯불고기,서울특별시 동대문구 장한로 159 ,고기 요리,만원-2만원,1,,37.574589,127.0716109
311,BHC치킨,서울특별시 동대문구 전농로 65-1 ,닭 / 오리 요리,만원-2만원,1,,37.5707825,127.0569962
312,노랑통닭,서울특별시 동대문구 경희대로1길 13,닭 / 오리 요리,만원-2만원,2,,37.5916467,127.051343
313,춘천닭갈비,서울특별시 동대문구 왕산로 211-1,닭 / 오리 요리,만원-2만원,1,,37.58116649999999,127.0460551
314,위대한족보,서울특별시 동대문구 제기로38길 40,고기 요리,만원-2만원,2,,37.5844496,127.0494813
315,보드람치킨,서울특별시 동대문구 회기로 160-2,닭 / 오리 요리,만원-2만원,1,,37.5905843,127.0538046
316,만선회세꼬시,서울특별시 동대문구 하정로 45,해산물 요리,만원-2만원,1,,37.5751651,127.0265783
317,옛날할머니보쌈,서울특별시 동대문구 이문로 100 2F,고기 요리,만원-2만원,1,,37.5956549,127.0599471
318,본죽,서울특별시 동대문구 망우로21가길 4,기타 한식,만원-2만원,1,,37.5905137,127.0624598
319,마리채,서울특별시 동대문구 회기로13길 6,고기 요리,만원-2만원,1,,37.5916822,127.0510493
320,순수치킨,서울특별시 동대문구 회기로 160-2,닭 / 오리 요리,만원-2만원,2,,37.5905843,127.0538046
321,장군안창살숯불구이,서울특별시 동대문구 망우로16길 5,고기 요리,만원-2만원,1,,37.5896091,127.061785
322,우뚝소곱창,서울특별시 동대문구 장한로23길 21 1F,고기 요리,만원-2만원,1,,37.5712329,127.0694734
323,미식본좌,서울특별시 동대문구 제기로5길 46 1F,퓨전 한식,만원-2만원,1,,37.5882222,127.03559
324,싱싱오징어바다,서울특별시 동대문구 휘경로2길 13,해산물 요리,만원-2만원,1,,37.595368,127.06092
325,대통삼,서울특별시 동대문구 천호대로4길 12,고기 요리,만원-2만원,1,,37.5737907,127.0252275
326,최원석의돼지한판서해쭈꾸미,서울특별시 동대문구 전농로 222,해산물 요리,만원-2만원,3,,37.5838961,127.0536039
327,서래갈매기,서울특별시 동대문구 휘경로2길 5-8,고기 요리,만원-2만원,0,,37.5954361,127.0614355
328,조마루감자탕,서울특별시 동대문구 전농로 231,탕 / 찌개 / 전골,만원-2만원,1,,37.5844604,127.0526276
329,진미생고기전문점,서울특별시 동대문구 휘경로2가길 5,고기 요리,만원-2만원,1,,37.5954138,127.0612354
330,수라간,서울특별시 동대문구 제기로38길 55-9,한정식 / 백반 / 정통 한식,만원-2만원,1,,37.5836479,127.049171
331,천호낙지,서울특별시 동대문구 왕산로37길 3,해산물 요리,만원-2만원,1,,37.5801263,127.0440022
332,윤가네청국장,서울특별시 동대문구 왕산로37길 7,탕 / 찌개 / 전골,만원-2만원,1,,37.5802522,127.0438625
333,홍수계찜닭,서울특별시 동대문구 왕산로 210 청량리한화역사내 3F,닭 / 오리 요리,만원-2만원,1,,37.5865233,127.0460785
334,성수면옥,서울특별시 동대문구 왕산로 210 7F,국수 / 면 요리,만원-2만원,1,,37.5803953,127.0379534
335,일미간장게장,서울특별시 동대문구 장한로24길 7,한정식 / 백반 / 정통 한식,2만원-3만원,23,3.6,37.5708388,127.0714876
336,홍곱창,서울특별시 동대문구 회기로25길 60,고기 요리,2만원-3만원,30,3.5,37.5923112,127.0569012
337,신설동 부산양곱창,서울특별시 동대문구 보문로 12 1F,고기 요리,2만원-3만원,4,,37.576631,127.0234006
338,허브영양족발,서울특별시 동대문구 휘경로3길 11-2,고기 요리,2만원-3만원,8,,37.59595220000001,127.0624301
339,늘봄 해물찜 & 손칼국수,서울특별시 동대문구 전농로 39,해산물 요리,2만원-3만원,6,,37.5684624,127.0567843
340,엄나무집,서울특별시 동대문구 답십리로45길 4,닭 / 오리 요리,2만원-3만원,1,,37.573105,127.0559344
341,만냥회,서울특별시 동대문구 장한로 47,해산물 요리,2만원-3만원,2,,37.5653495,127.0668989
342,진미육가,서울특별시 동대문구 장한로 24,고기 요리,2만원-3만원,4,,37.5633574,127.0662311
343,봉화양꼬치,서울특별시 동대문구 회기로 148-8,고기 요리,2만원-3만원,2,,37.5910851,127.0525448
344,회기돌곱창,서울특별시 동대문구 이문로 42,고기 요리,2만원-3만원,4,,37.5910375,127.0568403
345,경성고기꾼,서울특별시 동대문구 회기로21길 8,고기 요리,2만원-3만원,4,,37.5917745,127.0532358
346,신토불이,서울특별시 동대문구 사가정로 278,닭 / 오리 요리,2만원-3만원,2,,37.5798233,127.0757586
347,장어세상,서울특별시 동대문구 장한로 9,해산물 요리,2만원-3만원,2,,37.5624081,127.064802
348,송학수산,서울특별시 동대문구 장한로26길 67,해산물 요리,2만원-3만원,1,,37.5715174,127.0750643
349,일번지정육식당,서울특별시 동대문구 장한로 18 1F,고기 요리,2만원-3만원,1,,37.5627364,127.0658664
350,풍천장어마을,서울특별시 동대문구 서울시립대로 109,해산물 요리,2만원-3만원,1,,37.5804073,127.0507996
351,부산횟집,서울특별시 동대문구 무학로34가길 21,해산물 요리,2만원-3만원,1,,37.577418,127.0338443
352,한우천국,서울특별시 동대문구 장한로 96,고기 요리,2만원-3만원,2,,37.5690068,127.0700954
353,용두동복집,서울특별시 동대문구 왕산로16길 9,해산물 요리,2만원-3만원,1,,37.5774279,127.0313219
354,대명조개구이,서울특별시 동대문구 장한로9길 8,해산물 요리,2만원-3만원,1,,37.56574639999999,127.0668351
355,경성고기꾼,서울특별시 동대문구 안암로 160,고기 요리,2만원-3만원,1,,37.5887076,127.035449
356,장수한방족발,서울특별시 동대문구 서울시립대로 55 1F,고기 요리,2만원-3만원,1,,37.5763155,127.047531
357,석이네꽃닭발,서울특별시 동대문구 장한로18길 22 ,닭 / 오리 요리,2만원-3만원,1,,37.5674917,127.0700282
358,산천가든,서울특별시 동대문구 왕산로32길 96,닭 / 오리 요리,2만원-3만원,1,,37.575232,127.0398081
359,왕도숯불갈비,서울특별시 동대문구 약령시로 122,고기 요리,2만원-3만원,1,,37.5829276,127.0434422
360,우마양대창,서울특별시 동대문구 답십리로 61-1 1F,고기 요리,2만원-3만원,1,,37.5759571,127.0481232
361,곱분이곱창,서울특별시 동대문구 장한로 105  106호,고기 요리,2만원-3만원,1,,37.5699851,127.0699406
362,서산간장게장,서울특별시 동대문구 장한로24길 7,한정식 / 백반 / 정통 한식,2만원-3만원,0,,37.5708388,127.0714876
363,빛나는바다,서울특별시 동대문구 장한로 21,해산물 요리,2만원-3만원,1,,37.56339310000001,127.0654983
364,삼복한방닭한마리,서울특별시 동대문구 회기로16길 5-1 1F,닭 / 오리 요리,2만원-3만원,1,,37.5910406,127.0516078
365,총각회수산,서울특별시 동대문구 홍릉로1길 27,해산물 요리,2만원-3만원,1,,37.5805697,127.0436807
366,육회공작소,서울특별시 동대문구 회기로 189,고기 요리,2만원-3만원,1,,37.5900848,127.0568014
367,왕족,서울특별시 동대문구 한빛로 74 1F,고기 요리,2만원-3만원,1,,37.5783207,127.0308688
368,호수갈비,서울특별시 동대문구 서울시립대로27길 53,고기 요리,2만원-3만원,1,,37.5848413,127.0521393
369,동강오리,서울특별시 동대문구 제기로 124 ,닭 / 오리 요리,2만원-3만원,0,,37.5865371,127.0467747
370,유성관,서울특별시 동대문구 경희대로3길 30,고기 요리,3만원-4만원,2,,37.593022,127.0508205
371,갈비명가이상,서울특별시 동대문구 천호대로 327,고기 요리,3만원-4만원,5,,37.5645708,127.0564361
372,장위동유성집,서울특별시 동대문구 장한로 33,고기 요리,3만원-4만원,1,,37.5643653,127.0661755
373,양촌리,서울특별시 동대문구 천호대로 395-2,고기 요리,3만원-4만원,2,,37.5619984,127.0631285
374,오늘손칼국수찜,서울특별시 동대문구 전농로 51,해산물 요리,3만원-4만원,3,,37.5695274,127.0568863
375,신설홍어횟집,서울특별시 동대문구 청계천로5길 9,해산물 요리,4만원 이상,2,,37.5712591,127.0274498
376,탕의신홍대포,서울특별시 동대문구 장한로 47,해산물 요리,4만원 이상,3,,37.5653495,127.0668989
377,장수회관,서울특별시 동대문구 전농로16길 16,고기 요리,3만원-4만원,1,,37.5781503,127.0582369
378,홍능갈비집,서울특별시 동대문구 제기로 85,고기 요리,3만원-4만원,3,,37.5868877,127.0424438
379,미남참치,서울특별시 동대문구 천호대로 389,해산물 요리,4만원 이상,1,,37.562171,127.0622865
380,돼랑이우랑이,서울특별시 동대문구 휘경로 31-1,까스 요리,만원 미만,18,4.0,37.5951011,127.0635097
381,언니네함바그,서울특별시 동대문구 회기로25길 59 1F,기타 일식,만원 미만,7,4.0,37.5923829,127.0567372
382,코코니주방,서울특별시 동대문구 이문로 112 2F,기타 일식,만원 미만,12,3.8,37.5964905,127.0605616
383,키친요로시쿠,서울특별시 동대문구 경희대로6길 4,정통 일식 / 일반 일식,만원 미만,9,3.7,37.5932835,127.0529755
384,마루기,서울특별시 동대문구 이문로28길 16,라멘 / 소바 / 우동,만원 미만,14,3.6,37.5954483,127.0604864
385,스타동,서울특별시 동대문구 회기로 127,정통 일식 / 일반 일식,만원 미만,5,3.6,37.591566,127.0507133
386,돈부리청년,서울특별시 동대문구 천장산로4길 42,돈부리 / 일본 카레 / 벤토,만원 미만,15,3.5,37.5990121,127.058128
387,기석일호,서울특별시 동대문구 이문로17길 39,돈부리 / 일본 카레 / 벤토,만원 미만,8,3.4,37.5945624,127.0566124
388,마카나이,서울특별시 동대문구 왕산로 272,돈부리 / 일본 카레 / 벤토,만원 미만,14,3.3,37.5847262,127.0510482
389,카레집,서울특별시 동대문구 서울시립대로27길 43,돈부리 / 일본 카레 / 벤토,만원 미만,8,3.3,37.5839857,127.0523424
390,킨토토,서울특별시 동대문구 제기로5길 36 1F,정통 일식 / 일반 일식,만원 미만,11,3.1,37.5878256,127.0353505
391,가야가야,서울특별시 동대문구 휘경로2가길 4 1F,라멘 / 소바 / 우동,만원 미만,6,,37.5953141,127.0610588
392,특별식당,서울특별시 동대문구 제기로2길 15,돈부리 / 일본 카레 / 벤토,만원 미만,6,,37.5857415,127.0333688
393,진키친,서울특별시 동대문구 회기로21길 8 1F,정통 일식 / 일반 일식,만원 미만,6,,37.5917745,127.0532358
394,아비꼬,서울특별시 동대문구 경희대로3길 5,돈부리 / 일본 카레 / 벤토,만원 미만,3,,37.592543,127.052096
395,고씨네,서울특별시 동대문구 휘경로 16 B1,돈부리 / 일본 카레 / 벤토,만원 미만,5,,37.5956288,127.061646
396,카빙당,서울특별시 동대문구 천장산로7길 29 J.S빌딩,까스 요리,만원 미만,11,,37.5981949,127.0562132
397,백돈,서울특별시 동대문구 장한로 106 1F,까스 요리,만원 미만,4,,37.5698487,127.07048
398,동경,서울특별시 동대문구 왕산로 17-12,까스 요리,만원 미만,2,,37.5769255,127.0252331
399,반지하돈부리,서울특별시 동대문구 망우로18다길 44,돈부리 / 일본 카레 / 벤토,만원 미만,7,,37.5852928,127.0608371
400,코코이찌방야,서울특별시 동대문구 왕산로 214 청량리민자역사 3F,돈부리 / 일본 카레 / 벤토,만원 미만,4,,37.5853988,127.0452923
401,쿠마키친,서울특별시 동대문구 회기로31가길 34-4 1F,정통 일식 / 일반 일식,만원 미만,4,,37.5907392,127.0570558
402,아키타,서울특별시 동대문구 정릉천동로 58 롯데캐슬피렌체 상가 117호,정통 일식 / 일반 일식,만원 미만,2,,37.5772055,127.0357731
403,빨강동 39호,서울특별시 동대문구 천호대로4길 21 서울풍물시장,이자카야 / 오뎅 / 꼬치,만원 미만,1,,37.5726757,127.0255106
404,텐,서울특별시 동대문구 회기로 116-1 1F,까스 요리,만원 미만,4,,37.5912815,127.0495144
405,왼손우동짜장탕수육,서울특별시 동대문구 이문로 61,라멘 / 소바 / 우동,만원 미만,3,,37.5928459,127.0576316
406,마루,서울특별시 동대문구 경희대로1가길 34,돈부리 / 일본 카레 / 벤토,만원 미만,2,,37.5929584,127.0518812
407,히비야,서울특별시 동대문구 회기로21길 29,정통 일식 / 일반 일식,만원 미만,4,,37.59267930000001,127.0531315
408,키친요시노,서울특별시 동대문구 회기로25길 4,정통 일식 / 일반 일식,만원 미만,4,,37.5906801,127.0548474
409,오늘동,서울특별시 동대문구 장한로5길 18 1F,돈부리 / 일본 카레 / 벤토,만원 미만,2,,37.5646019,127.0654549
410,놀스캘리,서울특별시 동대문구 경희대로1가길 42 1F,회 / 스시,만원 미만,1,,37.5929305,127.052099
411,히노아지,서울특별시 동대문구 왕산로 지하 205 롯데백화점 청량리점 B2,라멘 / 소바 / 우동,만원 미만,2,,37.580676,127.0476654
412,고씨네,서울특별시 동대문구 안암로 158-1,돈부리 / 일본 카레 / 벤토,만원 미만,2,,37.5886302,127.0353582
413,코바코,서울특별시 동대문구 정릉천동로 58 128호,까스 요리,만원 미만,1,,37.5769394,127.0357027
414,하카타,서울특별시 동대문구 경희대로4길 72,라멘 / 소바 / 우동,만원 미만,3,,37.5911931,127.0562371
415,지노돈까스,서울특별시 동대문구 제기로38길 13,까스 요리,만원 미만,1,,37.5852155,127.0506015
416,모리,서울특별시 동대문구 왕산로 200 7F,라멘 / 소바 / 우동,만원 미만,1,,37.5799838,127.0455472
417,시키카츠,서울특별시 동대문구 회기로 110,까스 요리,만원-2만원,63,4.6,37.5913593,127.0486562
418,연어이야기,서울특별시 동대문구 고산자로 528-1,회 / 스시,만원-2만원,17,4.4,37.5869471,127.0383431
419,즐거운맛돈까스,서울특별시 동대문구 왕산로 15-1 2F,까스 요리,만원-2만원,56,4.3,37.5764932,127.0252568
420,오관스시,서울특별시 동대문구 회기로 121,회 / 스시,만원-2만원,48,4.0,37.5915679,127.0500554
421,스시선생,서울특별시 동대문구 경희대로4길 54,회 / 스시,만원-2만원,34,4.0,37.5914518,127.0552351
422,스시고이,서울특별시 동대문구 회기로 148-5,회 / 스시,만원-2만원,16,3.9,37.5911122,127.052772
423,차칸스시,서울특별시 동대문구 회기로25길 52 1F,회 / 스시,만원-2만원,13,3.7,37.5919543,127.0566668
424,닛시스시,서울특별시 동대문구 신이문로 35,회 / 스시,만원-2만원,8,,37.6030941,127.0659872
425,스시해나루,서울특별시 동대문구 경희대로 3-1,회 / 스시,만원-2만원,13,,37.5919549,127.0521295
426,완미,서울특별시 동대문구 전농로2나길 5,퓨전 일식,만원-2만원,7,,37.5669281,127.0572587
427,주수사,서울특별시 동대문구 이문로17길 4,회 / 스시,만원-2만원,7,,37.5945993,127.0587589
428,우마스시,서울특별시 동대문구 전농로 96-1,회 / 스시,만원-2만원,11,,37.5735294,127.0577449
429,인우초밥,서울특별시 동대문구 한천로11길 61-5,회 / 스시,만원-2만원,3,,37.5671184,127.0585196
430,마루,서울특별시 동대문구 회기로21길 9,정통 일식 / 일반 일식,만원-2만원,1,,37.591873,127.0530409
431,스시긴,서울특별시 동대문구 장한로 111-1,회 / 스시,만원-2만원,6,,37.570679,127.0702987
432,알래스카에서온연어가맛있는집,서울특별시 동대문구 고산자로 553,회 / 스시,만원-2만원,7,,37.5887234,127.0366173
433,육회한연어,서울특별시 동대문구 이문로 32,회 / 스시,만원-2만원,6,,37.5902031,127.0562654
434,우시라멘,서울특별시 동대문구 이문로 88-11,라멘 / 소바 / 우동,만원-2만원,6,,37.5948544,127.0596786
435,키세츠,서울특별시 동대문구 경희대로1가길 11,이자카야 / 오뎅 / 꼬치,만원-2만원,1,,37.592354,127.0513386
436,은행골,서울특별시 동대문구 회기로 155,회 / 스시,만원-2만원,3,,37.5910825,127.0535661
437,이상준초밥,서울특별시 동대문구 휘경로 12,회 / 스시,만원-2만원,4,,37.59582040000001,127.0612654
438,도모다찌,서울특별시 동대문구 경희대로4길 15 2F,이자카야 / 오뎅 / 꼬치,만원-2만원,1,,37.5924543,127.0535057
439,전농초밥,서울특별시 동대문구 사가정로 122,회 / 스시,만원-2만원,2,,37.5771864,127.0584936
440,카츠마론,서울특별시 동대문구 한천로 142 1F,까스 요리,만원-2만원,2,,37.5734489,127.0670051
441,한톨vol.1,서울특별시 동대문구 한천로24길 74-16,돈부리 / 일본 카레 / 벤토,만원-2만원,1,,37.5677976,127.0677989
442,스시사이젠,서울특별시 동대문구 장한로5길 17,회 / 스시,만원-2만원,1,,37.564217,127.0653193
443,오꼬네,서울특별시 동대문구 전농로 50,이자카야 / 오뎅 / 꼬치,만원-2만원,1,,37.5691916,127.0573784
444,호박식당,서울특별시 동대문구 천호대로85길 13 형인타워 1F,기타 일식,만원-2만원,1,,37.5627104,127.0661112
445,우마이,서울특별시 동대문구 장한로 99 양우내안애,회 / 스시,만원-2만원,1,,37.56972409999999,127.0697616
446,모코모코,서울특별시 동대문구 회기로 147 2F,까스 요리,만원-2만원,2,,37.5915842,127.0528759
447,사보텐,서울특별시 동대문구 왕산로 214 롯데백화점 3F,까스 요리,만원-2만원,1,,37.5792928,127.0479007
448,스시와다,서울특별시 동대문구 종암로 2-1 1F,회 / 스시,만원-2만원,1,,37.5904621,127.0366855
449,홍대개미,서울특별시 동대문구 왕산로 214 3F,돈부리 / 일본 카레 / 벤토,만원-2만원,1,,37.5792928,127.0479007
450,경호야,서울특별시 동대문구 회기로 131,회 / 스시,만원-2만원,1,,37.591519,127.0511465
451,사시미래,서울특별시 동대문구 경희대로4길 76,회 / 스시,만원-2만원,1,,37.5912119,127.0564452
452,쏭스호루몽데판야끼,서울특별시 동대문구 경희대로1길 8-13,철판 요리,만원-2만원,1,,37.5922438,127.0517487
453,호시,서울특별시 동대문구 회기로25길 26 1F,이자카야 / 오뎅 / 꼬치,만원-2만원,1,,37.5910569,127.0557745
454,연어사랑,서울특별시 동대문구 안암로22길 16,회 / 스시,만원-2만원,1,,37.5879367,127.035494
455,꼬다야,서울특별시 동대문구 장한로2길 15  2F,이자카야 / 오뎅 / 꼬치,만원-2만원,1,,37.5621569,127.0660785
456,이자카야 경,서울특별시 동대문구 회기로23길 7,이자카야 / 오뎅 / 꼬치,만원-2만원,1,,37.591163,127.0539433
457,"유초밥, 돈까스",서울특별시 동대문구 왕산로 280,회 / 스시,만원-2만원,1,,37.5853034,127.0515673
458,스시코야,서울특별시 동대문구 황물로 42 1F,회 / 스시,2만원-3만원,10,4.4,37.5732855,127.0462213
459,와레와레쿡,서울특별시 동대문구 망우로21길 52 춘태빌딩 A동 101호,이자카야 / 오뎅 / 꼬치,2만원-3만원,13,4.0,37.5903648,127.0600464
460,대왕참치회기,서울특별시 동대문구 이문로 20,회 / 스시,2만원-3만원,1,,37.5893333,127.0553287
461,청담이상,서울특별시 동대문구 망우로14길 10,이자카야 / 오뎅 / 꼬치,2만원-3만원,1,,37.5888564,127.0598084
462,두접시,서울특별시 동대문구 경희대로1가길 8-1  1F,이자카야 / 오뎅 / 꼬치,2만원-3만원,1,,37.5921297,127.0515702
463,큰손참치,서울특별시 동대문구 천호대로91길 38 105호,회 / 스시,2만원-3만원,1,,37.56319800000001,127.0696548
464,스시요비,서울특별시 동대문구 왕산로 200 B2,회 / 스시,2만원-3만원,1,,37.5799838,127.0455472
465,스시카야논데,서울특별시 동대문구 장한로27길 46 1F,회 / 스시,3만원-4만원,12,4.5,37.5732597,127.0690621
466,히노하루,서울특별시 동대문구 이문로 45,회 / 스시,4만원 이상,9,3.9,37.5914889,127.0567168
467,엔토츠야,서울특별시 동대문구 한천로26길 48-12 듀펠센터 B1,회 / 스시,4만원 이상,4,,37.5705779,127.0678763
468,대가참치,서울특별시 동대문구 천호대로85길 11,회 / 스시,3만원-4만원,1,,37.562584,127.0660743
469,본참치,서울특별시 동대문구 장한로 77,회 / 스시,3만원-4만원,2,,37.5677753,127.0685248
470,효탄신참치,서울특별시 동대문구 천호대로 7-10 2F,회 / 스시,3만원-4만원,2,,37.5754042,127.0248657
471,가도,서울특별시 동대문구 왕산로28길 35,정통 일식 / 일반 일식,3만원-4만원,1,,37.5765605,127.0390733
472,사조참치,서울특별시 동대문구 난계로 250,회 / 스시,4만원 이상,1,,37.5737357,127.0236875
473,King수제만두,서울특별시 동대문구 한빛로 3,딤섬 / 만두,만원 미만,59,4.6,37.5765196,127.0240938
474,홍릉각,서울특별시 동대문구 약령시로 90,정통 중식 / 일반 중식,만원 미만,33,4.3,37.5827629,127.0401349
475,홍콩중화요리,서울특별시 동대문구 정릉천동로 107,정통 중식 / 일반 중식,만원 미만,8,4.2,37.5817447,127.0354912
476,영화장,서울특별시 동대문구 휘경로 3-8,정통 중식 / 일반 중식,만원 미만,91,4.1,37.5965358,127.0609302
477,경발원,서울특별시 동대문구 망우로21길 34,정통 중식 / 일반 중식,만원 미만,20,4.0,37.5904039,127.0612202
478,신락원,서울특별시 동대문구 전농로20길 2,정통 중식 / 일반 중식,만원 미만,41,3.9,37.5788615,127.0571445
479,봉이만두,서울특별시 동대문구 망우로21길 36 1F,딤섬 / 만두,만원 미만,37,3.9,37.5903932,127.0611286
480,칠기마라탕,서울특별시 동대문구 제기로5길 35 1F,기타 중식,만원 미만,17,3.9,37.5879422,127.0351848
481,미연마라탕,서울특별시 동대문구 경희대로1가길 4,기타 중식,만원 미만,14,3.7,37.5918966,127.0514882
482,식닷컴,서울특별시 동대문구 천장산로4길 8,정통 중식 / 일반 중식,만원 미만,16,3.6,37.5983531,127.0597795
483,큐큐면관,서울특별시 동대문구 회기로 189,정통 중식 / 일반 중식,만원 미만,10,3.5,37.5900848,127.0568014
484,리진,서울특별시 동대문구 전농로 105  2F,정통 중식 / 일반 중식,만원 미만,3,,37.5742909,127.057304
485,동해루,서울특별시 동대문구 전농로 235,정통 중식 / 일반 중식,만원 미만,4,,37.5848912,127.0522994
486,팔삼,서울특별시 동대문구 하정로 53,정통 중식 / 일반 중식,만원 미만,6,,37.575657,127.0263489
487,중국관,서울특별시 동대문구 제기로 22,정통 중식 / 일반 중식,만원 미만,6,,37.5862834,127.0354078
488,도원,서울특별시 동대문구 회기로13길 22,정통 중식 / 일반 중식,만원 미만,1,,37.5924402,127.0511948
489,홍콩반점0410,서울특별시 동대문구 휘경로 17 2F,정통 중식 / 일반 중식,만원 미만,1,,37.5958202,127.0621475
490,킹마라훠궈,서울특별시 동대문구 한빛로 6,정통 중식 / 일반 중식,만원 미만,3,,37.5763709,127.0244173
491,정궁중화요리,서울특별시 동대문구 약령시로 116,정통 중식 / 일반 중식,만원 미만,2,,37.5828878,127.0428664
492,우차이,서울특별시 동대문구 경희대로4길 5 B1,정통 중식 / 일반 중식,만원 미만,3,,37.5925394,127.0528796
493,짬뽕필락,서울특별시 동대문구 사가정로 130 원남빌딩 2F,정통 중식 / 일반 중식,만원 미만,3,,37.5775071,127.0593224
494,어염시수,서울특별시 동대문구 이문로25길 31,정통 중식 / 일반 중식,만원 미만,2,,37.59545,127.0577551
495,네남자,서울특별시 동대문구 한천로24길 74-16 1F,정통 중식 / 일반 중식,만원 미만,2,,37.5677976,127.0677989
496,신라방마라탕,서울특별시 동대문구 천호대로79길 66,기타 중식,만원 미만,1,,37.5649987,127.0644719
497,홍익짬뽕,서울특별시 동대문구 회기로13길 18 1F,정통 중식 / 일반 중식,만원 미만,1,,37.59222889999999,127.0511341
498,홍콩반점0410,서울특별시 동대문구 경희대로 12-1,정통 중식 / 일반 중식,만원 미만,2,,37.5926514,127.0526981
499,아경면선,서울특별시 동대문구 이문로 76 1F,기타 중식,만원 미만,4,,37.5937758,127.0586458
500,만추,서울특별시 동대문구 왕산로 210 롯데백화점 B2,정통 중식 / 일반 중식,만원 미만,1,,37.5803953,127.0379534
501,교동짬뽕,서울특별시 동대문구 천호대로 421,정통 중식 / 일반 중식,만원 미만,3,,37.5617287,127.0659367
502,장짬뽕,서울특별시 동대문구 망우로18가길 75-7 B1,정통 중식 / 일반 중식,만원 미만,2,,37.5869358,127.0606534
503,도쿄짬뽕,서울특별시 동대문구 천호대로 133,정통 중식 / 일반 중식,만원 미만,1,,37.5745108,127.0387578
504,진미,서울특별시 동대문구 왕산로26길 12-6,정통 중식 / 일반 중식,만원 미만,1,,37.57752809999999,127.0361853
505,중국관,서울특별시 동대문구 제기로38길 8,정통 중식 / 일반 중식,만원 미만,1,,37.5854777,127.0503774
506,공자식탁,서울특별시 동대문구 회기로8길 11,정통 중식 / 일반 중식,만원 미만,1,,37.5908725,127.0398416
507,라황상,서울특별시 동대문구 경희대로3길 13,기타 중식,만원 미만,3,,37.5926231,127.0516409
508,호운래반점,서울특별시 동대문구 회기로23길 9,기타 중식,만원 미만,1,,37.5912669,127.0539726
509,신장군마라탕,서울특별시 동대문구 경희대로 14,기타 중식,만원 미만,1,,37.5927345,127.052722
510,용궁,서울특별시 동대문구 한천로 450-1 ,정통 중식 / 일반 중식,만원 미만,1,,37.6007284,127.0677517
511,황하,서울특별시 동대문구 경희대로4길 79,정통 중식 / 일반 중식,만원 미만,2,,37.5913942,127.0564893
512,안동장,서울특별시 동대문구 경동시장로10길 57,정통 중식 / 일반 중식,만원 미만,2,,37.581387,127.0439148
513,국빈,서울특별시 동대문구 천장산로 36,정통 중식 / 일반 중식,만원 미만,1,,37.5991086,127.0578006
514,문성해물짬뽕전문점,서울특별시 동대문구 왕산로 234 1F,정통 중식 / 일반 중식,만원 미만,1,,37.5821526,127.0482243
515,촨커,서울특별시 동대문구 이문로9길 105,기타 중식,만원-2만원,29,4.4,37.5967545,127.0565994
516,사골마라탕,서울특별시 동대문구 이문로9나길 6-13,기타 중식,만원-2만원,10,4.1,37.5982221,127.0563566
517,산해관,서울특별시 동대문구 회기로 116,정통 중식 / 일반 중식,만원-2만원,10,4.0,37.5913273,127.0493813
518,항방양육관,서울특별시 동대문구 천호대로85길 21-1,기타 중식,만원-2만원,4,,37.5630677,127.0662811
519,심양,서울특별시 동대문구 회기로 137 1F,기타 중식,만원-2만원,5,,37.5914447,127.0517657
520,애신마라탕,서울특별시 동대문구 휘경로 16,기타 중식,만원-2만원,4,,37.5956288,127.061646
521,호화양꼬치,서울특별시 동대문구 홍릉로3길 13,기타 중식,만원-2만원,1,,37.5816695,127.0437413
522,팔선생,서울특별시 동대문구 회기로 34,정통 중식 / 일반 중식,만원-2만원,2,,37.5910488,127.0402379
523,해신루,서울특별시 동대문구 휘경로 18-1 2F,정통 중식 / 일반 중식,만원-2만원,2,,37.5955171,127.0618739
524,마라대학,서울특별시 동대문구 회기로 192 2F,기타 중식,만원-2만원,2,,37.5897833,127.0571845
525,와인양꼬치,서울특별시 동대문구 이문로 36 2F,기타 중식,만원-2만원,2,,37.5906362,127.0565657
526,양찬,서울특별시 동대문구 회기로 185-1,기타 중식,만원-2만원,1,,37.5900607,127.056608
527,호호브라더스,서울특별시 동대문구 휘경로 9-5 1F,퓨전 중식,만원-2만원,1,,37.5963268,127.0611616
528,신룽푸마라탕,서울특별시 동대문구 경희대로6길 3-10,기타 중식,만원-2만원,2,,37.59367870000001,127.053043
529,당식당,서울특별시 동대문구 경희대로3길 2 B1,기타 중식,만원-2만원,1,,37.5927734,127.0522924
530,얼땅쟈,서울특별시 동대문구 경희대로1길 8-7 2F,기타 중식,만원-2만원,1,,37.591972,127.0516831
531,하얼빈양꼬치샤브샤브,서울특별시 동대문구 하정로3길 6 1F,기타 중식,만원-2만원,3,,37.5755783,127.0261948
532,자매양꼬치,서울특별시 동대문구 천호대로85길 11 1F,기타 중식,만원-2만원,1,,37.562584,127.0660743
533,소담촌,서울특별시 동대문구 사가정로 207,기타 중식,만원-2만원,1,,37.5788332,127.067993
534,송쉐프,서울특별시 동대문구 장한로2길 20 2F,정통 중식 / 일반 중식,3만원-4만원,3,,37.5618109,127.0663024
535,티원,서울특별시 동대문구 왕산로 214 7F,정통 중식 / 일반 중식,3만원-4만원,2,,37.5792928,127.0479007
536,포레스티,서울특별시 동대문구 이문로9나길 32,브런치 / 버거 / 샌드위치,만원 미만,19,4.2,37.5981959,127.0558893
537,이상한떡볶이집,서울특별시 동대문구 휘경로2가길 6,기타 양식,만원 미만,14,4.1,37.595286,127.0611407
538,에잇올리,서울특별시 동대문구 경희대로6길 3-2 1F,브런치 / 버거 / 샌드위치,만원 미만,8,4.0,37.5934211,127.0530564
539,회기버거,서울특별시 동대문구 이문로 46 1F,브런치 / 버거 / 샌드위치,만원 미만,8,4.0,37.5913918,127.0570883
540,메이크샐러드,서울특별시 동대문구 휘경로2길 16 1F,기타 양식,만원 미만,12,3.8,37.5953476,127.0606236
541,17,서울특별시 동대문구 회기로21길 22,기타 양식,만원 미만,6,3.8,37.5923208,127.053375
542,로이앤벨라,서울특별시 동대문구 장한로26길 42,이탈리안,만원 미만,1,,37.5713557,127.0738539
543,Wells,서울특별시 동대문구 경희대로4길 37 1F,기타 양식,만원 미만,3,,37.5920147,127.0545316
544,뉴올리언스 버거클럽,서울특별시 동대문구 회기로21길 3 B1,브런치 / 버거 / 샌드위치,만원 미만,2,,37.5916783,127.0529188
545,노브랜드버거,서울특별시 동대문구 회기로 144,브런치 / 버거 / 샌드위치,만원 미만,6,,37.5914103,127.0524183
546,레프트커피,서울특별시 동대문구 회기로 164 1F,브런치 / 버거 / 샌드위치,만원 미만,4,,37.5904358,127.0542696
547,초록뜰식당,서울특별시 동대문구 망우로18길 6,기타 양식,만원 미만,2,,37.5895839,127.0623447
548,서울치즈피자,서울특별시 동대문구 천장산로 18,기타 양식,만원 미만,6,,37.5983951,127.0591799
549,써브웨이,서울특별시 동대문구 휘경로 14 1F,브런치 / 버거 / 샌드위치,만원 미만,1,,37.5956665,127.0615176
550,샌디앤샐리,서울특별시 동대문구 안암로 140,브런치 / 버거 / 샌드위치,만원 미만,3,,37.587433,127.0341803
551,맘스터치,서울특별시 동대문구 경희대로 5-1 경희대학교,브런치 / 버거 / 샌드위치,만원 미만,1,,37.5921156,127.0521716
552,버거플래닛,서울특별시 동대문구 고미술로 71 107호,브런치 / 버거 / 샌드위치,만원 미만,3,,37.5666949,127.0539611
553,길섶함박,서울특별시 동대문구 회기로8길 48,스테이크 / 바베큐,만원 미만,1,,37.5909811,127.0416735
554,써브웨이,서울특별시 동대문구 경희대로 5-1,브런치 / 버거 / 샌드위치,만원 미만,1,,37.5921156,127.0521716
555,맘스터치,서울특별시 동대문구 전농로 222,브런치 / 버거 / 샌드위치,만원 미만,1,,37.5838961,127.0536039
556,파치,서울특별시 동대문구 천장산로 36,기타 양식,만원 미만,1,,37.5991086,127.0578006
557,히포크라테스스프,서울특별시 동대문구 안암로 138,기타 양식,만원 미만,1,,37.5872479,127.0339053
558,굿샌드,서울특별시 동대문구 왕산로 295-3,브런치 / 버거 / 샌드위치,만원 미만,1,,37.5867807,127.0520751
559,프랭크버거,서울특별시 동대문구 답십리로 154 ,브런치 / 버거 / 샌드위치,만원 미만,1,,37.5725022,127.0570639
560,그린치킨닥터,서울특별시 동대문구 이문로28길 8,스테이크 / 바베큐,만원 미만,2,,37.5957416,127.0601951
561,소일,서울특별시 동대문구 왕산로 22 맹그로브신설 20F,이탈리안,만원 미만,2,,37.5761404,127.0260675
562,버거킹,서울특별시 동대문구 한천로 100 ,브런치 / 버거 / 샌드위치,만원 미만,1,,37.57006730000001,127.0649576
563,에그드랍,서울특별시 동대문구 경희대로4길 1,브런치 / 버거 / 샌드위치,만원 미만,2,,37.5925757,127.0526923
564,버거호,서울특별시 동대문구 회기로25길 16 ,브런치 / 버거 / 샌드위치,만원 미만,2,,37.5908565,127.0552686
565,KFC,서울특별시 동대문구 이문로 114,브런치 / 버거 / 샌드위치,만원 미만,1,,37.5967083,127.0607548
566,그린브로스샐러드,서울특별시 동대문구 회기로 111,기타 양식,만원 미만,1,,37.5916245,127.048919
567,지미버거,서울특별시 동대문구 왕산로 274 1F,브런치 / 버거 / 샌드위치,만원 미만,1,,37.5849946,127.0512655
568,맥도날드,서울특별시 동대문구 휘경로 15,브런치 / 버거 / 샌드위치,만원 미만,1,,37.59584230000001,127.0618743
569,몬스터플레이스,서울특별시 동대문구 천장산로7길 8,기타 양식,만원 미만,1,,37.59859520000001,127.05737
570,라마파스타,서울특별시 동대문구 망우로18다길 19 1F,기타 양식,만원 미만,1,,37.5864483,127.0608804
571,여빈,서울특별시 동대문구 회기로 114,브런치 / 버거 / 샌드위치,만원 미만,1,,37.5912732,127.0491533
572,미뇽,서울특별시 동대문구 제기로2길 4 2F,브런치 / 버거 / 샌드위치,만원-2만원,13,4.1,37.586095,127.0329747
573,파델라,서울특별시 동대문구 회기로 106 1F,이탈리안,만원-2만원,21,3.9,37.5913545,127.0482906
574,치보,서울특별시 동대문구 천장산로9길 3,이탈리안,만원-2만원,24,3.7,37.5990701,127.057501
575,라구퀸,서울특별시 동대문구 회기로18길 16,이탈리안,만원-2만원,7,3.7,37.5908555,127.0525658
576,코지인무르무르,서울특별시 동대문구 회기로 139 2F,기타 양식,만원-2만원,10,3.5,37.5914371,127.0519481
577,제이비파스타,서울특별시 동대문구 회기로25길 18,기타 양식,만원-2만원,16,3.5,37.5909317,127.0554398
578,호랭이양식당,서울특별시 동대문구 회기로13길 24,이탈리안,만원-2만원,8,3.5,37.5925206,127.0512096
579,일곱평,서울특별시 동대문구 제기로5길 28,브런치 / 버거 / 샌드위치,만원-2만원,12,3.4,37.5875935,127.035067
580,디어테이블,서울특별시 동대문구 답십리로72길 68,브런치 / 버거 / 샌드위치,만원-2만원,11,3.3,37.5692513,127.072877
581,피자헤븐,서울특별시 동대문구 이문로 36,기타 양식,만원-2만원,1,,37.5906362,127.0565657
582,봄솔레씨네,서울특별시 동대문구 서울시립대로29길 3 2F,기타 양식,만원-2만원,4,,37.5838176,127.0541439
583,카페 115,서울특별시 동대문구 천장산로 38 1F,브런치 / 버거 / 샌드위치,만원-2만원,4,,37.5993035,127.0577201
584,낙원스낵,서울특별시 동대문구 경희대로1길 15,기타 양식,만원-2만원,4,,37.5916692,127.0512261
585,엘더키친,서울특별시 동대문구 장한로25길 45 1F,이탈리안,만원-2만원,2,,37.5718292,127.0686475
586,새벽두시,서울특별시 동대문구 망우로16길 26,이탈리안,만원-2만원,2,,37.5889738,127.0610887
587,램반장,서울특별시 동대문구 전농로 24 1F,스테이크 / 바베큐,만원-2만원,3,,37.56694530000001,127.0569279
588,카페치쥬,서울특별시 동대문구 서울시립대로 78-21 1F,브런치 / 버거 / 샌드위치,만원-2만원,4,,37.5784385,127.049783
589,굿갓,서울특별시 동대문구 회기로19길 12,이탈리안,만원-2만원,2,,37.5920391,127.0529731
590,이수영피자,서울특별시 동대문구 안암로24길 5,기타 양식,만원-2만원,5,,37.5885264,127.0354388
591,피자웍스,서울특별시 동대문구 회기로 150-1,기타 양식,만원-2만원,3,,37.5910979,127.0529047
592,ASAP PIZZA,서울특별시 동대문구 장한로 92,기타 양식,만원-2만원,3,,37.5687985,127.0698387
593,고무래,서울특별시 동대문구 장한로26길 37 202호,이탈리안,만원-2만원,2,,37.5716575,127.0736227
594,피자알볼로,서울특별시 동대문구 이문로 88,기타 양식,만원-2만원,1,,37.59460740000001,127.0593193
595,무나드,서울특별시 동대문구 천호대로35길 65 ,이탈리안,만원-2만원,1,,37.5761698,127.0422222
596,빈체로,서울특별시 동대문구 사가정로 148 스포츠상가 1F,이탈리안,만원-2만원,1,,37.5764921,127.0604586
597,샤로스톤,서울특별시 동대문구 휘경로2가길 5 1F,스테이크 / 바베큐,만원-2만원,1,,37.5954138,127.0612354
598,카페37 5,서울특별시 동대문구 답십리로 130 102동 1F,브런치 / 버거 / 샌드위치,만원-2만원,1,,37.5753938,127.0548231
599,피자알볼로,서울특별시 동대문구 한천로 42 위더스빌아파트상가 102호,기타 양식,만원-2만원,1,,37.5661261,127.0619913
600,브릴란테,서울특별시 동대문구 휘경로 6-8 2F,이탈리안,만원-2만원,2,,37.59576879999999,127.0605617
601,도시락파스타,서울특별시 동대문구 회기로19길 18 2F,기타 양식,만원-2만원,2,,37.5922964,127.0530242
602,피자보이시나,서울특별시 동대문구 경희대로4길 26 1F,기타 양식,만원-2만원,1,,37.5921101,127.0538475
603,도미노피자,서울특별시 동대문구 한천로 95,기타 양식,만원-2만원,1,,37.5700222,127.0642608
604,백정스테이크바,서울특별시 동대문구 망우로 122-10,스테이크 / 바베큐,2만원-3만원,7,4.1,37.5908179,127.0665086
605,노바이탈리아노,서울특별시 동대문구 회기로21길 44,이탈리안,2만원-3만원,3,,37.5932639,127.0528897
606,금의환향,서울특별시 동대문구 장한로13길 11-4  1F,퓨전 양식,2만원-3만원,4,,37.5666767,127.0668914
607,더테이블,서울특별시 동대문구 회기로 14 1F,이탈리안,3만원-4만원,7,,37.5910309,127.0377165
608,비나,서울특별시 동대문구 안암로24길 4,인도 음식,만원 미만,24,4.3,37.588379,127.0352698
609,수퍼보울,서울특별시 동대문구 천장산로7길 36 1F 101호,세계음식 기타,만원 미만,7,4.0,37.5983364,127.0557675
610,하마 쌀국수,서울특별시 동대문구 회기로25길 16,베트남 음식,만원 미만,7,3.8,37.5908565,127.0552686
611,미스사이공,서울특별시 동대문구 한빛로 1,베트남 음식,만원 미만,2,,37.5762127,127.0238046
612,르안타이,서울특별시 동대문구 휘경로2길 40,태국 음식,만원 미만,14,,37.59443419999999,127.0599681
613,아라기,서울특별시 동대문구 고미술로 71,베트남 음식,만원 미만,6,,37.5666949,127.0539611
614,포보,서울특별시 동대문구 경희대로 19,베트남 음식,만원 미만,9,,37.5933774,127.0524342
615,깐띤,서울특별시 동대문구 이문로28길 9 2F,베트남 음식,만원 미만,7,,37.5957488,127.0604226
616,시카고커리,서울특별시 동대문구 천호대로31길 23,인도 음식,만원 미만,6,,37.5746176,127.040707
617,분99,서울특별시 동대문구 천장산로4길 36,베트남 음식,만원 미만,6,,37.5990226,127.0586533
618,포앤라이스,서울특별시 동대문구 사가정로 122 하우스토리 1F,베트남 음식,만원 미만,3,,37.5771864,127.0584936
619,베쌀집샤브샤브,서울특별시 동대문구 전농로 36 포레스트스퀘어 1F,베트남 음식,만원 미만,2,,37.5679647,127.0574132
620,커리146,서울특별시 동대문구 이문로 46,인도 음식,만원 미만,3,,37.5913918,127.0570883
621,미스사이공,서울특별시 동대문구 사가정로25길 46 미송빌딩 1F,베트남 음식,만원 미만,2,,37.5807156,127.0709789
622,타이인플레이트,서울특별시 동대문구 이문로 17-26 1F,태국 음식,만원 미만,3,,37.59001660000001,127.0546904
623,싸왓디타이,서울특별시 동대문구 고산자로36길 3,태국 음식,만원 미만,1,,37.5792013,127.0391628
624,밀플랜비,서울특별시 동대문구 천장산로 36 1F,남미 음식,만원 미만,2,,37.5991086,127.0578006
625,포핸즈,서울특별시 동대문구 서울시립대로27길 40 1F,베트남 음식,만원 미만,1,,37.584369,127.0525721
626,코타,서울특별시 동대문구 회기로21길 7 2F,남미 음식,만원-2만원,3,,37.5917653,127.0529755
627,일이삼조브이앤,서울특별시 동대문구 이문로 25 ,베트남 음식,만원-2만원,1,,37.5899802,127.0554394
628,슬로우캘리,서울특별시 동대문구 장한로25길 45,세계음식 기타,만원-2만원,2,,37.5718292,127.0686475
629,잇선,서울특별시 동대문구 한천로24길 24,태국 음식,만원-2만원,1,,37.5701959,127.0664061
630,뉴델리,서울특별시 동대문구 경희대로6길 5,인도 음식,만원-2만원,1,,37.5933342,127.053113
631,청량회관,서울특별시 동대문구 제기로36길 31 1F,다국적 아시아 음식,만원-2만원,2,,37.5846933,127.0486471
632,마스터다이닝,서울특별시 동대문구 경희대로 23 경희의료원 전면프라자 B1,세계음식 기타,만원-2만원,1,,37.593884,127.0513235
633,목꾸안,서울특별시 동대문구 회기로 135,베트남 음식,만원-2만원,1,,37.5914477,127.0515833
634,포베이,서울특별시 동대문구 왕산로 200 롯데백화점 청량리점 7F,베트남 음식,만원-2만원,1,,37.580676,127.0476654
635,콘반,서울특별시 동대문구 한천로26길 48-12 듀펠센터 1F,태국 음식,만원-2만원,1,,37.5705779,127.0678763
636,반포식스,서울특별시 동대문구 왕산로 214 305호,베트남 음식,만원-2만원,1,,37.5792928,127.0479007
637,긴카오,서울특별시 동대문구 망우로18다길 19 ,태국 음식,만원-2만원,1,,37.5864483,127.0608804
638,슈바인학센,서울특별시 동대문구 회기로29길 11,세계음식 기타,2만원-3만원,1,,37.5906314,127.0578917
639,삼시세끼한식뷔페 (휴업중),서울특별시 동대문구 망우로12길 17 1F,뷔페,만원 미만,2,,37.5883808,127.0589266
640,애슐리퀸즈,서울특별시 동대문구 왕산로 200 B2,뷔페,만원-2만원,6,,37.5799838,127.0455472
641,엉터리생고기,서울특별시 동대문구 경희대로3길 20,뷔페,만원-2만원,1,,37.5928523,127.0514534
642,로운샤브샤브&샐러드바,서울특별시 동대문구 왕산로 200 B2,뷔페,만원-2만원,0,,37.5799838,127.0455472
643,슈퍼내추럴,서울특별시 동대문구 전농로23길 78  1F,카페 / 디저트,만원 미만,7,4.4,37.57803790000001,127.0526399
644,골목길빵공작소,서울특별시 동대문구 답십리로60길 112 1F,베이커리,만원 미만,14,4.3,37.5683513,127.0622917
645,커피그라운즈,서울특별시 동대문구 답십리로48길 57,카페 / 디저트,만원 미만,23,4.2,37.5701251,127.0578274
646,이문동커피집,서울특별시 동대문구 이문로25길 39 1F,카페 / 디저트,만원 미만,35,4.2,37.595433,127.0573148
647,알로하올라,서울특별시 동대문구 회기로 133-1 1F,카페 / 디저트,만원 미만,6,4.2,37.5914902,127.0514877
648,씨위드커피,서울특별시 동대문구 회기로25길 59 1F,카페 / 디저트,만원 미만,5,4.1,37.5923829,127.0567372
649,그릭데이,서울특별시 동대문구 회기로23가길 22 1F,카페 / 디저트,만원 미만,8,4.1,37.5921806,127.0543143
650,컴플리트커피,서울특별시 동대문구 천장산로7길 19,카페 / 디저트,만원 미만,74,4.0,37.5982598,127.0567899
651,양자호떡,서울특별시 동대문구 회기로 161 1F,카페 / 디저트,만원 미만,17,4.0,37.5907754,127.054032
652,Mods Place,서울특별시 동대문구 경희대로3길 11,카페 / 디저트,만원 미만,7,4.0,37.5925879,127.0518508
653,Coffee Methodz,서울특별시 동대문구 회기로21길 34,카페 / 디저트,만원 미만,26,3.9,37.5928673,127.0530985
654,카페 대즐링,서울특별시 동대문구 제기로2길 29,카페 / 디저트,만원 미만,23,3.9,37.5856281,127.0341572
655,아임파이,서울특별시 동대문구 휘경로2길 35,카페 / 디저트,만원 미만,18,3.9,37.5946415,127.0602078
656,카페파인,서울특별시 동대문구 안암로22길 15 1F,카페 / 디저트,만원 미만,10,3.9,37.5879995,127.0356812
657,베이크어데이,서울특별시 동대문구 휘경로 3-13 윤산빌딩 1F,카페 / 디저트,만원 미만,10,3.9,37.596824,127.0609074
658,와요,서울특별시 동대문구 경희대로4길 7,카페 / 디저트,만원 미만,22,3.8,37.5925167,127.0530826
659,커피디엔에이로스팅컴퍼니,서울특별시 동대문구 천장산로4길 48 1F,카페 / 디저트,만원 미만,19,3.8,37.59898,127.0578362
660,메모아르,서울특별시 동대문구 회기로 156 2F,베이커리,만원 미만,6,3.8,37.59089609999999,127.0533534
661,카페브레송,서울특별시 동대문구 안암로22길 6,카페 / 디저트,만원 미만,15,3.8,37.5880996,127.0350367
662,망우로30,서울특별시 동대문구 망우로 30-1,카페 / 디저트,만원 미만,16,3.7,37.5881592,127.0566705
663,키라쿠,서울특별시 동대문구 약령시로 5-1 1F,카페 / 디저트,만원 미만,11,3.7,37.5827554,127.0302882
664,언차일드,서울특별시 동대문구 회기로 194,카페 / 디저트,만원 미만,8,3.7,37.589808,127.0573393
665,카페양귀비,서울특별시 동대문구 이문로9길 8,카페 / 디저트,만원 미만,28,3.6,37.592929,127.0574268
666,비하인드미,서울특별시 동대문구 회기로 125,카페 / 디저트,만원 미만,16,3.6,37.591587,127.0505228
667,고소운,서울특별시 동대문구 휘경로2길 4 B1,카페 / 디저트,만원 미만,19,3.6,37.5957969,127.0609203
668,컴투레스트,서울특별시 동대문구 회기로 161-11,카페 / 디저트,만원 미만,19,3.6,37.59117579999999,127.0541878
669,8 Street,서울특별시 동대문구 경희대로3길 8,카페 / 디저트,만원 미만,15,3.6,37.5927753,127.0519685
670,알로카시아인더테라스,서울특별시 동대문구 회기로 111,카페 / 디저트,만원 미만,7,3.5,37.5916245,127.048919
671,카페몰로,서울특별시 동대문구 회기로 163 1F,카페 / 디저트,만원 미만,7,3.5,37.590835,127.0543868
672,크로네,서울특별시 동대문구 경희대로 17,베이커리,만원 미만,8,3.4,37.5931286,127.0524226
673,본노엘,서울특별시 동대문구 전농로 75-18,베이커리,만원 미만,5,3.4,37.5717457,127.0562018
674,뽀르뚜아,서울특별시 동대문구 휘경로 9,베이커리,만원 미만,9,3.4,37.596117,127.0615221
675,OTR,서울특별시 동대문구 이문로9가길 35,카페 / 디저트,만원 미만,3,,37.5981988,127.0560263
676,루데카,서울특별시 동대문구 경희대로4길 79 학산빌딩 1F,카페 / 디저트,만원 미만,1,,37.5913943,127.0564889
677,프리카페,서울특별시 동대문구 답십리로48길 76 1F,카페 / 디저트,만원 미만,3,,37.5693362,127.0575442
678,커피디셈버,서울특별시 동대문구 왕산로 72 한양아이클래스 102호,카페 / 디저트,만원 미만,1,,37.5777429,127.0313846
679,아워웨이브,서울특별시 동대문구 서울시립대로 70-1 B1,카페 / 디저트,만원 미만,4,,37.5771814,127.0487676
680,커피나인,서울특별시 동대문구 답십리로 68 1F,카페 / 디저트,만원 미만,11,,37.57533129999999,127.0483904
681,빈칸,서울특별시 동대문구 망우로21길 63,카페 / 디저트,만원 미만,3,,37.5899521,127.059473
682,베러댄,서울특별시 동대문구 망우로 34,카페 / 디저트,만원 미만,6,,37.58832719999999,127.0570613
683,카페림,서울특별시 동대문구 천호대로27길 8-2,카페 / 디저트,만원 미만,4,,37.5744441,127.0374364
684,비바라비다,서울특별시 동대문구 천호대로81길 32 1F,카페 / 디저트,만원 미만,3,,37.5636722,127.0645576
685,더크림,서울특별시 동대문구 장한로28길 18 1F,카페 / 디저트,만원 미만,4,,37.5728131,127.072997
686,꽃갈피,서울특별시 동대문구 망우로18가길 36,카페 / 디저트,만원 미만,9,,37.5886541,127.060779
687,튠업,서울특별시 동대문구 이문로9길 46,카페 / 디저트,만원 미만,4,,37.5942077,127.0565432
688,원더월커피로스터스,서울특별시 동대문구 답십리로 80 1F,카페 / 디저트,만원 미만,2,,37.574695,127.0494943
689,포컵스,서울특별시 동대문구 이문로30길 10,카페 / 디저트,만원 미만,4,,37.596858,127.0611051
690,카페반창고,서울특별시 동대문구 경희대로1가길 18 B1,카페 / 디저트,만원 미만,13,,37.5925313,127.0516477
691,카페 비반트,서울특별시 동대문구 회기로21길 33,카페 / 디저트,만원 미만,9,,37.5927688,127.052948
692,40년전통그시절그맛,서울특별시 동대문구 고산자로38길 25,카페 / 디저트,만원 미만,4,,37.5801269,127.0398608
693,베브릿지,서울특별시 동대문구 휘경로 4-10,카페 / 디저트,만원 미만,4,,37.5961637,127.060482
694,파운틴,서울특별시 동대문구 한천로26길 48-12,카페 / 디저트,만원 미만,5,,37.5705779,127.0678763
695,헤이피,서울특별시 동대문구 제기로2길 11 2F,카페 / 디저트,만원 미만,5,,37.5858834,127.0333228
696,미바드래프트,서울특별시 동대문구 천장산로7길 8 완후빌딩 2F,카페 / 디저트,만원 미만,3,,37.5986156,127.0573775
697,카페온,서울특별시 동대문구 왕산로 276-1,카페 / 디저트,만원 미만,4,,37.5851342,127.0513657
698,카페드넬,서울특별시 동대문구 회기로19길 23 유경빌딩 1F,카페 / 디저트,만원 미만,3,,37.592645,127.0529043
699,매트팩토리,서울특별시 동대문구 무학로 133-2 유일빌딩 1F,카페 / 디저트,만원 미만,1,,37.576238,127.0301565
700,배트콩,서울특별시 동대문구 경희대로4길 50,카페 / 디저트,만원 미만,6,,37.5915609,127.0550163
701,모서리,서울특별시 동대문구 이문로 45 1F,카페 / 디저트,만원 미만,4,,37.5914889,127.0567168
702,파랑,서울특별시 동대문구 전농로34길 3 1F,카페 / 디저트,만원 미만,3,,37.5847787,127.0529938
703,스윗오브유,서울특별시 동대문구 답십리로 292-3 101호,카페 / 디저트,만원 미만,1,,37.5753938,127.0548231
704,더크림디저트쇼룸,서울특별시 동대문구 천호대로79길 55 ,카페 / 디저트,만원 미만,1,,37.5648098,127.0639434
705,카페김랩,서울특별시 동대문구 천장산로7길 29,카페 / 디저트,만원 미만,4,,37.5981949,127.0562132
706,설빙,서울특별시 동대문구 회기로 193,카페 / 디저트,만원 미만,3,,37.5901447,127.0574211
707,뽀르뚜아,서울특별시 동대문구 이문로 32,베이커리,만원 미만,5,,37.5902031,127.0562654
708,아일랜드비,서울특별시 동대문구 휘경로 4-7 수정유니텔,카페 / 디저트,만원 미만,1,,37.5958538,127.060487
709,인더베이글,서울특별시 동대문구 회기로13길 19 1F,카페 / 디저트,만원 미만,3,,37.5922673,127.0508618
710,투썸플레이스,서울특별시 동대문구 고미술로 81,카페 / 디저트,만원 미만,6,,37.5655704,127.0556967
711,커피프로젝트,서울특별시 동대문구 약령시로 12-1 1F,카페 / 디저트,만원 미만,3,,37.5825234,127.0312298
712,곰탱이커피,서울특별시 동대문구 답십리로23길 129,카페 / 디저트,만원 미만,2,,37.5807178,127.0519821
713,서울쉬퐁,서울특별시 동대문구 한천로63길 17,베이커리,만원 미만,2,,37.6039101,127.066516
714,톤톤,서울특별시 동대문구 답십리로63길 11,카페 / 디저트,만원 미만,2,,37.5732121,127.0679363
715,빌리엔젤,서울특별시 동대문구 왕산로 214 지하 2F,카페 / 디저트,만원 미만,3,,37.5792928,127.0479007
716,쉴만한물가,서울특별시 동대문구 이문로 59,카페 / 디저트,만원 미만,2,,37.5926739,127.0575262
717,래디컬브루잉클럽,서울특별시 동대문구 안암로20길 7-12 1F,카페 / 디저트,만원 미만,3,,37.5880306,127.0349765
718,블랑슈가,서울특별시 동대문구 제기로 40 1F,카페 / 디저트,만원 미만,1,,37.5863469,127.0374462
719,강경원베이커리,서울특별시 동대문구 사가정로 80 카운티에비뉴 1F,베이커리,만원 미만,1,,37.575312,127.0547394
720,청산제과,서울특별시 동대문구 고산자로36길 3 경동시장신관 청년몰 3F,베이커리,만원 미만,1,,37.5797534,127.0390013
721,스타벅스,서울특별시 동대문구 장한로 10,카페 / 디저트,만원 미만,5,,37.5622228,127.0655129
722,아이러브케익,서울특별시 동대문구 회기로 128-1,베이커리,만원 미만,3,,37.5912377,127.0507888
723,오앤디,서울특별시 동대문구 망우로12가길 17,카페 / 디저트,만원 미만,3,,37.5887467,127.0601132
724,비앙꾸 베이커리,서울특별시 동대문구 장한로32길 27 107호,베이커리,만원 미만,2,,37.5753431,127.073783
725,레드인,서울특별시 동대문구 장한로27가길 32-1,카페 / 디저트,만원 미만,1,,37.5744297,127.0712868
726,마이미스로즈,서울특별시 동대문구 왕산로 210 롯데백화점 청량리점 3F,카페 / 디저트,만원 미만,1,,37.5803953,127.0379534
727,카페슬로우봉봉,서울특별시 동대문구 전농로 164 1F,카페 / 디저트,만원 미만,1,,37.5793291,127.0567955
728,눈타이드,서울특별시 동대문구 왕산로43가길 2,카페 / 디저트,만원 미만,1,,37.5838018,127.0481478
729,셉,서울특별시 동대문구 서울시립대로 82,카페 / 디저트,만원 미만,1,,37.5780196,127.0494622
730,엘가커피,서울특별시 동대문구 천장산로7길 10-1 2F,카페 / 디저트,만원 미만,4,,37.5984905,127.0571324
731,스타벅스,서울특별시 동대문구 이문로 37 ,카페 / 디저트,만원 미만,8,,37.5907694,127.0561043
732,스타벅스,서울특별시 동대문구 휘경로 12-1,카페 / 디저트,만원 미만,2,,37.595688,127.0613927
733,역시커피,서울특별시 동대문구 회기로 28,카페 / 디저트,만원 미만,4,,37.59101709999999,127.0395589
734,카페 노마드,서울특별시 동대문구 휘경로 10 2F,카페 / 디저트,만원 미만,1,,37.5959219,127.0610025
735,아티제,서울특별시 동대문구 이문로 107 한국외국어대학교,카페 / 디저트,만원 미만,3,,37.597108,127.0588498
736,카페엔드롱,서울특별시 동대문구 하정로 43 1F,카페 / 디저트,만원 미만,3,,37.5750882,127.0265363
737,플로랄카페,서울특별시 동대문구 망우로16길 32 1F,카페 / 디저트,만원 미만,2,,37.58864,127.0611574
738,그대쉴꽃,서울특별시 동대문구 회기로19길 6,카페 / 디저트,만원 미만,1,,37.5917805,127.052853
739,까페이레,서울특별시 동대문구 천호대로 247 메트로팰리스,카페 / 디저트,만원 미만,1,,37.5694524,127.0498791
740,카리스,서울특별시 동대문구 제기로 148,카페 / 디저트,만원 미만,1,,37.5859651,127.0493691
741,백씨네콩다방,서울특별시 동대문구 회기로21길 3 2F,카페 / 디저트,만원 미만,5,,37.5916783,127.0529188
742,신설동사람들,서울특별시 동대문구 한빛로 33-2 1F,카페 / 디저트,만원 미만,1,,37.5784061,127.0264648
743,구십이문,서울특별시 동대문구 이문로16길 30,카페 / 디저트,만원 미만,2,,37.5940363,127.0607263
744,보스코젤라또,서울특별시 동대문구 천호대로 317 하늘병원 1F,카페 / 디저트,만원 미만,2,,37.565205,127.055535
745,오메이,서울특별시 동대문구 경희대로4길 38,카페 / 디저트,만원 미만,2,,37.5918488,127.0544057
746,청량리역3번출구 붕어빵,서울특별시 동대문구 왕산로 209-1 청량리역 3번출구,카페 / 디저트,만원 미만,1,,37.5809354,127.0457841
747,카페 가성비,서울특별시 동대문구 이문로 96-1,카페 / 디저트,만원 미만,1,,37.5953992,127.0597453
748,이문일공칠,서울특별시 동대문구 이문로 107,카페 / 디저트,만원 미만,1,,37.5976171,127.0582192
749,쏘리낫쏘리,서울특별시 동대문구 왕산로 22,카페 / 디저트,만원 미만,1,,37.576616,127.0330864
750,핸섬로스팅커피,서울특별시 동대문구 고산자로56길 17 1F,카페 / 디저트,만원 미만,1,,37.5884503,127.0379354
751,해빙커피로스터스,서울특별시 동대문구 외대역동로12길 13 1F,카페 / 디저트,만원 미만,1,,37.5949783,127.0655156
752,해머커피로스터즈,서울특별시 동대문구 안암로 148-1,카페 / 디저트,만원 미만,7,,37.5879873,127.0346328
753,빵장수단팥빵,서울특별시 동대문구 답십리로 288 바우하우스 1F,베이커리,만원 미만,2,,37.5718718,127.0723465
754,너디블루,서울특별시 동대문구 전농로36길 9 너디블루 1F,카페 / 디저트,만원 미만,3,,37.5854577,127.0529456
755,카페끄망,서울특별시 동대문구 제기로5길 46,카페 / 디저트,만원 미만,2,,37.5882222,127.03559
756,그림제과,서울특별시 동대문구 사가정로25가길 15 1F,카페 / 디저트,만원 미만,2,,37.581052,127.0718159
757,오늘도앙,서울특별시 동대문구 서울시립대로4길 35 1F,카페 / 디저트,만원 미만,1,,37.5741186,127.0485179
758,멜팅폼,서울특별시 동대문구 천장산로7길 10-3,카페 / 디저트,만원 미만,3,,37.5986553,127.0571144
759,리드스트리트커피,서울특별시 동대문구 회기로 166 KB빌딩,카페 / 디저트,만원 미만,3,,37.5903516,127.0544428
760,문뒤엔,서울특별시 동대문구 안암로 146,카페 / 디저트,만원 미만,1,,37.587735,127.0345206
761,카페볼드,서울특별시 동대문구 답십리로 68,카페 / 디저트,만원 미만,1,,37.57533129999999,127.0483904
762,미소당브레드,서울특별시 동대문구 회기로 143-1 1F,베이커리,만원 미만,2,,37.5916548,127.052576
763,해피니스디저트,서울특별시 동대문구 경희대로 9-1 1F,카페 / 디저트,만원 미만,1,,37.5924758,127.0522542
764,신설동역10번출구 계란빵,서울특별시 동대문구 천호대로 4 신설동역10번출구앞,카페 / 디저트,만원 미만,2,,37.5733739,127.0253661
765,그리기요거트,서울특별시 동대문구 경희대로4길 8  1F,카페 / 디저트,만원 미만,2,,37.5923936,127.053134
766,비비카롱,서울특별시 동대문구 회기로 163  1F,카페 / 디저트,만원 미만,2,,37.590835,127.0543868
767,온니당,서울특별시 동대문구 답십리로63길 125 1F,카페 / 디저트,만원 미만,1,,37.5781413,127.0692606
768,크레이저커피,서울특별시 동대문구 경희대로4길 44,카페 / 디저트,만원 미만,1,,37.5916639,127.054716
769,오슬로우,서울특별시 동대문구 전농로 96 1F,카페 / 디저트,만원 미만,1,,37.5735294,127.0577449
770,크레이저커피,서울특별시 동대문구 천장산로 32-2,카페 / 디저트,만원 미만,2,,37.5986662,127.0579217
771,오르앤지드,서울특별시 동대문구 답십리로30길 44,카페 / 디저트,만원 미만,2,,37.57369,127.0474365
772,메가커피,서울특별시 동대문구 장한로 116,카페 / 디저트,만원 미만,2,,37.5707046,127.0710387
773,프롬하츠커피,서울특별시 동대문구 난계로 242 지웰홈스 1F,카페 / 디저트,만원 미만,1,,37.5731258,127.0236006
774,롬카페,서울특별시 동대문구 답십리로 140 세기프라자 1F,카페 / 디저트,만원 미만,1,,37.5753938,127.0548231
775,카페리코,서울특별시 동대문구 무학로37길 42,카페 / 디저트,만원 미만,1,,37.5777569,127.0279303
776,홀스베이크,서울특별시 동대문구 회기로23길 20 1F,베이커리,만원 미만,1,,37.5916439,127.0544672
777,제네131,서울특별시 동대문구 답십리로30길 22-1 ,베이커리,만원 미만,1,,37.5742159,127.0482981
778,녹원,서울특별시 동대문구 경희대로 14,카페 / 디저트,만원 미만,3,,37.5927345,127.052722
779,페이지2726,서울특별시 동대문구 고산자로30길 13 1F,카페 / 디저트,만원 미만,4,,37.5760187,127.0390361
780,붐바,서울특별시 동대문구 이문로 88-26,카페 / 디저트,만원 미만,3,,37.594728,127.0598625
781,배스킨라빈스,서울특별시 동대문구 장한로 27,카페 / 디저트,만원 미만,3,,37.5638657,127.0658987
782,올유니드,서울특별시 동대문구 휘경로2길 16 2F,카페 / 디저트,만원 미만,2,,37.5953476,127.0606236
783,964커피로스터리,서울특별시 동대문구 망우로21길 63,베이커리,만원 미만,2,,37.5899521,127.059473
784,카페 시카고,서울특별시 동대문구 망우로18가길 3,카페 / 디저트,만원 미만,1,,37.5892782,127.0624334
785,머랭,서울특별시 동대문구 답십리로 311,카페 / 디저트,만원 미만,1,,37.57225280000001,127.0752002
786,요띠드,서울특별시 동대문구 천장산로7길 26-2 2F,카페 / 디저트,만원 미만,1,,37.5984237,127.0565432
787,아인스카페,서울특별시 동대문구 경희대로 5 가동 3F,카페 / 디저트,만원 미만,1,,37.592037,127.0521477
788,엘마르조,서울특별시 동대문구 회기로23길 59,카페 / 디저트,만원 미만,1,,37.5926653,127.0557757
789,헤이즐넛버터,서울특별시 동대문구 경희대로3길 27  1F,카페 / 디저트,만원 미만,1,,37.5927295,127.0509726
790,달콤커피,서울특별시 동대문구 경희대로 24 경희의료원 2F,카페 / 디저트,만원 미만,1,,37.593884,127.0513235
791,고산377베이커리,서울특별시 동대문구 고산자로 377,카페 / 디저트,만원 미만,1,,37.5733288,127.0376726
792,커피홀니스,서울특별시 동대문구 정릉천동로 58,카페 / 디저트,만원 미만,1,,37.5769394,127.0357027
793,노엘,서울특별시 동대문구 천장산로7길 56,카페 / 디저트,만원 미만,3,,37.5982421,127.0546883
794,설빙,서울특별시 동대문구 휘경로 9,카페 / 디저트,만원 미만,4,,37.596117,127.0615221
795,빙고,서울특별시 동대문구 경희대로4길 73 1F,카페 / 디저트,만원 미만,3,,37.5913654,127.0562677
796,이츠이츠,서울특별시 동대문구 회기로21길 25 2F,카페 / 디저트,만원 미만,3,,37.592569,127.0532031
797,세컨스텝,서울특별시 동대문구 난계로30길 36-8,카페 / 디저트,만원 미만,1,,37.5736745,127.0249064
798,공차,서울특별시 동대문구 회기로 188,카페 / 디저트,만원 미만,2,,37.5896514,127.0568
799,탐앤탐스,서울특별시 동대문구 장한로 20 1F,카페 / 디저트,만원 미만,1,,37.5629607,127.0659734
800,커피베이,서울특별시 동대문구 천장산로7길 16,카페 / 디저트,만원 미만,1,,37.5984631,127.0569663
801,카페 플래닛,서울특별시 동대문구 휘경로2길 39,카페 / 디저트,만원 미만,1,,37.5944244,127.0602173
802,추억의생크림빵,서울특별시 동대문구 전농로20길 4 B1,베이커리,만원 미만,2,,37.5789808,127.0571928
803,카페브레멘,서울특별시 동대문구 왕산로 293,카페 / 디저트,만원 미만,2,,37.5867045,127.0520149
804,유월의마들렌,서울특별시 동대문구 정릉천동로 112,카페 / 디저트,만원 미만,2,,37.5823475,127.0361526
805,좋은아침PASTRY,서울특별시 동대문구 왕산로 92 ,베이커리,만원 미만,2,,37.57783269999999,127.0334314
806,젠틀마담,서울특별시 동대문구 장안벚꽃로 107 장안현대홈타운 상가 126호,카페 / 디저트,만원 미만,1,,37.571202,127.07432
807,이에나파이,서울특별시 동대문구 고산자로 534 한신아파트,베이커리,만원 미만,1,,37.5886993,127.039069
808,달리는커피,서울특별시 동대문구 경희대로4길 74,카페 / 디저트,만원 미만,1,,37.5911552,127.0563406
809,제제커피,서울특별시 동대문구 이문로9길 105-8,카페 / 디저트,만원 미만,1,,37.5965804,127.0562426
810,볼랫,서울특별시 동대문구 황물로 168  118호,카페 / 디저트,만원 미만,1,,37.5651933,127.0562018
811,러블티,서울특별시 동대문구 망우로18가길 70 1F,카페 / 디저트,만원 미만,4,,37.5871893,127.0602472
812,커피빈,서울특별시 동대문구 이문로 106,카페 / 디저트,만원 미만,1,,37.5960309,127.0602028
813,이디야커피,서울특별시 동대문구 휘경로 12,카페 / 디저트,만원 미만,1,,37.59582040000001,127.0612654
814,딜리커피,서울특별시 동대문구 사가정로 39 1F,카페 / 디저트,만원 미만,3,,37.5727634,127.0513166
815,브라운팰리스커피,서울특별시 동대문구 한천로14길 22,카페 / 디저트,만원 미만,3,,37.5670316,127.0638047
816,프롬하츠커피앤베이커리,서울특별시 동대문구 왕산로 71 바인르미에르,카페 / 디저트,만원 미만,2,,37.5781401,127.0310353
817,시그널커피로스터스,서울특별시 동대문구 왕산로32길 99 관일빌딩 1F,카페 / 디저트,만원 미만,2,,37.5750684,127.0399642
818,오리,서울특별시 동대문구 회기로 149,칵테일 / 와인,만원 미만,3,,37.5914856,127.0530526
819,나그네파전,서울특별시 동대문구 회기로28길 14,전통 주점 / 포차,만원 미만,2,,37.5891363,127.0562676
820,아쿠아,서울특별시 동대문구 이문로30길 22,치킨 / 호프 / 펍,만원 미만,2,,37.596367,127.0613366
821,소주향포차,서울특별시 동대문구 회기로19길 11,전통 주점 / 포차,만원 미만,1,,37.5921149,127.0527627
822,올드크래프트하우스,서울특별시 동대문구 휘경로 5,치킨 / 호프 / 펍,만원 미만,2,,37.5963256,127.0607755
823,아쿠아,서울특별시 동대문구 경희대로1길 8-10,치킨 / 호프 / 펍,만원 미만,2,,37.5920672,127.0519786
824,기린포차,서울특별시 동대문구 이문로28길 11,전통 주점 / 포차,만원 미만,3,,37.59570069999999,127.0604991
825,로코모,서울특별시 동대문구 경희대로1길 7,칵테일 / 와인,만원 미만,2,,37.5915738,127.0516882
826,이모네포장마차,서울특별시 동대문구 망우로 14,전통 주점 / 포차,만원 미만,1,,37.5876069,127.0551002
827,레오펍,서울특별시 동대문구 경희대로4길 15,치킨 / 호프 / 펍,만원 미만,2,,37.5924543,127.0535057
828,공원분식포차,서울특별시 동대문구 사가정로12길 13,전통 주점 / 포차,만원 미만,1,,37.576472,127.0573784
829,발칙한맥주,서울특별시 동대문구 신이문로 32,치킨 / 호프 / 펍,만원 미만,1,,37.6028334,127.0656133
830,플렉스빌,서울특별시 동대문구 회기로21길 6 B1,칵테일 / 와인,만원 미만,1,,37.5916236,127.0531766
831,메이퀸,서울특별시 동대문구 휘경로 9,칵테일 / 와인,만원 미만,2,,37.596117,127.0615221
832,봉쥬비어,서울특별시 동대문구 회기로 190 2F,치킨 / 호프 / 펍,만원 미만,1,,37.5897254,127.0569304
833,취향저격,서울특별시 동대문구 휘경로2길 10,전통 주점 / 포차,만원 미만,1,,37.5955492,127.0608192
834,백수씨심야식당,서울특별시 동대문구 경희대로1길 8-15,일반 주점,만원-2만원,19,3.9,37.5923576,127.0517858
835,치맥파이브,서울특별시 동대문구 회기로21길 8-6 1F,치킨 / 호프 / 펍,만원-2만원,12,3.9,37.5915641,127.0532906
836,히든트랙,서울특별시 동대문구 약령시로 6 수운빌딩,치킨 / 호프 / 펍,만원-2만원,17,3.8,37.5825056,127.0304839
837,배드해빗클럽,서울특별시 동대문구 휘경로2길 19 B1,치킨 / 호프 / 펍,만원-2만원,3,,37.595152,127.0607246
838,철판파전,서울특별시 동대문구 회기로28길 17 1F,전통 주점 / 포차,만원-2만원,7,,37.5892996,127.056407
839,이문바,서울특별시 동대문구 휘경로 6-9 B1,칵테일 / 와인,만원-2만원,2,,37.5959813,127.0605431
840,빅문,서울특별시 동대문구 회기로26길 6 B1,치킨 / 호프 / 펍,만원-2만원,2,,37.5901707,127.0544688
841,버킷리스트,서울특별시 동대문구 휘경로2길 13,칵테일 / 와인,만원-2만원,4,,37.595368,127.06092
842,회기호프,서울특별시 동대문구 회기로 194,치킨 / 호프 / 펍,만원-2만원,2,,37.589808,127.0573393
843,에스플로어,서울특별시 동대문구 경희대로1가길 5,치킨 / 호프 / 펍,만원-2만원,2,,37.5925826,127.051691
844,서래맥주집,서울특별시 동대문구 회기로25길 11,일반 주점,만원-2만원,2,,37.5909306,127.054962
845,실크로드,서울특별시 동대문구 전농로 219 1F,칵테일 / 와인,만원-2만원,6,,37.5836643,127.0531291
846,골목포차,서울특별시 동대문구 경동시장로 18-10,전통 주점 / 포차,만원-2만원,1,,37.580481,127.041405
847,전주막걸리전문점,서울특별시 동대문구 장한로13길 7,전통 주점 / 포차,만원-2만원,1,,37.5666583,127.0674146
848,청담 짝태앤연어,서울특별시 동대문구 신이문로 8,일반 주점,만원-2만원,1,,37.6027686,127.0628972
849,치킨앤칩스,서울특별시 동대문구 회기로 147,일반 주점,만원-2만원,2,,37.5915842,127.0528759
850,차포차,서울특별시 동대문구 장한로 76 ,전통 주점 / 포차,만원-2만원,2,,37.5674879,127.0689755
851,바이브,서울특별시 동대문구 회기로 125 B1,칵테일 / 와인,만원-2만원,1,,37.591587,127.0505228
852,블루호프,서울특별시 동대문구 장한로 120,치킨 / 호프 / 펍,만원-2만원,1,,37.5709811,127.0712515
853,꽃술,서울특별시 동대문구 경희대로1길 8-14 1F,일반 주점,만원-2만원,2,,37.59222159999999,127.0520163
854,무지개맥주,서울특별시 동대문구 경희대로1길 9 1F,일반 주점,만원-2만원,1,,37.5915955,127.0515871
855,지구공간,서울특별시 동대문구 회기로 111-1,일반 주점,만원-2만원,1,,37.5916161,127.0491014
856,맥쓰,서울특별시 동대문구 답십리로 140,치킨 / 호프 / 펍,만원-2만원,1,,37.5753938,127.0548231
857,개인의취향,서울특별시 동대문구 전농로 209 제일빌딩,치킨 / 호프 / 펍,만원-2만원,1,,37.582812,127.0537672
858,고모집,서울특별시 동대문구 제기로 9-4,전통 주점 / 포차,만원-2만원,1,,37.5866579,127.0341552
859,빠따떼프리또,서울특별시 동대문구 제기로5길 40,치킨 / 호프 / 펍,만원-2만원,1,,37.5879945,127.0354072
860,시니혀니비어,서울특별시 동대문구 회기로 161-3,일반 주점,만원-2만원,1,,37.5909091,127.0539624
861,한지창에고인달빛,서울특별시 동대문구 휘경로2가길 1,전통 주점 / 포차,만원-2만원,1,,37.5955084,127.0610168
862,락앤밤,서울특별시 동대문구 휘경로 4-6 B1,치킨 / 호프 / 펍,만원-2만원,1,,37.5960442,127.0604087
863,오뚝식당,서울특별시 동대문구 회기로26길 14,일반 주점,만원-2만원,1,,37.5902269,127.0542858
864,청춘포차,서울특별시 동대문구 서울시립대로 104,일반 주점,만원-2만원,1,,37.5797171,127.0507947
865,팔레트,서울특별시 동대문구 경희대로4길 72 2F,칵테일 / 와인,2만원-3만원,14,3.9,37.5911931,127.0562371
866,도눔솔리스,서울특별시 동대문구 회기로 127  2F,칵테일 / 와인,2만원-3만원,6,,37.591566,127.0507133
867,부산슈퍼,서울특별시 동대문구 전농로17길 37,일반 주점,2만원-3만원,2,,37.57911989999999,127.0550954
868,1988,서울특별시 동대문구 휘경로2길 17 1F,일반 주점,2만원-3만원,2,,37.5952482,127.0608071
869,라이아,서울특별시 동대문구 고산자로52길 8,칵테일 / 와인,3만원-4만원,1,,37.5869872,127.0386223
