,가게이름,가게 주소,음식 종류,가격 범위,리뷰개수,평점,lat,lng
1,신세계떡볶이,서울특별시 중구 명동9길 8-1,기타 한식,만원 미만,54,4.3,37.5642296,126.9852075
2,명동교자,서울특별시 중구 명동10길 10,국수 / 면 요리,만원 미만,113,4.2,37.5633916,126.9851068
3,뽀빠이호프치킨,서울특별시 용산구 후암로 48,닭 / 오리 요리,만원 미만,4,4.2,37.5501872,126.9775088
4,명동교자,서울특별시 중구 명동10길 29,국수 / 면 요리,만원 미만,267,4.0,37.5625339,126.9857421
5,목멱산방,서울특별시 중구 퇴계로20길 71,한정식 / 백반 / 정통 한식,만원 미만,57,3.9,37.55808529999999,126.9868776
6,명화당,서울특별시 중구 명동4길 30 2F,기타 한식,만원 미만,29,3.7,37.5623325,126.9838048
7,틈새라면,서울특별시 중구 명동10길 19-10,기타 한식,만원 미만,14,3.7,37.5629882,126.9859691
8,베테랑칼국수,서울특별시 중구 남대문로 81 롯데백화점 본점 B1,국수 / 면 요리,만원 미만,10,3.7,37.5647202,126.9817016
9,반반국수,서울특별시 중구 퇴계로30길 15-3,국수 / 면 요리,만원 미만,13,3.4,37.56033,126.9922688
10,원조남산왕돈까스,서울특별시 중구 소파로 107,기타 한식,만원 미만,16,3.3,37.5573335,126.9860967
11,한순자손칼국수,서울특별시 중구 남대문시장4길 39-1,국수 / 면 요리,만원 미만,9,3.2,37.5583697,126.9773302
12,함흥에겨울냉면,서울특별시 중구 동호로24길 21,국수 / 면 요리,만원 미만,11,3.1,37.5601587,127.0052241
13,101번지 남산돈가스,서울특별시 중구 소파로 101,기타 한식,만원 미만,10,2.8,37.5569004,126.98572
14,미나미야마,서울특별시 중구 소파로 105,기타 한식,만원 미만,8,,37.5572136,126.9858832
15,필동분식,서울특별시 중구 퇴계로27길 14,기타 한식,만원 미만,7,,37.5617643,126.9917209
16,콩불,서울특별시 중구 명동6길 15,고기 요리,만원 미만,4,,37.5625787,126.9844568
17,양푼이동태탕,서울특별시 용산구 후암로 18,해산물 요리,만원 미만,3,,37.5474685,126.9782068
18,진두부집,서울특별시 중구 동호로24길 39,한정식 / 백반 / 정통 한식,만원 미만,12,,37.5608928,127.0052913
19,강남면옥,서울특별시 중구 명동7길 8 5F,국수 / 면 요리,만원 미만,4,,37.5641319,126.9845364
20,소공바지락칼국수,서울특별시 중구 남대문로 64-1,국수 / 면 요리,만원 미만,3,,37.5628713,126.9822252
21,명동할머니국수,서울특별시 중구 명동9길 17-3,국수 / 면 요리,만원 미만,4,,37.5645851,126.9845337
22,충무로백암순대국,서울특별시 중구 퇴계로 141 세룡빌딩,탕 / 찌개 / 전골,만원 미만,5,,37.5623136,127.0044671
23,간판없는떡볶이집,서울특별시 용산구 후암로 78,기타 한식,만원 미만,3,,37.5528711,126.9767512
24,꽃사슴떡볶이,서울특별시 중구 동호로25길 3,기타 한식,만원 미만,5,,37.5588891,127.0026479
25,루비떡볶이,서울특별시 중구 소공로 63 신세계백화점 신관 B1,기타 한식,만원 미만,5,,37.56025260000001,126.9807639
26,남산토리,서울특별시 중구 퇴계로20길 20,기타 한식,만원 미만,2,,37.5592694,126.9857343
27,속초코다리냉면,서울특별시 중구 소공로 63 신세계백화점 본점 B1,국수 / 면 요리,만원 미만,6,,37.5609008,126.9809889
28,삼진어묵,서울특별시 중구 남대문로 81 롯데백화점 본점 B1,기타 한식,만원 미만,5,,37.5647202,126.9817016
29,낙원식당,서울특별시 중구 퇴계로12길 59,기타 한식,만원 미만,1,,37.5571594,126.981677
30,육대장,서울특별시 중구 명동8나길 45,탕 / 찌개 / 전골,만원 미만,3,,37.5610364,126.9823871
31,오매가매,서울특별시 중구 퇴계로 188 B1,퓨전 한식,만원 미만,3,,37.5607964,126.992541
32,곰국수손만두,서울특별시 중구 퇴계로36길 32,한정식 / 백반 / 정통 한식,만원 미만,4,,37.5603132,126.99505
33,경주장모님미역국,서울특별시 중구 퇴계로 72 B1,탕 / 찌개 / 전골,만원 미만,2,,37.5590809,126.9805937
34,후암동칼국수,서울특별시 용산구 후암로 31,국수 / 면 요리,만원 미만,3,,37.5486159,126.9775234
35,김치만선생,서울특별시 중구 필동로 30-1,탕 / 찌개 / 전골,만원 미만,2,,37.5589347,126.9960125
36,남산설렁탕,서울특별시 중구 소파로 91,탕 / 찌개 / 전골,만원 미만,1,,37.5566997,126.9849067
37,에그머니,서울특별시 중구 소파로 142,기타 한식,만원 미만,3,,37.5593871,126.9882216
38,간식마당,서울특별시 용산구 한강대로104길 77,기타 한식,만원 미만,1,,37.5501557,126.9763775
39,김가네,서울특별시 중구 명동10길 3-1,기타 한식,만원 미만,3,,37.5636356,126.9853978
40,뚱보식당,서울특별시 중구 퇴계로27길 14,고기 요리,만원 미만,2,,37.5617643,126.9917209
41,남도분식,서울특별시 중구 명동7길 21 1F 105호,기타 한식,만원 미만,3,,37.5646918,126.9838429
42,충무칼국수,서울특별시 중구 수표로 46-1,국수 / 면 요리,만원 미만,1,,37.5652216,126.9900387
43,골든키친,서울특별시 중구 삼일대로 343 대신파이낸스센터 B1,퓨전 한식,만원 미만,1,,37.5650766,126.9869552
44,남산순두부,서울특별시 중구 소파로 83,탕 / 찌개 / 전골,만원 미만,1,,37.5565908,126.9839744
45,할머니집,서울특별시 중구 명동9길 43,한정식 / 백반 / 정통 한식,만원 미만,1,,37.5656614,126.9839542
46,승승장구,서울특별시 중구 퇴계로16길 27,해산물 요리,만원 미만,1,,37.5595258,126.9844314
47,김삼보 김치찌개,서울특별시 중구 명동8나길 47,탕 / 찌개 / 전골,만원 미만,1,,37.5610236,126.9822628
48,호호미역,서울특별시 중구 소공로 46 상가 1F 106호,한정식 / 백반 / 정통 한식,만원 미만,3,,37.5593701,126.983201
49,권셰프식탁,서울특별시 중구 명동8나길 35,한정식 / 백반 / 정통 한식,만원 미만,1,,37.561091,126.9829784
50,신세대식품,서울특별시 중구 퇴계로 124-1 명동역지하쇼핑센터 A-1,기타 한식,만원 미만,1,,37.5608222,126.9853555
51,두끼,서울특별시 중구 명동길 14 눈스퀘어,기타 한식,만원 미만,1,,37.5633734,126.9828862
52,다미돈까스,서울특별시 중구 퇴계로24길 6-1,기타 한식,만원 미만,1,,37.5605783,126.9870634
53,먹보대장,서울특별시 중구 을지로 지하 58 을지로입구지하쇼핑센터 B1,기타 한식,만원 미만,4,,37.56607950000001,126.9839633
54,이삭토스트,서울특별시 중구 퇴계로 105,기타 한식,만원 미만,1,,37.5608265,126.9834404
55,원조남산돈까스1976,서울특별시 중구 소파로 103-1,기타 한식,만원 미만,1,,37.5571581,126.9858183
56,육쌈냉면,서울특별시 중구 명동4길 10 2F,국수 / 면 요리,만원 미만,1,,37.5631564,126.983523
57,마포설렁탕,서울특별시 중구 퇴계로14길 15,탕 / 찌개 / 전골,만원 미만,1,,37.5598066,126.9837711
58,미스터순두부,서울특별시 중구 퇴계로27길 61,탕 / 찌개 / 전골,만원 미만,1,,37.5638966,126.9910345
59,육전면사무소,서울특별시 중구 소공로 46 남산쌍용프래티넘,한정식 / 백반 / 정통 한식,만원 미만,1,,37.5593701,126.983201
60,성원식당,서울특별시 중구 명동10길 19-10,한정식 / 백반 / 정통 한식,만원 미만,1,,37.5629882,126.9859691
61,보울,서울특별시 중구 남대문로 81 롯데백화점 본점 B1,한정식 / 백반 / 정통 한식,만원 미만,1,,37.5647202,126.9817016
62,명동면사랑찰솥밥,서울특별시 중구 명동2길 26 B1,한정식 / 백반 / 정통 한식,만원 미만,1,,37.5621715,126.9824736
63,유천냉면,서울특별시 중구 명동3길 17 1F,국수 / 면 요리,만원 미만,3,,37.5644861,126.9833997
64,충남분식,서울특별시 중구 소파로4길 8,기타 한식,만원 미만,2,,37.5592948,126.9884877
65,보돌미역,서울특별시 중구 명동8나길 10 B1,한정식 / 백반 / 정통 한식,만원 미만,2,,37.5616553,126.9842622
66,놀부부대찌개&철판구이,서울특별시 중구 명동8나길 39,탕 / 찌개 / 전골,만원 미만,1,,37.5611,126.9827689
67,원당감자탕,서울특별시 중구 명동8나길 35,탕 / 찌개 / 전골,만원 미만,1,,37.561091,126.9829784
68,치라시,서울특별시 중구 남대문로 81 롯데백화점 본점 B1,기타 한식,만원 미만,1,,37.5647202,126.9817016
69,원조한치,서울특별시 중구 명동7길 14-5,기타 한식,만원 미만,1,,37.5644855,126.9845848
70,쉐프가만든떡볶이,서울특별시 중구 을지로 100 파인에비뉴 B1,기타 한식,만원 미만,1,,37.5657852,126.9887184
71,순대국가마솥족발,서울특별시 용산구 후암로 62,탕 / 찌개 / 전골,만원 미만,1,,37.5513949,126.9771279
72,맛있는집미가,서울특별시 중구 퇴계로42길 10-4,기타 한식,만원 미만,1,,37.5613005,126.9965127
73,명동칼국수,서울특별시 중구 을지로 56 5F,국수 / 면 요리,만원 미만,1,,37.5658831,126.9839659
74,약천,서울특별시 중구 명동7길 6,탕 / 찌개 / 전골,만원 미만,1,,37.5640474,126.9845568
75,맛뜨리아,서울특별시 중구 명동길 81,기타 한식,만원 미만,1,,37.5644309,126.9866151
76,남산분식당,서울특별시 중구 소파로 125 2F,기타 한식,만원 미만,1,,37.5583749,126.9871284
77,낭만김밥,서울특별시 중구 명동7길 21,기타 한식,만원 미만,2,,37.5646918,126.9838429
78,장독대김치찌개,서울특별시 중구 명동9가길 21 1F,탕 / 찌개 / 전골,만원 미만,1,,37.5648366,126.9832908
79,구이구이,서울특별시 중구 퇴계로36가길 43-5,한정식 / 백반 / 정통 한식,만원 미만,1,,37.55836670000001,126.9958775
80,초다짐,서울특별시 중구 퇴계로12길 19,한정식 / 백반 / 정통 한식,만원 미만,1,,37.5587261,126.981349
81,Moon135,서울특별시 중구 퇴계로16길 23-2,기타 한식,만원 미만,0,,37.5595903,126.9846015
82,미성옥,서울특별시 중구 명동길 25-11 1F,탕 / 찌개 / 전골,만원-2만원,94,4.6,37.5641238,126.9839117
83,밀피유,서울특별시 중구 명동9길 17-3 2-3F,기타 한식,만원-2만원,9,4.3,37.5645851,126.9845337
84,이남장,서울특별시 중구 삼일대로12길 16,탕 / 찌개 / 전골,만원-2만원,25,4.2,37.5666071,126.9886412
85,명동영양센터,서울특별시 중구 명동2길 52 대용빌딩,탕 / 찌개 / 전골,만원-2만원,23,4.1,37.5610759,126.9831099
86,육통령,서울특별시 중구 명동8나길 37-2 1-3F,고기 요리,만원-2만원,13,4.1,37.5611212,126.9828195
87,장수갈비,서울특별시 중구 명동2길 54-1,고기 요리,만원-2만원,9,3.9,37.5609705,126.9831124
88,류경회관,서울특별시 중구 을지로 30 B1,국수 / 면 요리,만원-2만원,6,3.9,37.5649903,126.981369
89,필동해물,서울특별시 중구 필동로 30,해산물 요리,만원-2만원,12,3.8,37.558978,126.9960187
90,한성돈까스,서울특별시 중구 남대문로 81 롯데백화점 본점 B1,기타 한식,만원-2만원,7,3.8,37.5647202,126.9817016
91,충무로쭈꾸미불고기,서울특별시 중구 퇴계로31길 11,해산물 요리,만원-2만원,46,3.7,37.5617223,126.9921889
92,남산골산채집,서울특별시 중구 소파로 93,기타 한식,만원-2만원,22,3.7,37.5567317,126.9851711
93,명동함흥면옥,서울특별시 중구 명동10길 35-19,국수 / 면 요리,만원-2만원,36,3.6,37.5627334,126.9856737
94,봉피양,서울특별시 중구 남대문로 81 롯데백화점 본점 B1,국수 / 면 요리,만원-2만원,10,3.5,37.5647202,126.9817016
95,고봉삼계탕,서울특별시 중구 명동7길 21 명동아르누보센텀 2F,탕 / 찌개 / 전골,만원-2만원,15,3.5,37.5646918,126.9838429
96,헤르지아,서울특별시 중구 소파로 97 1F,기타 한식,만원-2만원,4,,37.5567542,126.9854786
97,남산도식후경,서울특별시 중구 남산공원길 627,한정식 / 백반 / 정통 한식,만원-2만원,3,,37.5517646,126.9866808
98,더식당,서울특별시 중구 명동10길 36 2F,해산물 요리,만원-2만원,4,,37.5622105,126.9854318
99,유가네닭갈비,서울특별시 중구 명동8가길 19 2F,닭 / 오리 요리,만원-2만원,4,,37.5618827,126.9860825
100,봉추찜닭,서울특별시 중구 명동10길 12,닭 / 오리 요리,만원-2만원,4,,37.5632566,126.9851165
101,오우가,서울특별시 중구 명동8가길 39,한정식 / 백반 / 정통 한식,만원-2만원,2,,37.5618922,126.9871894
102,서설,서울특별시 중구 소공로 46 남산쌍용플레티넘상가 105호,해산물 요리,만원-2만원,5,,37.5593701,126.983201
103,서서갈비 (휴업중),서울특별시 중구 명동10길 35-10 1F,고기 요리,만원-2만원,3,,37.5624756,126.9859828
104,능라도,서울특별시 중구 명동길 1-8,국수 / 면 요리,만원-2만원,3,,37.5638688,126.9825478
105,림왕돈까스,서울특별시 중구 소파로 91-1,기타 한식,만원-2만원,3,,37.5566981,126.9850368
106,내가찜한닭,서울특별시 중구 명동4길 11,닭 / 오리 요리,만원-2만원,4,,37.5631401,126.9837281
107,평양면옥,서울특별시 중구 소공로 63 본관 5F,국수 / 면 요리,만원-2만원,5,,37.5609008,126.9809889
108,1978테라스,서울특별시 중구 소파로 95 1F,기타 한식,만원-2만원,3,,37.5568371,126.985164
109,아미월,서울특별시 중구 소공로 35 남산롯데캐슬아이리스 120호,퓨전 한식,만원-2만원,5,,37.55821419999999,126.9820784
110,제임스치즈등갈비,서울특별시 중구 명동10길 11,고기 요리,만원-2만원,1,,37.5633122,126.9854033
111,가족회관,서울특별시 중구 남대문로 81 롯데백화점 본점 13F,한정식 / 백반 / 정통 한식,만원-2만원,3,,37.5647202,126.9817016
112,강호동백정,서울특별시 중구 명동10길 19-3,고기 요리,만원-2만원,1,,37.56303279999999,126.9856018
113,치르치르,서울특별시 중구 명동7길 21,닭 / 오리 요리,만원-2만원,2,,37.5646918,126.9838429
114,일번지곱창대창,서울특별시 중구 명동9길 33,고기 요리,만원-2만원,4,,37.5652057,126.9840872
115,하남돼지집,서울특별시 중구 명동9가길 12,고기 요리,만원-2만원,2,,37.5651142,126.9839311
116,은앤정명동닭갈비,서울특별시 중구 명동7길 19 2F,닭 / 오리 요리,만원-2만원,3,,37.5646219,126.9842072
117,순남시래기,서울특별시 중구 명동10길 35-20,한정식 / 백반 / 정통 한식,만원-2만원,3,,37.56288929999999,126.9857893
118,정태네실비집,서울특별시 중구 퇴계로20길 15,기타 한식,만원-2만원,3,,37.55945699999999,126.985863
119,마루터,서울특별시 중구 퇴계로 77 신세계백화점 본점 B1,한정식 / 백반 / 정통 한식,만원-2만원,1,,37.5603075,126.9808306
120,한우리,서울특별시 중구 남대문로 81 롯데백화점 본점 13F,탕 / 찌개 / 전골,만원-2만원,2,,37.5647202,126.9817016
121,안동찜닭,서울특별시 중구 명동10길 3,닭 / 오리 요리,만원-2만원,5,,37.5636367,126.9853162
122,삽교곱창,서울특별시 용산구 한강대로104마길 2,고기 요리,만원-2만원,1,,37.550334,126.9757368
123,우진골뱅이,서울특별시 중구 마른내로 21,해산물 요리,만원-2만원,2,,37.5649028,126.9902671
124,서래헌,서울특별시 중구 남대문로 81 롯데백화점 본점 14F,고기 요리,만원-2만원,2,,37.5647202,126.9817016
125,봉추찜닭,서울특별시 중구 명동8나길 47,닭 / 오리 요리,만원-2만원,1,,37.5610236,126.9822628
126,원당감자탕,서울특별시 중구 명동9길 13,탕 / 찌개 / 전골,만원-2만원,3,,37.5643663,126.9847642
127,신동궁감자탕,서울특별시 중구 명동9길 43,탕 / 찌개 / 전골,만원-2만원,5,,37.5656614,126.9839542
128,남파고택,서울특별시 중구 을지로 30 롯데백화점 본점 13F,한정식 / 백반 / 정통 한식,만원-2만원,3,,37.5649903,126.981369
129,남산왕돈까스,서울특별시 중구 명동7길 21,기타 한식,만원-2만원,3,,37.5646918,126.9838429
130,황금목장,서울특별시 중구 명동8나길 6,고기 요리,만원-2만원,1,,37.561602,126.9845628
131,우촌,서울특별시 중구 을지로12길 24,탕 / 찌개 / 전골,만원-2만원,1,,37.5652289,126.9907902
132,원당감자탕,서울특별시 중구 마른내로 14,탕 / 찌개 / 전골,만원-2만원,1,,37.5646204,126.9893835
133,정림회관,서울특별시 중구 명동8가길 32,고기 요리,만원-2만원,2,,37.5616441,126.986834
134,남산오리진흙구이,서울특별시 중구 필동로 92,닭 / 오리 요리,만원-2만원,1,,37.5535414,126.9968035
135,남도한식정든님,서울특별시 중구 을지로 78 2F,한정식 / 백반 / 정통 한식,만원-2만원,1,,37.56584429999999,126.9864782
136,제주미항,서울특별시 중구 명동8길 8-10,한정식 / 백반 / 정통 한식,만원-2만원,1,,37.5633991,126.9840823
137,죽향,서울특별시 중구 마른내로 14 삼향빌딩,기타 한식,만원-2만원,1,,37.5646204,126.9893835
138,홍탁집,서울특별시 중구 퇴계로42길 8,해산물 요리,만원-2만원,2,,37.5613539,126.996641
139,광장동가온,서울특별시 중구 명동길 74,한정식 / 백반 / 정통 한식,만원-2만원,1,,37.5632533,126.9868325
140,오븐에빠진닭,서울특별시 중구 명동7길 21,닭 / 오리 요리,만원-2만원,1,,37.5646918,126.9838429
141,유가네닭갈비,서울특별시 중구 명동8나길 22,닭 / 오리 요리,만원-2만원,1,,37.5614428,126.983758
142,둘둘치킨,서울특별시 중구 퇴계로20길 5,닭 / 오리 요리,만원-2만원,1,,37.559886,126.9857712
143,BHC치킨,서울특별시 중구 명동7길 21,닭 / 오리 요리,만원-2만원,1,,37.5646918,126.9838429
144,서울불고기,서울특별시 중구 명동2길 57,고기 요리,만원-2만원,1,,37.5609615,126.9834272
145,옛날농장,서울특별시 중구 퇴계로 222-1,고기 요리,만원-2만원,1,,37.5615468,126.9965513
146,세이슌,서울특별시 중구 명동9가길 10,한정식 / 백반 / 정통 한식,만원-2만원,2,,37.5650224,126.9840399
147,완도회집,서울특별시 중구 소공로 38,해산물 요리,만원-2만원,1,,37.5588317,126.9831392
148,중일면옥,서울특별시 중구 명동길 25-4,국수 / 면 요리,만원-2만원,1,,37.5638916,126.9838379
149,이남장,서울특별시 중구 명동9길 39,탕 / 찌개 / 전골,만원-2만원,1,,37.565511,126.9839732
150,명동정한정식,서울특별시 중구 삼일대로 299,한정식 / 백반 / 정통 한식,만원-2만원,2,,37.5615436,126.9884641
151,왕비집,서울특별시 중구 명동8가길 26,고기 요리,만원-2만원,2,,37.5615613,126.9864333
152,불고기마운틴,서울특별시 중구 명동7길 17 2-4F,고기 요리,만원-2만원,1,,37.5645256,126.9842119
153,본가집토종순대,서울특별시 중구 퇴계로 197,기타 한식,만원-2만원,1,,37.561391,126.9939127
154,화포식당,서울특별시 중구 명동7가길 22,고기 요리,만원-2만원,1,,37.5645352,126.9831296
155,박대감닭한마리,"서울특별시 중구 명동7길 21 명동아르누보센텀 110, 122호",닭 / 오리 요리,만원-2만원,1,,37.5646918,126.9838429
156,사랑채,서울특별시 중구 필동로 34,탕 / 찌개 / 전골,만원-2만원,1,,37.5584943,126.9958283
157,대나무집,서울특별시 중구 퇴계로20길 29,고기 요리,만원-2만원,1,,37.5589356,126.9861021
158,삼미옥,서울특별시 중구 퇴계로20가길 6,고기 요리,2만원-3만원,6,4.0,37.5595005,126.9859983
159,흑돈가,서울특별시 중구 명동7길 21 아르누보센텀 B1,고기 요리,2만원-3만원,8,3.6,37.5646918,126.9838429
160,한우리,서울특별시 중구 소공로 63 신세계백화점 본점 5F,탕 / 찌개 / 전골,2만원-3만원,4,,37.5609008,126.9809889
161,아미소,서울특별시 중구 명동4길 25,한정식 / 백반 / 정통 한식,2만원-3만원,2,,37.5624081,126.9841059
162,큰기와집한상,서울특별시 중구 소공로 63 신세계백화점 본점 본관 5F,한정식 / 백반 / 정통 한식,2만원-3만원,6,,37.5609008,126.9809889
163,필동족발,서울특별시 중구 필동로 29,고기 요리,2만원-3만원,3,,37.5588693,126.9962737
164,청기와타운,서울특별시 중구 을지로 54  1F,고기 요리,2만원-3만원,1,,37.565872,126.9838269
165,지우갈비,서울특별시 중구 퇴계로18길 20,고기 요리,2만원-3만원,2,,37.5600122,126.9852466
166,조개와,서울특별시 중구 명동7길 17,해산물 요리,2만원-3만원,1,,37.5645256,126.9842119
167,서울복집,서울특별시 중구 명동길 25-6,해산물 요리,2만원-3만원,1,,37.5639828,126.9838548
168,명동해물탕어머니집,서울특별시 중구 명동8길 11-6,탕 / 찌개 / 전골,2만원-3만원,1,,37.5631219,126.9849622
169,삼호정,서울특별시 중구 퇴계로16길 34,고기 요리,2만원-3만원,1,,37.5595128,126.9840694
170,몽블리,서울특별시 중구 명동8나길 9 3F,고기 요리,2만원-3만원,1,,37.5612566,126.984417
171,비진도전복구이,서울특별시 중구 을지로 54-1,해산물 요리,2만원-3만원,1,,37.565872,126.9838269
172,송원,서울특별시 중구 동호로24길 15,고기 요리,2만원-3만원,2,,37.5598643,127.0051363
173,우리가든,서울특별시 중구 퇴계로 127 B1,고기 요리,2만원-3만원,2,,37.5611147,126.9858338
174,무궁화,서울특별시 중구 남대문로 81 롯데호텔서울 본관 38F,한정식 / 백반 / 정통 한식,4만원 이상,8,4.4,37.5647202,126.9817016
175,라연,서울특별시 중구 동호로 249 서울신라호텔 23F,한정식 / 백반 / 정통 한식,4만원 이상,21,3.8,37.5562855,127.0052953
176,진사댁,서울특별시 중구 명동길 30-1,한정식 / 백반 / 정통 한식,3만원-4만원,1,,37.5633991,126.9840823
177,한국의집,서울특별시 중구 퇴계로36길 10,한정식 / 백반 / 정통 한식,4만원 이상,4,,37.5601211,126.9943973
178,상우가든,서울특별시 중구 을지로12길 28 제이매크로타워 B01,고기 요리,4만원 이상,2,,37.5651656,126.9906241
179,해우리,서울특별시 중구 퇴계로 72,해산물 요리,3만원-4만원,1,,37.5590809,126.9805937
180,서울회관,서울특별시 중구 삼일대로 343 대신파이낸스센터 B2,고기 요리,3만원-4만원,2,,37.5650766,126.9869552
181,왕비집,서울특별시 중구 명동9길 13,고기 요리,3만원-4만원,4,,37.5643663,126.9847642
182,오다리집,서울특별시 중구 명동8나길 28 2-3F,한정식 / 백반 / 정통 한식,3만원-4만원,2,,37.5613933,126.983444
183,순우블랙,서울특별시 중구 명동9길 37-3,고기 요리,4만원 이상,3,,37.565352,126.9840196
184,너비집,서울특별시 중구 명동9길 37-8,고기 요리,4만원 이상,2,,37.5654903,126.9837619
185,한우방,서울특별시 중구 명동9길 37-5 2F,고기 요리,3만원-4만원,1,,37.565316,126.9839272
186,라온,서울특별시 중구 명동8가길 36,고기 요리,3만원-4만원,1,,37.561651,126.9870127
187,묵호횟집,서울특별시 중구 명동9길 43,해산물 요리,4만원 이상,1,,37.5656614,126.9839542
188,호미곶,서울특별시 중구 퇴계로28길 15,해산물 요리,3만원-4만원,1,,37.5602518,126.9911312
189,현가츠,서울특별시 중구 명동8나길 45,까스 요리,만원 미만,9,4.0,37.5610364,126.9823871
190,타마고,서울특별시 중구 을지로 82-1,정통 일식 / 일반 일식,만원 미만,27,3.9,37.566045,126.9933297
191,부자,서울특별시 중구 삼일대로4길 12,까스 요리,만원 미만,6,3.7,37.5618825,126.9898404
192,우메신,서울특별시 중구 명동길 14 Noonsquare 6F,라멘 / 소바 / 우동,만원 미만,3,,37.5633734,126.9828862
193,타케모토,서울특별시 용산구 두텁바위로 61 1F,정통 일식 / 일반 일식,만원 미만,4,,37.546128,126.9790772
194,순돈까스,서울특별시 중구 퇴계로20가길 22 2F,까스 요리,만원 미만,3,,37.5591764,126.986555
195,도제,서울특별시 중구 퇴계로 77 B1,회 / 스시,만원 미만,2,,37.5603075,126.9808306
196,카레카츠,서울특별시 중구 남대문로 81 롯대백화점 본점 B1,까스 요리,만원 미만,3,,37.5647202,126.9817016
197,모리,서울특별시 중구 남대문로 81 롯데백화점 본점,까스 요리,만원 미만,2,,37.5647202,126.9817016
198,홍대개미,서울특별시 중구 소공로 63 B1,돈부리 / 일본 카레 / 벤토,만원 미만,3,,37.5633413,126.9811458
199,연미식당,서울특별시 중구 퇴계로36길 36,정통 일식 / 일반 일식,만원 미만,1,,37.56028,126.9951784
200,겐조라멘,서울특별시 중구 명동7길 22,라멘 / 소바 / 우동,만원 미만,2,,37.5646911,126.9843862
201,히노아지,서울특별시 중구 명동9길 31,라멘 / 소바 / 우동,만원 미만,1,,37.5651291,126.9840848
202,아키나이제면,서울특별시 중구 명동2길 12 ,라멘 / 소바 / 우동,만원 미만,1,,37.562866,126.9823453
203,멘텐,서울특별시 중구 삼일대로 305 동북빌딩,라멘 / 소바 / 우동,만원-2만원,75,4.4,37.5619628,126.9885965
204,쯔루하시후게츠,서울특별시 중구 명동8길 21-5 2F,철판 요리,만원-2만원,63,4.1,37.5628016,126.9850163
205,명동돈가스,서울특별시 중구 명동3길 8,까스 요리,만원-2만원,67,4.0,37.5639929,126.9835683
206,식당진,서울특별시 중구 퇴계로22길 5,정통 일식 / 일반 일식,만원-2만원,13,3.7,37.5605951,126.9864995
207,안즈,서울특별시 중구 남대문로 81 롯데백화점 본점 13F,정통 일식 / 일반 일식,만원-2만원,16,3.4,37.5647202,126.9817016
208,토끼정,서울특별시 중구 남대문로 81 롯데백화점 본점 B1,퓨전 일식,만원-2만원,11,3.4,37.5647202,126.9817016
209,진까스,서울특별시 중구 남대문로 60-5,기타 일식,만원-2만원,4,3.1,37.5626196,126.9821947
210,미도리,서울특별시 중구 퇴계로22길 7,회 / 스시,만원-2만원,4,,37.5605165,126.986581
211,후암편백,서울특별시 용산구 후암로 57-1,기타 일식,만원-2만원,2,,37.5509701,126.9768756
212,스시마이우,서울특별시 중구 을지로 30 B1,회 / 스시,만원-2만원,1,,37.5649903,126.981369
213,스시한판,서울특별시 중구 명동10길 17-1 2F,회 / 스시,만원-2만원,2,,37.5629721,126.9854622
214,소년식당,서울특별시 중구 남대문로 81 롯데백화점 본점 B1,정통 일식 / 일반 일식,만원-2만원,3,,37.5647202,126.9817016
215,스시바,서울특별시 중구 퇴계로 77 신세계백화점 본점 B1,회 / 스시,만원-2만원,3,,37.5603075,126.9808306
216,마쯔야,서울특별시 중구 소공로 63 신세계백화점 본점 5F,라멘 / 소바 / 우동,만원-2만원,3,,37.5609008,126.9809889
217,부엉이돈가스,서울특별시 용산구 남산공원길 126 2F 202B호,까스 요리,만원-2만원,3,,37.5509473,126.9892965
218,오사무식당,서울특별시 중구 을지로 30 B1,돈부리 / 일본 카레 / 벤토,만원-2만원,3,,37.5649903,126.981369
219,후암종점,서울특별시 용산구 두텁바위로 83 1F,이자카야 / 오뎅 / 꼬치,만원-2만원,0,,37.5468392,126.9809812
220,노르딕연어,서울특별시 중구 남대문로 81 롯데백화점 본점 B1,회 / 스시,만원-2만원,3,,37.5647202,126.9817016
221,더키친케이,서울특별시 중구 소공로 38-12,이자카야 / 오뎅 / 꼬치,만원-2만원,1,,37.5588713,126.9835575
222,복초밥,서울특별시 중구 소공로 46 쌍용남산플래티넘,회 / 스시,만원-2만원,1,,37.5593701,126.983201
223,소바식당텐동식당,서울특별시 중구 을지로 30,라멘 / 소바 / 우동,만원-2만원,1,,37.5649903,126.981369
224,돈돈정,서울특별시 중구 명동8길 21-7,정통 일식 / 일반 일식,만원-2만원,2,,37.5628767,126.9851545
225,진미가,서울특별시 중구 삼일대로 343 B2,이자카야 / 오뎅 / 꼬치,만원-2만원,1,,37.56525329999999,126.9873193
226,만게츠,서울특별시 중구 퇴계로18길 16-1 B1,이자카야 / 오뎅 / 꼬치,만원-2만원,1,,37.5601219,126.98533
227,콘부,서울특별시 중구 수표로 42-19 1F,이자카야 / 오뎅 / 꼬치,2만원-3만원,16,4.2,37.5650429,126.9903218
228,까사빠보,서울특별시 중구 소공로 63 신세계백화점 본점 6F,정통 일식 / 일반 일식,2만원-3만원,21,4.0,37.5609008,126.9809889
229,타니넥스트도어,서울특별시 중구 남대문로 73 롯데백화점에비뉴엘 9F,퓨전 일식,2만원-3만원,9,,37.5640066,126.9816823
230,오가와,서울특별시 중구 남대문로 81 롯대백화점 본점 14F,정통 일식 / 일반 일식,2만원-3만원,5,,37.5647202,126.9817016
231,아리아께,서울특별시 중구 동호로 249 서울신라호텔 2F,정통 일식 / 일반 일식,4만원 이상,32,4.4,37.5562855,127.0052953
232,모모야마,서울특별시 중구 남대문로 81 롯데호텔서울 본관 38F,정통 일식 / 일반 일식,4만원 이상,18,3.8,37.5647202,126.9817016
233,스시이소,서울특별시 중구 퇴계로 163-1,회 / 스시,4만원 이상,21,3.5,37.5613824,126.990052
234,일식성진,서울특별시 중구 삼일대로4길 9,정통 일식 / 일반 일식,3만원-4만원,2,,37.562142,126.9896354
235,고구려삼계탕,서울특별시 중구 남대문로 81 롯데백화점 본점 13F,정통 일식 / 일반 일식,4만원 이상,4,,37.5647202,126.9817016
236,마라탄탄면,서울특별시 중구 명동2길 49 2F,기타 중식,만원 미만,6,4.0,37.5611722,126.9833044
237,탄탄면공방,서울특별시 중구 명동7길 21 명동아르누보센텀 1F 120호,기타 중식,만원 미만,6,3.7,37.5646918,126.9838429
238,꽁시면관,서울특별시 중구 명동2길 45,정통 중식 / 일반 중식,만원 미만,23,3.4,37.5613605,126.9831988
239,동방명주,서울특별시 중구 퇴계로 186,정통 중식 / 일반 중식,만원 미만,7,,37.5608115,126.9924129
240,홍콩반점0410,서울특별시 중구 명동10길 14,정통 중식 / 일반 중식,만원 미만,2,,37.5631978,126.985192
241,강서,서울특별시 중구 서애로1길 6,정통 중식 / 일반 중식,만원 미만,2,,37.5609706,126.9982942
242,신룽푸마라탕,서울특별시 중구 퇴계로20길 19 2F,기타 중식,만원 미만,7,,37.5593378,126.9859348
243,구운몽,서울특별시 중구 남대문로 81 롯데백화점 본점 B1,딤섬 / 만두,만원 미만,2,,37.5647202,126.9817016
244,원딤섬,서울특별시 중구 남대문로 81 롯데백화점 본점 B1,딤섬 / 만두,만원 미만,4,,37.5647202,126.9817016
245,탕화쿵푸마라탕,서울특별시 중구 명동4길 16-1 2F,기타 중식,만원 미만,2,,37.5628708,126.9836356
246,양밍위황먼지미판,서울특별시 중구 명동4길 12 1F,정통 중식 / 일반 중식,만원 미만,1,,37.563045,126.9835653
247,스타차이나,서울특별시 중구 남대문로 73 롯데백화점에비뉴엘 9F,정통 중식 / 일반 중식,만원 미만,3,,37.5640066,126.9816823
248,마라식객,서울특별시 중구 퇴계로42길 23 1F,기타 중식,만원 미만,3,,37.5607014,126.9966238
249,양귀비짬뽕,서울특별시 용산구 후암로 38,정통 중식 / 일반 중식,만원 미만,0,,37.5492156,126.9777982
250,라화쿵부,서울특별시 중구 명동10길 36 3F,기타 중식,만원 미만,3,,37.5622105,126.9854318
251,미국가주우육면대왕,서울특별시 중구 명동10길 38 3F,기타 중식,만원 미만,2,,37.56213650000001,126.985529
252,창화루,서울특별시 중구 남대문로 81,기타 중식,만원 미만,1,,37.5647202,126.9817016
253,금산제면소,서울특별시 중구 소공로6길 13,기타 중식,만원-2만원,66,4.2,37.5585871,126.9837153
254,란주칼면,서울특별시 중구 소공로 64 동남빌딩,정통 중식 / 일반 중식,만원-2만원,107,4.1,37.5644524,127.017438
255,반티엔야오 카오위,서울특별시 중구 명동7길 13 1F,기타 중식,만원-2만원,11,3.9,37.5642997,126.9839286
256,마루벤벤,서울특별시 중구 명동4길 23-5,기타 중식,만원-2만원,4,3.2,37.5626586,126.9841071
257,황산훠꿔성,서울특별시 중구 퇴계로18길 22,기타 중식,만원-2만원,3,,37.5599101,126.9851121
258,라화쿵부,서울특별시 중구 명동4길 6 2-3F,기타 중식,만원-2만원,4,,37.5633252,126.9834551
259,소고산제일루,서울특별시 중구 퇴계로30길 14,기타 중식,만원-2만원,2,,37.5602897,126.991871
260,신룽푸마라탕,서울특별시 중구 명동7가길 20,기타 중식,만원-2만원,2,,37.564487,126.9832888
261,수엔190,서울특별시 중구 퇴계로 190 12F,정통 중식 / 일반 중식,만원-2만원,1,,37.5605197,126.992856
262,네평반,서울특별시 중구 수표로 35-1 2F,퓨전 중식,만원-2만원,1,,37.5643895,126.9898824
263,루이,서울특별시 중구 남대문로 81 롯데백화점 본점 14F,정통 중식 / 일반 중식,만원-2만원,1,,37.5647202,126.9817016
264,아워스,서울특별시 중구 삼일대로 343 대신파이낸스센터 B2,퓨전 중식,만원-2만원,1,,37.5650766,126.9869552
265,호우섬,서울특별시 중구 을지로 30 14F,딤섬 / 만두,2만원-3만원,5,4.4,37.5649903,126.981369
266,호경전,서울특별시 중구 소공로 63 신세계백화점 본점 5F,정통 중식 / 일반 중식,2만원-3만원,35,4.1,37.5609008,126.9809889
267,크리스탈제이드,서울특별시 중구 남대문로7길 16 한컴빌딩 B1,정통 중식 / 일반 중식,2만원-3만원,17,3.4,37.5641199,126.9811544
268,화룽마라룽샤,서울특별시 중구 명동3길 40,기타 중식,2만원-3만원,3,,37.5654939,126.983652
269,도림,서울특별시 중구 남대문로 81 롯데호텔서울 본관 37F,정통 중식 / 일반 중식,4만원 이상,25,4.5,37.5647202,126.9817016
270,도깨비코티지,서울특별시 용산구 소월로2나길 6-1 1F,브런치 / 버거 / 샌드위치,만원 미만,23,4.0,37.5532367,126.9770427
271,모스버거,서울특별시 중구 명동9길 37,브런치 / 버거 / 샌드위치,만원 미만,13,3.6,37.5653499,126.9840966
272,맘스터치,서울특별시 중구 명동8길 26,브런치 / 버거 / 샌드위치,만원 미만,4,,37.5624964,126.9846254
273,분도출판사 분도식품,서울특별시 중구 명동길 80 카톨릭회관 분도서점 1F,브런치 / 버거 / 샌드위치,만원 미만,1,,37.5640765,126.986895
274,죠샌드위치,서울특별시 중구 퇴계로 100 B1,브런치 / 버거 / 샌드위치,만원 미만,2,,37.5602013,126.9829327
275,피자스쿨,서울특별시 용산구 후암로 3-1,기타 양식,만원 미만,1,,37.5462026,126.9782196
276,끌레망꾸꾸,서울특별시 용산구 소월로2길 27 ,프랑스 음식,만원-2만원,4,4.4,37.5540567,126.9768573
277,롱브레드,서울특별시 중구 삼일대로 343 대신파이낸스센터 2F,브런치 / 버거 / 샌드위치,만원-2만원,7,3.7,37.5650766,126.9869552
278,명동피자,서울특별시 중구 명동4길 46,기타 양식,만원-2만원,16,3.5,37.5616821,126.9839245
279,필동함박,서울특별시 중구 퇴계로 218-16 1F,스테이크 / 바베큐,만원-2만원,25,3.4,37.5608335,126.9963719
280,파스타마켓,서울특별시 중구 퇴계로 210-14 1F,이탈리안,만원-2만원,15,3.3,37.5606749,126.9948867
281,자니로켓,서울특별시 중구 소공로 63 B1,브런치 / 버거 / 샌드위치,만원-2만원,8,3.2,37.5633413,126.9811458
282,이태리식당,서울특별시 중구 퇴계로36길 27 1F,이탈리안,만원-2만원,8,,37.5605534,126.9949008
283,보나베띠,서울특별시 중구 명동10길 51,이탈리안,만원-2만원,3,,37.5615788,126.986055
284,일일사,서울특별시 용산구 두텁바위로1길 114,퓨전 양식,만원-2만원,1,,37.548827,126.9762101
285,5gil7 Bistro,서울특별시 중구 필동로5길 7,이탈리안,만원-2만원,3,,37.55665800000001,126.9963633
286,샤이바나,서울특별시 중구 명동길 14 명동 눈스퀘어 6F,퓨전 양식,만원-2만원,3,,37.5633734,126.9828862
287,키친랩,서울특별시 중구 명동10길 35-20,이탈리안,만원-2만원,3,,37.56288929999999,126.9857893
288,일치프리아니,서울특별시 중구 소공로 63,이탈리안,만원-2만원,3,,37.5609008,126.9809889
289,모던피자,서울특별시 용산구 후암로13가길 28,기타 양식,만원-2만원,3,,37.548377,126.9764776
290,세븐티포,서울특별시 중구 명동길 74-3 1F,이탈리안,만원-2만원,4,,37.5632533,126.9868325
291,비스트로수방,서울특별시 중구 명동7길 13 6F,프랑스 음식,만원-2만원,1,,37.5642997,126.9839286
292,다파비오,서울특별시 중구 퇴계로20길 20,이탈리안,만원-2만원,1,,37.5592694,126.9857343
293,칙피스,서울특별시 중구 소공로 63 신세계백화점 본점 B1,기타 양식,만원-2만원,2,,37.5609008,126.9809889
294,헴라갓,서울특별시 중구 소공로 35 남산롯데캐슬아이리스 123호,기타 양식,2만원-3만원,30,4.3,37.55821419999999,126.9820784
295,로우파이테이블,서울특별시 용산구 후암로 20-1,이탈리안,2만원-3만원,15,3.6,37.5476665,126.9781871
296,비꼴로,서울특별시 중구 명동10길 7-3,이탈리안,2만원-3만원,4,,37.5634894,126.9854677
297,모아쏭,서울특별시 중구 소공로 46,프랑스 음식,2만원-3만원,2,,37.5593701,126.983201
298,램캠프,서울특별시 중구 퇴계로20길 46,스테이크 / 바베큐,2만원-3만원,2,,37.5582214,126.9863495
299,깐뗄레,서울특별시 중구 퇴계로20길 9 ,퓨전 양식,2만원-3만원,1,,37.5597689,126.9857762
300,페닌슐라,서울특별시 중구 남대문로 81 롯데호텔서울 본관 1F,이탈리안,4만원 이상,16,4.3,37.5647202,126.9817016
301,촛불1978,서울특별시 중구 소파로 95,이탈리안,4만원 이상,12,4.3,37.5568371,126.985164
302,그랜드키친,서울특별시 중구 명동길 61 로얄 호텔 서울 21F,이탈리안,3만원-4만원,9,4.1,37.5642456,126.9855393
303,루브리카,서울특별시 중구 소공로 106 웨스틴조선호텔 B1,이탈리안,4만원 이상,10,4.1,37.5645099,126.9787438
304,콘티넨탈,서울특별시 중구 동호로 249 서울신라호텔 23F,프랑스 음식,4만원 이상,12,3.9,37.5562855,127.0052953
305,룸201,서울특별시 중구 퇴계로 130 2F,이탈리안,4만원 이상,6,3.9,37.5606506,126.9862498
306,피에르가니에르,서울특별시 중구 남대문로 81 이그제큐티브타워 35F,프랑스 음식,4만원 이상,11,3.8,37.5647202,126.9817016
307,엔그릴,서울특별시 용산구 남산공원길 105 N서울타워 7F,스테이크 / 바베큐,4만원 이상,8,,37.5511694,126.9882266
308,베르디,서울특별시 중구 퇴계로 145,이탈리안,3만원-4만원,1,,37.5615234,126.9877932
309,소이연남,서울특별시 중구 소공로 63 신관 B1,태국 음식,만원 미만,5,,37.5609008,126.9809889
310,타코마코펍앤그릴,서울특별시 중구 퇴계로20길 36 B1,남미 음식,만원 미만,3,,37.5585476,126.9860372
311,포호아,서울특별시 중구 명동8길 27 엠플라자 4F,베트남 음식,만원 미만,1,,37.5625375,126.9851719
312,미스사이공,서울특별시 중구 명동4길 11 1F,베트남 음식,만원 미만,2,,37.5631401,126.9837281
313,바나나리프익스프레스,서울특별시 중구 소공로 35 남산롯데캐슬 아이리스상가 115호,태국 음식,만원 미만,1,,37.55821419999999,126.9820784
314,사이공포,서울특별시 중구 퇴계로24길 13-8,베트남 음식,만원 미만,2,,37.5603302,126.9876554
315,온수반,서울특별시 중구 퇴계로34길 16-9,베트남 음식,만원-2만원,18,4.2,37.5599933,126.9927284
316,촙촙,서울특별시 중구 수표로 46,베트남 음식,만원-2만원,31,3.7,37.5651576,126.9900373
317,구르카,서울특별시 중구 명동10길 16-1,인도 음식,만원-2만원,1,,37.5630291,126.9851717
318,리틀하노이,서울특별시 중구 명동10길 7-3,베트남 음식,만원-2만원,7,,37.5634894,126.9854677
319,에머이,서울특별시 중구 남대문로 81 롯데백화점 본점 B1,베트남 음식,만원-2만원,3,,37.5647202,126.9817016
320,사프란,서울특별시 중구 삼일대로 362 롯데시티호텔 명동 2F,세계음식 기타,2만원-3만원,6,3.4,37.5669163,126.9879785
321,더클럽멤버스레스토랑,서울특별시 중구 장충단로 60 반얀트리 더,다국적 퓨전,4만원 이상,1,,37.5500108,127.0004802
322,르스타일레스토랑앤바,서울특별시 중구 삼일대로 302 21F,뷔페,2만원-3만원,5,,37.5616433,126.9893762
323,버터핑거팬케이크,서울특별시 중구 퇴계로 137,뷔페,2만원-3만원,3,,37.5609724,126.9945971
324,르살롱,서울특별시 중구 남대문로 81 롯데호텔서울이그제큐티브타워 16F,뷔페,2만원-3만원,1,,37.5647202,126.9817016
325,크라운파크호텔 더파크다이닝,서울특별시 중구 남대문로7길 19 크라운파크호텔 17F,뷔페,2만원-3만원,1,,37.5638293,126.9807831
326,누크,서울특별시 중구 남대문로 56,뷔페,2만원-3만원,1,,37.5622456,126.9819711
327,아리아,서울특별시 중구 소공로 106 서울 웨스틴조선호텔,뷔페,4만원 이상,43,4.3,37.564378,126.980058
328,라세느,서울특별시 중구 남대문로 81 롯데호텔서울 본관 1F,뷔페,4만원 이상,66,4.2,37.5647202,126.9817016
329,더킹스,서울특별시 중구 동호로 287 그랜드앰버서더 서울,뷔페,4만원 이상,6,3.9,37.5604144,127.0024791
330,르빵,서울특별시 중구 명동길 74,베이커리,만원 미만,80,4.4,37.5632533,126.9868325
331,에딕티,서울특별시 중구 명동4길 15 1F,카페 / 디저트,만원 미만,8,4.3,37.5629173,126.9838081
332,코인,서울특별시 중구 명동6길 10,카페 / 디저트,만원 미만,57,4.0,37.5628272,126.9841229
333,언톨드스위츠,서울특별시 중구 남대문로 68-1,카페 / 디저트,만원 미만,26,4.0,37.5631995,126.9822547
334,가배도,서울특별시 중구 퇴계로18길 10,카페 / 디저트,만원 미만,7,4.0,37.5603823,126.9850163
335,헤베커피,서울특별시 중구 필동로 32 낙원빌딩 1F,카페 / 디저트,만원 미만,10,3.9,37.558729,126.9959847
336,베이크,서울특별시 중구 남대문로 81 롯데백화점 본점 B1,카페 / 디저트,만원 미만,34,3.9,37.5647202,126.9817016
337,홍만당,서울특별시 중구 명동8길 11-6 1F,카페 / 디저트,만원 미만,12,3.9,37.5631219,126.9849622
338,오르소에스프레소바,서울특별시 용산구 두텁바위로1길 107 105호,카페 / 디저트,만원 미만,4,3.9,37.5488139,126.9759443
339,태극당,서울특별시 중구 동호로24길 7,카페 / 디저트,만원 미만,94,3.8,37.55950929999999,127.0050347
340,에쎄레젤라또,서울특별시 중구 명동길 74-3 명동성당 B1,카페 / 디저트,만원 미만,28,3.8,37.563177,126.9873604
341,플러피클라우드,서울특별시 용산구 두텁바위로 59-1 2F,카페 / 디저트,만원 미만,8,3.8,37.5460922,126.9788876
342,옵스,서울특별시 중구 남대문로 81 롯데백화점 본점 B1,베이커리,만원 미만,19,3.8,37.5647202,126.9817016
343,리사르커피,서울특별시 중구 명동8가길 58 ,카페 / 디저트,만원 미만,4,3.8,37.5617414,126.9882011
344,위고에빅토르,서울특별시 중구 남대문로 81 롯데백화점 본점 B1,카페 / 디저트,만원 미만,36,3.7,37.5647202,126.9817016
345,더스팟패뷸러스,서울특별시 중구 명동2길 26 2F,카페 / 디저트,만원 미만,11,3.7,37.5621715,126.9824736
346,크레마디몬타냐,서울특별시 중구 퇴계로 77 신세계백화점 본점 B1,카페 / 디저트,만원 미만,21,3.7,37.5603075,126.9808306
347,After Jerk Off,서울특별시 중구 수표로 42-21 4F,카페 / 디저트,만원 미만,17,3.6,37.5650016,126.9904423
348,티라펠리체,서울특별시 중구 남대문로 81 롯데백화점 본점 B1,카페 / 디저트,만원 미만,16,3.6,37.5647202,126.9817016
349,무니,서울특별시 용산구 신흥로20길 37,카페 / 디저트,만원 미만,7,3.6,37.5471673,126.9839213
350,MWM,서울특별시 중구 수표로 35-1 4F,카페 / 디저트,만원 미만,9,3.5,37.5643895,126.9898824
351,크림시크,서울특별시 중구 명동7길 13,카페 / 디저트,만원 미만,7,3.5,37.5642997,126.9839286
352,몰또이탈리안에스프레소바,서울특별시 중구 명동길 73,카페 / 디저트,만원 미만,27,3.4,37.5642938,126.9861857
353,10 꼬르소꼬모,서울특별시 중구 남대문로 73 5F,카페 / 디저트,만원 미만,8,3.4,37.56415200000001,126.981643
354,파운즈,서울특별시 용산구 두텁바위로38길 29-17 1F,카페 / 디저트,만원 미만,6,3.4,37.5473817,126.9839217
355,루프트커피,서울특별시 중구 삼일대로 308 조양빌딩 1F,카페 / 디저트,만원 미만,14,3.2,37.5620722,126.9892674
356,마뫼,서울특별시 중구 소파로 41,카페 / 디저트,만원 미만,8,3.2,37.5551372,126.9813401
357,원더브레드,서울특별시 중구 삼일대로8길 19,베이커리,만원 미만,10,,37.5628367,126.9901603
358,여섯시오븐,서울특별시 중구 남대문로 81 롯대백화점 본점 B1,베이커리,만원 미만,9,,37.5647202,126.9817016
359,딸깍발이,서울특별시 중구 서애로 18-9,카페 / 디저트,만원 미만,9,,37.5609054,126.9970908
360,가무,서울특별시 중구 명동4길 16,카페 / 디저트,만원 미만,7,,37.5629552,126.9836027
361,핑크풀카페,서울특별시 중구 명동8길 37-8 스타일난다핑크호텔,카페 / 디저트,만원 미만,2,,37.5619608,126.9852632
362,원스쿠키즈,서울특별시 용산구 신흥로36길 7 B1,카페 / 디저트,만원 미만,4,,37.5463747,126.9820818
363,행복이가득한집,서울특별시 용산구 후암로 21-2 1F,카페 / 디저트,만원 미만,4,,37.5476882,126.9777806
364,케이코쇼텐,서울특별시 중구 퇴계로24길 12-1,카페 / 디저트,만원 미만,6,,37.5603385,126.9872568
365,그라츠과자점,서울특별시 중구 을지로 66,베이커리,만원 미만,6,,37.5653249,126.9849538
366,빈스빈스,서울특별시 중구 명동8나길 10,카페 / 디저트,만원 미만,3,,37.5616553,126.9842622
367,오이스터,서울특별시 용산구 두텁바위로 108,카페 / 디저트,만원 미만,3,,37.5485881,126.982338
368,카페드파리,서울특별시 중구 명동10길 40 2-3F,카페 / 디저트,만원 미만,2,,37.56201,126.985593
369,허니버터아몬드 앤 프렌즈,서울특별시 중구 퇴계로 123,카페 / 디저트,만원 미만,3,,37.5612169,126.9853536
370,바켄,서울특별시 중구 삼일대로 343 2F,카페 / 디저트,만원 미만,3,,37.56525329999999,126.9873193
371,로이터,서울특별시 중구 필동로5길 7,카페 / 디저트,만원 미만,4,,37.55665800000001,126.9963633
372,스타벅스,서울특별시 중구 퇴계로 100 스테이트타워 남산,카페 / 디저트,만원 미만,2,,37.5602013,126.9829327
373,선데이사운즈,서울특별시 용산구 두텁바위로37길 6 1F,카페 / 디저트,만원 미만,2,,37.5473908,126.981527
374,폴바셋,서울특별시 중구 남대문로 81 롯데백화점 본점 B1,카페 / 디저트,만원 미만,3,,37.5647202,126.9817016
375,커피리브레,서울특별시 중구 명동길 74 102호,카페 / 디저트,만원 미만,4,,37.5632533,126.9868325
376,오뗄두스,서울특별시 중구 퇴계로 77 신세계백화점 본점 B1,베이커리,만원 미만,5,,37.5603075,126.9808306
377,Cup Of Tea,서울특별시 중구 퇴계로 159-6 하얀빌딩 5F,카페 / 디저트,만원 미만,2,,37.5616107,126.9898792
378,카페 남산아래,서울특별시 중구 소파로 129,카페 / 디저트,만원 미만,3,,37.5588341,126.9869818
379,뵈르 누아제트,서울특별시 중구 퇴계로36가길 83 1F,카페 / 디저트,만원 미만,1,,37.5565404,126.9953508
380,홍미당,서울특별시 중구 남대문로 81 롯데백화점 본점 B1,베이커리,만원 미만,6,,37.5647202,126.9817016
381,홍철책빵,서울특별시 용산구 한강대로102길 57,카페 / 디저트,만원 미만,5,,37.5493888,126.9752201
382,케이키 (휴업중),서울특별시 용산구 후암로48길 17,카페 / 디저트,만원 미만,1,,37.5528011,126.9768925
383,해피레몬플러스,서울특별시 중구 명동9길 20,카페 / 디저트,만원 미만,4,,37.5647253,126.9848046
384,누시,서울특별시 용산구 소월로2길 17 1F,카페 / 디저트,만원 미만,3,,37.5542194,126.9766875
385,몽슈슈,서울특별시 중구 퇴계로 77 신세계백화점 본점 B1,카페 / 디저트,만원 미만,2,,37.5603075,126.9808306
386,루아르커피바,서울특별시 중구 소공로 96,카페 / 디저트,만원 미만,1,,37.5635078,126.9800818
387,핫텐도,서울특별시 중구 남대문로 81 롯데백화점 본점 B1,베이커리,만원 미만,4,,37.5647202,126.9817016
388,전광수커피하우스,서울특별시 중구 명동길 74,카페 / 디저트,만원 미만,3,,37.5632533,126.9868325
389,아티제,서울특별시 중구 삼일대로 343 대신파이낸스센터 1F,카페 / 디저트,만원 미만,2,,37.5650766,126.9869552
390,유니콘플랜,서울특별시 중구 소공로 63  신세계백화점 본점,베이커리,만원 미만,2,,37.5609008,126.9809889
391,커피광,서울특별시 중구 삼일대로 330 ,카페 / 디저트,만원 미만,1,,37.5642734,126.988314
392,공차,서울특별시 중구 명동7길 12-1,카페 / 디저트,만원 미만,6,,37.5643042,126.9844537
393,빌리엔젤,서울특별시 중구 명동7길 16,카페 / 디저트,만원 미만,2,,37.564433,126.9844486
394,샵도노커피,서울특별시 용산구 두텁바위로 81-2,카페 / 디저트,만원 미만,3,,37.5467726,126.9808825
395,스타벅스,서울특별시 중구 소공로 112,카페 / 디저트,만원 미만,2,,37.5636754,126.9794536
396,서향가비,서울특별시 중구 남대문로 52-1,카페 / 디저트,만원 미만,2,,37.5620525,126.9816353
397,플라잉스콘,서울특별시 중구 을지로 30 롯데백화점명동본점식품관 B1,베이커리,만원 미만,2,,37.5649903,126.981369
398,유월커피,서울특별시 중구 소공로 96 로컬스티치,카페 / 디저트,만원 미만,2,,37.5635078,126.9800818
399,만랩나미브,서울특별시 중구 마른내로 18 1F,카페 / 디저트,만원 미만,2,,37.5645989,126.9897098
400,후암연립,서울특별시 용산구 두텁바위로1길 104,카페 / 디저트,만원 미만,1,,37.5483725,126.976059
401,어스돔,서울특별시 중구 퇴계로36가길 46  1F,카페 / 디저트,만원 미만,1,,37.5582547,126.9954195
402,카페오랑쥬,서울특별시 중구 퇴계로36길 32,카페 / 디저트,만원 미만,3,,37.5603132,126.99505
403,스타벅스,서울특별시 중구 명동길 60,카페 / 디저트,만원 미만,2,,37.56369919999999,126.9857659
404,카페와플온,서울특별시 중구 명동10길 7-3,카페 / 디저트,만원 미만,1,,37.5634894,126.9854677
405,로투스,서울특별시 중구 삼일대로9길 6 101호,카페 / 디저트,만원 미만,1,,37.5636202,126.9877953
406,유아히어,서울특별시 중구 명동9길 23 한양빌딩,카페 / 디저트,만원 미만,1,,37.5648596,126.9844949
407,몽샹82,서울특별시 중구 남대문로 81 롯데백화점 본점 B1,카페 / 디저트,만원 미만,2,,37.5647202,126.9817016
408,할리스커피,서울특별시 중구 퇴계로36길 2,카페 / 디저트,만원 미만,1,,37.5602838,126.9936084
409,나리꼬모,서울특별시 중구 을지로 30,카페 / 디저트,만원 미만,1,,37.5649903,126.981369
410,따팡,서울특별시 용산구 후암로 20 1F,베이커리,만원 미만,2,,37.5476665,126.9781871
411,토츠오츠,서울특별시 중구 퇴계로 100,카페 / 디저트,만원 미만,3,,37.5602013,126.9829327
412,레드리프커피팩토리,서울특별시 용산구 후암로28길 27 코오롱빌라,카페 / 디저트,만원 미만,1,,37.5497919,126.9788937
413,카페루체,서울특별시 중구 퇴계로20나길 10 4F,카페 / 디저트,만원 미만,1,,37.5586928,126.9855293
414,고양이놀이터,서울특별시 중구 명동8길 37-14,카페 / 디저트,만원 미만,1,,37.5619369,126.9854729
415,공사공삼,서울특별시 중구 퇴계로44길 28,카페 / 디저트,만원 미만,1,,37.56079330000001,126.9966271
416,더컵,서울특별시 중구 명동3길 17,카페 / 디저트,만원 미만,2,,37.5644861,126.9833997
417,크리스피크림도넛,서울특별시 중구 남대문로 81 롯데백화점 본점 B1,카페 / 디저트,만원 미만,2,,37.5647202,126.9817016
418,레드망고,서울특별시 중구 남대문로 73 롯데백화점,카페 / 디저트,만원 미만,1,,37.56415200000001,126.981643
419,쩐주단,서울특별시 중구 명동7길 14,카페 / 디저트,만원 미만,1,,37.5643512,126.9844667
420,레드애플,서울특별시 중구 을지로 30 롯데백화점 본점 B1,카페 / 디저트,만원 미만,2,,37.5649903,126.981369
421,경기떡집,서울특별시 중구 남대문로 81,카페 / 디저트,만원 미만,2,,37.5647202,126.9817016
422,고디바초콜릿,서울특별시 중구 남대문로 81 롯데백화점 본점 B1,카페 / 디저트,만원 미만,1,,37.5647202,126.9817016
423,폴바셋,서울특별시 중구 퇴계로 77 신세계백화점 본점 B1,카페 / 디저트,만원 미만,1,,37.5603075,126.9808306
424,카페 오아시아,서울특별시 중구 소파로 143-1,카페 / 디저트,만원 미만,1,,37.5598803,126.9880463
425,비스테까,서울특별시 중구 남대문로 81 롯데백화점 본점 B1,카페 / 디저트,만원 미만,1,,37.5647202,126.9817016
426,52LAB,서울특별시 중구 퇴계로14길 19,카페 / 디저트,만원 미만,1,,37.5596498,126.9837688
427,투썸플레이스,서울특별시 중구 퇴계로 137 1F,카페 / 디저트,만원 미만,1,,37.5609724,126.9945971
428,빵이가득한집,서울특별시 용산구 한강대로104길 72,베이커리,만원 미만,1,,37.5499537,126.9761494
429,파스퇴르밀크바,서울특별시 중구 남대문로 81 롯데백화점 본점 B1,카페 / 디저트,만원 미만,3,,37.5647202,126.9817016
430,투썸플레이스,서울특별시 중구 퇴계로18길 13,카페 / 디저트,만원 미만,2,,37.5601669,126.9856372
431,스타벅스,서울특별시 중구 퇴계로 101,카페 / 디저트,만원 미만,2,,37.5608244,126.9830929
432,스타벅스,서울특별시 중구 을지로 50,카페 / 디저트,만원 미만,1,,37.5655809,126.9832977
433,백미당,서울특별시 중구 남대문로 81 롯데백화점 본점 B1,카페 / 디저트,만원 미만,2,,37.5647202,126.9817016
434,그레인즈쿠키,서울특별시 중구 남대문로 81 롯데백화점 본점 B1,카페 / 디저트,만원 미만,1,,37.5647202,126.9817016
435,슈퍼커피,서울특별시 중구 을지로 54-1,카페 / 디저트,만원 미만,1,,37.565872,126.9838269
436,아리스타커피,서울특별시 중구 수표로 15-1,카페 / 디저트,만원 미만,1,,37.5626397,126.9901946
437,심플리주스,서울특별시 중구 퇴계로 77 신세계백화점 본점 B1,카페 / 디저트,만원 미만,1,,37.5603075,126.9808306
438,폴바셋,서울특별시 중구 남대문로 81 롯데백화점 본점 2F,카페 / 디저트,만원 미만,1,,37.5647202,126.9817016
439,학화호도과자,서울특별시 중구 남대문로 52-13,카페 / 디저트,만원 미만,1,,37.5621715,126.9824736
440,주케이크,서울특별시 중구 삼일대로 304 황실빌딩 5F,카페 / 디저트,만원 미만,1,,37.5617958,126.989193
441,힐탑 카페,서울특별시 중구 퇴계로20나길 42,카페 / 디저트,만원 미만,1,,37.5570868,126.985173
442,미니멀 커피,서울특별시 용산구 두텁바위로1길 61 1F,카페 / 디저트,만원 미만,1,,37.5466859,126.975239
443,이도아뜰리에,서울특별시 중구 을지로 30 롯데백화점 명동 8F,카페 / 디저트,만원 미만,1,,37.5649903,126.981369
444,카페 동심,서울특별시 중구 퇴계로20길 24 4F,카페 / 디저트,만원 미만,1,,37.5591979,126.9855892
445,히코코커피,서울특별시 중구 남대문로 73 롯데백화점 본점 에비뉴엘 6F,카페 / 디저트,만원 미만,1,,37.5641754,126.9817718
446,루시카토,서울특별시 중구 남대문로 81 롯데백화점 본점 B1,카페 / 디저트,만원 미만,1,,37.5647202,126.9817016
447,튤립커피,서울특별시 중구 명동3길 23 3F,카페 / 디저트,만원 미만,1,,37.5647196,126.9834056
448,에맥앤볼리오스,서울특별시 중구 명동8가길 22,카페 / 디저트,만원 미만,1,,37.5615529,126.9861911
449,이디야커피,서울특별시 중구 수표로 45,카페 / 디저트,만원 미만,1,,37.5652959,126.9895634
450,맨인커피,서울특별시 중구 세종대로18길 36,카페 / 디저트,만원 미만,1,,37.5637103,126.9791192
451,흑화당,서울특별시 중구 명동10길 40,카페 / 디저트,만원 미만,1,,37.56201,126.985593
452,센터커피 빅파일럿바,서울특별시 중구 을지로 30 5F,카페 / 디저트,만원 미만,1,,37.5649903,126.981369
453,소금다방,서울특별시 중구 을지로 30  B1,카페 / 디저트,만원 미만,1,,37.5649903,126.981369
454,나폴레옹제과점,서울특별시 중구 소공로 63,베이커리,만원 미만,1,,37.5609008,126.9809889
455,모나미커피,서울특별시 중구 남대문로 52-5,카페 / 디저트,만원 미만,1,,37.5620722,126.9818207
456,도슨트,서울특별시 용산구 소월로2길 37-2,카페 / 디저트,만원 미만,2,,37.5533064,126.976657
457,아멜라떼,서울특별시 중구 퇴계로44길 28,카페 / 디저트,만원 미만,1,,37.56079330000001,126.9966271
458,남산커피집,서울특별시 중구 퇴계로20길 57,카페 / 디저트,만원 미만,1,,37.5577327,126.9867296
459,명동커피,서울특별시 중구 명동길 81,카페 / 디저트,만원 미만,1,,37.5644309,126.9866151
460,던킨도너츠,서울특별시 중구 삼일대로 340,카페 / 디저트,만원 미만,1,,37.5650049,126.9882022
461,델리카한스,서울특별시 중구 남대문로 81 롯데호텔서울 본관 1F,베이커리,만원-2만원,17,4.1,37.5647202,126.9817016
462,베키아에누보,서울특별시 중구 퇴계로 77 신세계백화점 본점 신관 B1,카페 / 디저트,만원-2만원,18,3.3,37.56025260000001,126.9807639
463,홍밀밀,서울특별시 중구 명동길 74,카페 / 디저트,만원-2만원,4,,37.5632533,126.9868325
464,더라이브러리,서울특별시 중구 동호로 249 서울신라호텔 1F,카페 / 디저트,2만원-3만원,106,4.3,37.5562855,127.0052953
465,한상훈쉐프,서울특별시 중구 소공로 29,카페 / 디저트,2만원-3만원,7,,37.5579223,126.9827985
466,패스트리부티크,서울특별시 중구 동호로 249 서울신라호텔 1F,베이커리,4만원 이상,78,4.7,37.5562855,127.0052953
467,아티제,서울특별시 중구 동호로 249 신라면세점 3F,카페 / 디저트,4만원 이상,2,,37.5571469,127.0076191
468,을지로술집,서울특별시 중구 마른내로 18  저동빌딩,일반 주점,만원 미만,1,,37.5645908,126.9897184
469,스탠딩바전기,서울특별시 중구 수표로 42-19,일반 주점,만원-2만원,17,4.0,37.5650429,126.9903218
470,희스토리다락방,서울특별시 중구 수표로 42-19 3F,칵테일 / 와인,만원-2만원,3,,37.5650429,126.9903218
471,브아브아,서울특별시 중구 퇴계로 197 충무빌딩 인쇄소골목방향 B1,치킨 / 호프 / 펍,만원-2만원,3,,37.561391,126.9939127
472,숙희,서울특별시 중구 명동길 60 4F,칵테일 / 와인,만원-2만원,3,,37.56369919999999,126.9857659
473,장금이전집,서울특별시 중구 명동8가길 52,일반 주점,만원-2만원,1,,37.5617167,126.9879501
474,매일더맥주,서울특별시 중구 명동7길 21 명동아르누보센텀  1F,치킨 / 호프 / 펍,만원-2만원,2,,37.5646918,126.9838429
475,을지로차이,서울특별시 중구 을지로12길 28 제이매크로타워 203호,일반 주점,만원-2만원,2,,37.5651656,126.9906241
476,아트몬스터,서울특별시 중구 퇴계로18길 2  2F,치킨 / 호프 / 펍,만원-2만원,1,,37.5599101,126.9851121
477,섬으로간나비,서울특별시 중구 퇴계로42길 8,칵테일 / 와인,만원-2만원,1,,37.5613539,126.996641
478,맥쓰세계치킨,서울특별시 중구 명동3길 17 2F,일반 주점,만원-2만원,2,,37.5644861,126.9833997
479,브루어스,서울특별시 용산구 두텁바위로38길 29-16,치킨 / 호프 / 펍,만원-2만원,2,,37.5472653,126.9838962
480,노르떼,서울특별시 용산구 두텁바위로 147,칵테일 / 와인,만원-2만원,1,,37.5515945,126.9808338
481,생활맥주,서울특별시 중구 명동7가길 4-1 116호,치킨 / 호프 / 펍,만원-2만원,1,,37.5684294,126.9795687
482,리프레시라운지,서울특별시 중구 퇴계로20길 13,칵테일 / 와인,만원-2만원,1,,37.5595791,126.9858104
483,흐이,서울특별시 용산구 두텁바위로 71,일반 주점,2만원-3만원,10,4.0,37.5462484,126.9800805
484,루프탑바플로팅,서울특별시 중구 퇴계로 137 21F,칵테일 / 와인,2만원-3만원,20,3.9,37.5609724,126.9945971
485,더드로잉룸,서울특별시 중구 남대문로 81 롯데호텔서울 1F,칵테일 / 와인,2만원-3만원,8,3.4,37.5647202,126.9817016
486,을지골뱅이,서울특별시 중구 수표로 43-1,치킨 / 호프 / 펍,2만원-3만원,2,,37.5650803,126.9897406
487,루치다,서울특별시 중구 퇴계로 114,치킨 / 호프 / 펍,2만원-3만원,2,,37.5605014,126.9842993
488,문바,서울특별시 중구 장충단로 60 반얀트리 더,칵테일 / 와인,4만원 이상,2,,37.5500108,127.0004802
