,가게이름,가게 주소,음식 종류,가격 범위,리뷰개수,평점,lat,lng
1,맛있는집,서울특별시 서대문구 거북골로20길 55,기타 한식,만원 미만,21,4.2,37.5804053,126.9108304
2,아바이왕순대,서울특별시 서대문구 충정로6안길 52,탕 / 찌개 / 전골,만원 미만,9,4.1,37.5642088,126.96671
3,엄마식탁,서울특별시 서대문구 연희맛로 17-21,한정식 / 백반 / 정통 한식,만원 미만,9,4.1,37.5665983,126.9287997
4,홍대삭,서울특별시 서대문구 연희로 89,기타 한식,만원 미만,26,4.0,37.5662378,126.930179
5,신흥떡볶이,서울특별시 서대문구 수색로 28-5,기타 한식,만원 미만,13,4.0,37.5695793,126.9156157
6,연희단팥죽,서울특별시 서대문구 연희로11가길 8-5,기타 한식,만원 미만,11,4.0,37.567864,126.9288732
7,호천식당,서울특별시 서대문구 연희로14길 5,국수 / 면 요리,만원 미만,11,3.9,37.5674353,126.9317794
8,연희김밥,서울특별시 서대문구 연희로11가길 2,기타 한식,만원 미만,67,3.8,37.5679567,126.9293541
9,순이네고릴라,서울특별시 서대문구 거북골로 15-2,기타 한식,만원 미만,14,3.6,37.5804497,126.9255116
10,연희동칼국수,서울특별시 서대문구 연희맛로 37,국수 / 면 요리,만원 미만,62,3.5,37.5681791,126.9307331
11,연희별밥,서울특별시 서대문구 연희로15길 31,한정식 / 백반 / 정통 한식,만원 미만,18,3.5,37.5708358,126.9286946
12,석교식당,서울특별시 서대문구 통일로 183-1,탕 / 찌개 / 전골,만원 미만,10,3.5,37.5699044,126.9623104
13,모래내곱창,서울특별시 서대문구 증가로10길 26,고기 요리,만원 미만,6,3.5,37.5783584,126.9236329
14,한옥집,서울특별시 서대문구 통일로9길 12 1F,탕 / 찌개 / 전골,만원 미만,41,3.4,37.5672361,126.9643216
15,철길떡볶이,서울특별시 서대문구 충정로 35-6,기타 한식,만원 미만,30,3.4,37.5622649,126.9635902
16,아만도,서울특별시 서대문구 연희로10길 73,한정식 / 백반 / 정통 한식,만원 미만,22,3.4,37.5640791,126.9331845
17,백암왕순대,서울특별시 서대문구 증가로 13-6,탕 / 찌개 / 전골,만원 미만,12,3.3,37.569355,126.9310343
18,엄마손떡볶이,서울특별시 서대문구 증가로10길 37,기타 한식,만원 미만,6,3.3,37.5788937,126.9241324
19,어머니와아들,서울특별시 서대문구 홍은중앙로 100-1,닭 / 오리 요리,만원 미만,6,,37.5993605,126.9486213
20,딸부잣집백반,서울특별시 서대문구 포방터2길 5,한정식 / 백반 / 정통 한식,만원 미만,1,,37.5988685,126.9494254
21,찜우동,서울특별시 서대문구 간호대로3길 60,기타 한식,만원 미만,6,,37.59419159999999,126.9475469
22,청안식탁,서울특별시 서대문구 충정로4길 21,닭 / 오리 요리,만원 미만,3,,37.5604228,126.9642665
23,인라면,서울특별시 서대문구 명지대2길 2,기타 한식,만원 미만,3,,37.5813475,126.9250571
24,원조떡볶이,서울특별시 서대문구 통일로 205-5,기타 한식,만원 미만,5,,37.5711738,126.9606593
25,도깨비칼국수,서울특별시 서대문구 영천시장길 40 1F,국수 / 면 요리,만원 미만,4,,37.5702692,126.9613771
26,모래내설농탕,서울특별시 서대문구 모래내로 271,탕 / 찌개 / 전골,만원 미만,4,,37.5771962,126.9281984
27,홍은손칼국수,서울특별시 서대문구 홍은중앙로 63-2,국수 / 면 요리,만원 미만,6,,37.5968571,126.9460587
28,밀양돼지국밥,서울특별시 서대문구 서소문로 55-9,탕 / 찌개 / 전골,만원 미만,4,,37.5620607,126.9671211
29,왕자 떡볶이,서울특별시 서대문구 포방터길 55 1F,기타 한식,만원 미만,2,,37.5990617,126.949066
30,장터순대국,서울특별시 서대문구 세검정로 46,탕 / 찌개 / 전골,만원 미만,3,,37.59200269999999,126.9462937
31,굴대박 초계국수,서울특별시 서대문구 독립문로 66-1,해산물 요리,만원 미만,5,,37.5672461,126.9638223
32,연희옥,서울특별시 서대문구 연희로 81-26,탕 / 찌개 / 전골,만원 미만,5,,37.5659332,126.9293797
33,돈까스가땡길때,서울특별시 서대문구 연희로8길 14 1F,기타 한식,만원 미만,5,,37.565223,126.9307549
34,전통만두,서울특별시 서대문구 연희로8길 5-3,기타 한식,만원 미만,5,,37.5657394,126.9304601
35,파파,서울특별시 서대문구 연희로10길 77,한정식 / 백반 / 정통 한식,만원 미만,4,,37.5639168,126.9333759
36,영천떡볶이,서울특별시 서대문구 영천시장길 22,기타 한식,만원 미만,4,,37.5709415,126.9605743
37,맛있는칼국수,서울특별시 서대문구 불광천길 150,국수 / 면 요리,만원 미만,2,,37.5818632,126.9088901
38,백년추어탕,서울특별시 서대문구 증가로 9,탕 / 찌개 / 전골,만원 미만,4,,37.5691941,126.9313785
39,퐁닭떡볶이,서울특별시 서대문구 명지대2길 14 1F 103호,기타 한식,만원 미만,2,,37.5817969,126.9252341
40,최가상회,서울특별시 서대문구 영천시장길 68 영천시장,한정식 / 백반 / 정통 한식,만원 미만,2,,37.5695129,126.9624698
41,왕봉24시해장국,서울특별시 서대문구 인왕시장길 46,탕 / 찌개 / 전골,만원 미만,2,,37.591479,126.9442583
42,도르리쿡,서울특별시 서대문구 통일로9길 4 1F,기타 한식,만원 미만,1,,37.5673052,126.9647066
43,연희동수제비,서울특별시 서대문구 연희로 89-3 1F,국수 / 면 요리,만원 미만,4,,37.5661476,126.9298724
44,델리시오소브리또,서울특별시 서대문구 통일로 510 더샵 상가 116A호,기타 한식,만원 미만,3,,37.5705195,126.9615582
45,치즈밥있슈,서울특별시 서대문구 명지대길 62,퓨전 한식,만원 미만,7,,37.5827586,126.923582
46,지지고,서울특별시 서대문구 명지대2길 2,기타 한식,만원 미만,2,,37.5813475,126.9250571
47,모범떡볶이1976,서울특별시 서대문구 충정로9길 12 2F,기타 한식,만원 미만,6,,37.5644671,126.9647267
48,오리와메밀 푸른초장,서울특별시 서대문구 충정로 43-4,국수 / 면 요리,만원 미만,3,,37.5629648,126.964177
49,미가분식,서울특별시 서대문구 연희로10길 82,기타 한식,만원 미만,3,,37.5637067,126.9335521
50,장모님국수랑전,서울특별시 서대문구 가재울미래로 2 길 DMC파크뷰 자이 221동 101호,국수 / 면 요리,만원 미만,1,,37.5791158,126.9367789
51,기쁨이네,서울특별시 서대문구 가재울로6길 53-87,탕 / 찌개 / 전골,만원 미만,3,,37.5769623,126.923088
52,베가보쌈,서울특별시 서대문구 거북골로 33-4,고기 요리,만원 미만,2,,37.5792142,126.9240021
53,삼오쭈꾸미,서울특별시 서대문구 통일로 107-19,해산물 요리,만원 미만,4,,37.5641987,126.9671063
54,우리냉면,서울특별시 서대문구 통일로39가길 1,국수 / 면 요리,만원 미만,3,,37.5882764,126.9436151
55,전도사,서울특별시 서대문구 영천시장길 36,한정식 / 백반 / 정통 한식,만원 미만,1,,37.5704311,126.961247
56,장도리곰탕,서울특별시 서대문구 연희로25길 27,탕 / 찌개 / 전골,만원 미만,2,,37.57204249999999,126.9342935
57,호산나의정부부대찌개,서울특별시 서대문구 충정로4길 8,탕 / 찌개 / 전골,만원 미만,4,,37.5609806,126.9638547
58,부산돼지국밥,서울특별시 서대문구 증가로31길 45,탕 / 찌개 / 전골,만원 미만,3,,37.5820145,126.9098537
59,미동면옥,서울특별시 서대문구 충정로7길 9 미동아파트,국수 / 면 요리,만원 미만,2,,37.5631739,126.9639988
60,명아돈,서울특별시 서대문구 거북골로 33-4,기타 한식,만원 미만,2,,37.5792142,126.9240021
61,우리식당,서울특별시 서대문구 증가로 248,한정식 / 백반 / 정통 한식,만원 미만,1,,37.5831885,126.9123931
62,영월,서울특별시 서대문구 연희로 81-21 정암빌딩 2F,국수 / 면 요리,만원 미만,6,,37.5658118,126.9289466
63,봉구네가마솥순대국,서울특별시 서대문구 증가로10길 50,탕 / 찌개 / 전골,만원 미만,3,,37.57911910000001,126.9247461
64,향촌,서울특별시 서대문구 충정로6안길 6-4,한정식 / 백반 / 정통 한식,만원 미만,3,,37.5624692,126.9677776
65,불란집,서울특별시 서대문구 통일로 445,기타 한식,만원 미만,4,,37.5883857,126.9442465
66,사랑채,서울특별시 서대문구 경기대로9길 5,기타 한식,만원 미만,2,,37.5644615,126.9634658
67,미소가,서울특별시 서대문구 충정로6길 59 4동,기타 한식,만원 미만,3,,37.5629206,126.9681811
68,수라면옥,서울특별시 서대문구 연희로25길 81,국수 / 면 요리,만원 미만,2,,37.5700313,126.9326887
69,조선설렁탕,서울특별시 서대문구 통일로 476 원일아파트 1F,탕 / 찌개 / 전골,만원 미만,1,,37.5906979,126.9424168
70,공룡부대찌개,서울특별시 서대문구 연희로 81-15,탕 / 찌개 / 전골,만원 미만,4,,37.5657119,126.9291202
71,어국수,서울특별시 서대문구 통일로9길 6-10,국수 / 면 요리,만원 미만,2,,37.5675881,126.9645012
72,돈까스가땡길때,서울특별시 서대문구 충정로6안길 5,기타 한식,만원 미만,5,,37.5625791,126.9674671
73,개성만두 궁,서울특별시 서대문구 연희맛로 23,한정식 / 백반 / 정통 한식,만원 미만,1,,37.5671033,126.9296369
74,불타는꿀꿀이,서울특별시 서대문구 응암로1길 8,고기 요리,만원 미만,2,,37.5813006,126.9112917
75,하늘정원수제왕돈까스,서울특별시 서대문구 거북골로 53-6,기타 한식,만원 미만,1,,37.5781629,126.9225443
76,돌산식당,서울특별시 서대문구 수색로 28-5 ,한정식 / 백반 / 정통 한식,만원 미만,2,,37.5695793,126.9156157
77,우리하우스,서울특별시 서대문구 충정로9길 16,기타 한식,만원 미만,1,,37.5644484,126.9644394
78,해피돈까스,서울특별시 서대문구 세무서9길 14  1F 107호,기타 한식,만원 미만,1,,37.5919658,126.9465059
79,즉석우동국수,서울특별시 서대문구 통일로40길 5,국수 / 면 요리,만원 미만,3,,37.5902362,126.9431243
80,연희곰탕,서울특별시 서대문구 증가로 17,탕 / 찌개 / 전골,만원 미만,3,,37.5697556,126.9308916
81,이화수전통육개장,서울특별시 서대문구 충정로 18,탕 / 찌개 / 전골,만원 미만,3,,37.56057,126.9634824
82,연남's diner,서울특별시 서대문구 연희로 36,기타 한식,만원 미만,3,,37.5617911,126.9274887
83,풍요로운식당,서울특별시 서대문구 홍제원1길 14,한정식 / 백반 / 정통 한식,만원 미만,2,,37.587133,126.9467473
84,영천닭강정,서울특별시 서대문구 통일로 189-1 영천시장 B열 10호,닭 / 오리 요리,만원 미만,1,,37.5702984,126.9618329
85,소반,서울특별시 서대문구 거북골로 4 새솔빌딩 1F,한정식 / 백반 / 정통 한식,만원 미만,1,,37.5813796,126.9264039
86,땡땡거리형제옥,서울특별시 서대문구 충정로6안길 3,탕 / 찌개 / 전골,만원 미만,1,,37.5625025,126.9674579
87,군산식당,서울특별시 서대문구 거북골로 53-18,한정식 / 백반 / 정통 한식,만원 미만,1,,37.5781218,126.92288
88,할매추어탕,서울특별시 서대문구 충정로4길 25,탕 / 찌개 / 전골,만원 미만,1,,37.5602454,126.9643754
89,선희네명태조림,서울특별시 서대문구 경기대로 62 2F,해산물 요리,만원 미만,1,,37.5642617,126.9638013
90,명지대박곱창,서울특별시 서대문구 명지대길 65,고기 요리,만원 미만,1,,37.5827882,126.9232736
91,우리집순두부,서울특별시 서대문구 충정로6길 53,탕 / 찌개 / 전골,만원 미만,1,,37.5623429,126.9676548
92,도깨비손칼국수,서울특별시 서대문구 통일로 189-1 영천시장D열,국수 / 면 요리,만원 미만,1,,37.5702984,126.9618329
93,별미닭곰탕,서울특별시 서대문구 경기대로 64,닭 / 오리 요리,만원 미만,2,,37.5644992,126.9640731
94,계림닭도리탕,서울특별시 서대문구 충정로4길 12 1F,닭 / 오리 요리,만원 미만,2,,37.5607863,126.9638993
95,미쓰키친,서울특별시 서대문구 경기대로7길 2,기타 한식,만원 미만,2,,37.5630871,126.9620009
96,새문순대국,서울특별시 서대문구 충정로5길 2,탕 / 찌개 / 전골,만원 미만,2,,37.5627036,126.9640901
97,다시밥,서울특별시 서대문구 통일로39길 43 1F,기타 한식,만원 미만,2,,37.5871253,126.9424606
98,대가추어탕,서울특별시 서대문구 홍제원길 16,탕 / 찌개 / 전골,만원 미만,1,,37.5867217,126.9477008
99,명동찌개마을,서울특별시 서대문구 충정로11길 12,탕 / 찌개 / 전골,만원 미만,1,,37.5656196,126.965657
100,24시유진감자탕,서울특별시 서대문구 통일로 442-5,탕 / 찌개 / 전골,만원 미만,1,,37.5887196,126.9448159
101,봉평메밀촌,서울특별시 서대문구 통일로39가길 27,국수 / 면 요리,만원 미만,1,,37.5890774,126.9427127
102,생국수본가,서울특별시 서대문구 충정로 73,국수 / 면 요리,만원 미만,2,,37.5652823,126.9659356
103,하희씨부엌,서울특별시 서대문구 경기대로9길 90,고기 요리,만원 미만,3,,37.5645457,126.9593116
104,영양센타,서울특별시 서대문구 모래내로 271,닭 / 오리 요리,만원 미만,2,,37.5771962,126.9281984
105,고모네순대국,서울특별시 서대문구 통일로9안길 36-4 1F,탕 / 찌개 / 전골,만원 미만,2,,37.5657888,126.9652212
106,권가네의정부부대찌개,서울특별시 서대문구 경기대로 57,탕 / 찌개 / 전골,만원 미만,2,,37.5643278,126.9633262
107,시골장터,서울특별시 서대문구 충정로11길 11,한정식 / 백반 / 정통 한식,만원 미만,2,,37.5654831,126.9657042
108,도깨비우동,서울특별시 서대문구 증가로 250 정남빌딩,기타 한식,만원 미만,1,,37.5833096,126.9122317
109,이삭토스트,서울특별시 서대문구 경기대로 59,기타 한식,만원 미만,1,,37.5643497,126.9635624
110,동해원,서울특별시 서대문구 경기대로 27,고기 요리,만원 미만,1,,37.5618759,126.9616634
111,옥봉식당,서울특별시 서대문구 충정로 43-1,한정식 / 백반 / 정통 한식,만원 미만,1,,37.5628257,126.9641393
112,육쌈냉면,서울특별시 서대문구 거북골로 18,국수 / 면 요리,만원 미만,1,,37.5805908,126.9252718
113,소푸리콩나물국밥,서울특별시 서대문구 성산로 331,탕 / 찌개 / 전골,만원 미만,1,,37.5662256,126.9270482
114,여수집닭갈비,서울특별시 서대문구 명지대1라길 2,닭 / 오리 요리,만원 미만,1,,37.5820381,126.9236172
115,홍식당,서울특별시 서대문구 포방터길 57,한정식 / 백반 / 정통 한식,만원 미만,1,,37.5992171,126.9491068
116,해피푸드,서울특별시 서대문구 경기대로9길 77 1F,한정식 / 백반 / 정통 한식,만원 미만,1,,37.56434309999999,126.959843
117,삼대냉면,서울특별시 서대문구 세무서1길 28,국수 / 면 요리,만원 미만,1,,37.5891139,126.9442725
118,두찜,서울특별시 서대문구 증가로 215-1 1F,기타 한식,만원 미만,1,,37.5809933,126.9147029
119,서촌닭갈비,서울특별시 서대문구 충정로 30  상가 1F,닭 / 오리 요리,만원 미만,1,,37.5615341,126.964087
120,토종순대국,서울특별시 서대문구 세무서7길 18,탕 / 찌개 / 전골,만원 미만,1,,37.5916448,126.9459749
121,오렌지김밥,서울특별시 서대문구 세무서길 49,기타 한식,만원 미만,4,,37.590223,126.9459802
122,완산골명가,서울특별시 서대문구 홍제내길 124,탕 / 찌개 / 전골,만원 미만,1,,37.5877466,126.9364961
123,동대문엽기떡볶이,서울특별시 서대문구 가좌로 102 1F,기타 한식,만원 미만,1,,37.5818949,126.9267905
124,맛닭꼬,서울특별시 서대문구 증가로 255 재원빌딩,닭 / 오리 요리,만원 미만,1,,37.5833371,126.91167
125,다미가,서울특별시 서대문구 독립문로10길 2,국수 / 면 요리,만원 미만,2,,37.5685626,126.9613771
126,수돈재감자탕,서울특별시 서대문구 연희로 116 1F,탕 / 찌개 / 전골,만원 미만,1,,37.567992,126.932059
127,서해안칼국수,서울특별시 서대문구 통일로 155-1 2F,국수 / 면 요리,만원 미만,1,,37.567902,126.9641222
128,진미식당,서울특별시 서대문구 충정로 53 유원골든타워 B1,한정식 / 백반 / 정통 한식,만원 미만,1,,37.5637129,126.9646194
129,동대문엽기떡볶이,서울특별시 서대문구 경기대로 90,기타 한식,만원 미만,1,,37.5666383,126.9644793
130,본가한정식,서울특별시 서대문구 충정로4길 5-3,한정식 / 백반 / 정통 한식,만원 미만,1,,37.5611659,126.9641249
131,요리조리,서울특별시 서대문구 수색로4가길 17 103호,한정식 / 백반 / 정통 한식,만원 미만,1,,37.5705773,126.9142066
132,육대장,서울특별시 서대문구 가재울미래로 2 DMC 파크뷰자이 1단지 101동,탕 / 찌개 / 전골,만원 미만,1,,37.5720165,126.9179208
133,민영이네,서울특별시 서대문구 통일로34길 46,기타 한식,만원 미만,1,,37.5854915,126.9510174
134,밀알찐빵만두,서울특별시 서대문구 통일로 171,기타 한식,만원 미만,1,,37.5689954,126.9632558
135,미스터빠삭,서울특별시 서대문구 통일로 197 1F,기타 한식,만원 미만,1,,37.5708604,126.9612919
136,생선구이와돈까스2,서울특별시 서대문구 명지대2길 7,한정식 / 백반 / 정통 한식,만원 미만,1,,37.5815418,126.9249173
137,함흥냉면,서울특별시 서대문구 충정로 13,탕 / 찌개 / 전골,만원 미만,1,,37.5605263,126.9626103
138,삼겹살데이,서울특별시 서대문구 경기대로9길 60 동호아파트,고기 요리,만원 미만,1,,37.56426,126.961044
139,두남자 차돌 떡볶이,서울특별시 서대문구 독립문로8길 69,기타 한식,만원 미만,1,,37.5673723,126.9591138
140,연희궁우동,서울특별시 서대문구 연희로 183,기타 한식,만원 미만,1,,37.5731672,126.935113
141,우자매순대국,서울특별시 서대문구 거북골로24길 65,탕 / 찌개 / 전골,만원 미만,1,,37.5819401,126.9094087
142,압구정떡볶이,서울특별시 서대문구 통일로 443,기타 한식,만원 미만,1,,37.5882938,126.9443565
143,파파상회,서울특별시 서대문구 서소문로 43-45  A-6호,기타 한식,만원 미만,1,,37.5606562,126.9649809
144,동해기사식당,서울특별시 서대문구 거북골로23길 58-8,한정식 / 백반 / 정통 한식,만원 미만,1,,37.5778035,126.9047368
145,이모네식당,서울특별시 서대문구 경기대로 25,탕 / 찌개 / 전골,만원 미만,1,,37.5617128,126.9616646
146,만석집,서울특별시 서대문구 충정로11길 26-5,한정식 / 백반 / 정통 한식,만원 미만,1,,37.5656544,126.9647906
147,사랑죽,서울특별시 서대문구 충정로 7 구세군빌딩,기타 한식,만원 미만,1,,37.5600861,126.9623213
148,수정식당,서울특별시 서대문구 충정로2길 18,한정식 / 백반 / 정통 한식,만원 미만,1,,37.5606537,126.9642927
149,이소현양평해장국,서울특별시 서대문구 경기대로7길 4,탕 / 찌개 / 전골,만원 미만,1,,37.5631395,126.9619108
150,김솔솔김밥,서울특별시 서대문구 경기대로 26-7,기타 한식,만원 미만,1,,37.5618859,126.9621828
151,명문손칼국수,서울특별시 서대문구 경기대로 25,국수 / 면 요리,만원 미만,1,,37.5617128,126.9616646
152,죠스떡볶이,서울특별시 서대문구 통일로 141,기타 한식,만원 미만,1,,37.5668727,126.9652175
153,미소떡볶이,서울특별시 서대문구 명지대3길 1,기타 한식,만원 미만,1,,37.5821633,126.9236109
154,레드후라이팬,서울특별시 서대문구 거북골로 53-16,기타 한식,만원 미만,1,,37.5781382,126.9227077
155,날아라김밥,서울특별시 서대문구 경기대로 39,기타 한식,만원 미만,1,,37.5629141,126.9618935
156,성화칼국수,서울특별시 서대문구 가재울로10길 21,국수 / 면 요리,만원 미만,1,,37.5763349,126.9221733
157,백채김치찌개,서울특별시 서대문구 증가로 123,탕 / 찌개 / 전골,만원 미만,1,,37.5771368,126.9236471
158,이레면옥,서울특별시 서대문구 통일로 375,국수 / 면 요리,만원 미만,1,,37.5835515,126.9492818
159,서대문김밥,서울특별시 서대문구 통일로 147,기타 한식,만원 미만,1,,37.5672832,126.9648677
160,꼬꼬야닭먹자,서울특별시 서대문구 명지대길 54 1F,닭 / 오리 요리,만원 미만,1,,37.5824332,126.9238606
161,녹원쌈밥,서울특별시 서대문구 연희로25길 22,고기 요리,만원-2만원,41,4.3,37.5724447,126.9341305
162,제주도그릴,서울특별시 서대문구 연희로 89,고기 요리,만원-2만원,8,4.3,37.5662378,126.930179
163,참맛집,서울특별시 서대문구 경기대로 82,고기 요리,만원-2만원,6,4.2,37.5658768,126.964783
164,월순철판동태찜,서울특별시 서대문구 연희맛로 17-14,해산물 요리,만원-2만원,16,4.1,37.5671888,126.9290368
165,서대문족발,서울특별시 서대문구 충정로6안길 54,고기 요리,만원-2만원,24,4.1,37.564364,126.9668448
166,고미정,서울특별시 서대문구 연희로26길 24,한정식 / 백반 / 정통 한식,만원-2만원,8,4.1,37.5727163,126.9368729
167,연탄생고기집,서울특별시 서대문구 홍제천로 76,고기 요리,만원-2만원,7,4.1,37.5726086,126.9235956
168,닭내장집,서울특별시 서대문구 수색로 28-5,닭 / 오리 요리,만원-2만원,10,4.0,37.5695793,126.9156157
169,안춘선갈비배추탕,서울특별시 서대문구 통일로 135 B1F,탕 / 찌개 / 전골,만원-2만원,18,4.0,37.5663899,126.9654438
170,주반여름,서울특별시 서대문구 연희맛로 17-13,퓨전 한식,만원-2만원,10,4.0,37.5667378,126.9290829
171,사모님돈가스,서울특별시 서대문구 연희로11가길 39 2F,기타 한식,만원-2만원,9,4.0,37.5666972,126.9280817
172,청송함흥냉면,서울특별시 서대문구 연희맛로 6 에스빌딩,국수 / 면 요리,만원-2만원,26,3.7,37.5658511,126.9287741
173,평택고여사집냉면,서울특별시 서대문구 연희로 81-9,국수 / 면 요리,만원-2만원,19,3.7,37.5656374,126.9292481
174,조은집,서울특별시 서대문구 연희맛로 43,한정식 / 백반 / 정통 한식,만원-2만원,22,3.6,37.56853359999999,126.9310699
175,장수촌,서울특별시 서대문구 거북골로 13,고기 요리,만원-2만원,6,3.5,37.5806391,126.9258315
176,장호왕곱창,서울특별시 서대문구 통일로 107-13,고기 요리,만원-2만원,7,3.4,37.5644183,126.9674824
177,고릴라,서울특별시 서대문구 충정로 22-2,고기 요리,만원-2만원,10,,37.5608774,126.9636999
178,민스키친,서울특별시 서대문구 연희맛로 7,한정식 / 백반 / 정통 한식,만원-2만원,5,,37.566234,126.928669
179,종로보쌈,서울특별시 서대문구 통일로9길 5,고기 요리,만원-2만원,8,,37.5671275,126.9646865
180,용씨네누룽지통닭구이,서울특별시 서대문구 통일로39가길 10-3,닭 / 오리 요리,만원-2만원,4,,37.5886988,126.9434925
181,훗닭훗닭,서울특별시 서대문구 홍제천로 160,닭 / 오리 요리,만원-2만원,7,,37.5772466,126.9310698
182,등촌샤브칼국수,서울특별시 서대문구 모래내로 273,탕 / 찌개 / 전골,만원-2만원,3,,37.5772161,126.9284087
183,닭발상점,서울특별시 서대문구 명지대길 54,닭 / 오리 요리,만원-2만원,4,,37.5824332,126.9238606
184,왕언니갈비탕,서울특별시 서대문구 연희맛로 28,탕 / 찌개 / 전골,만원-2만원,7,,37.5672354,126.9304975
185,가우,서울특별시 서대문구 세검정로 9,고기 요리,만원-2만원,3,,37.5919768,126.9423954
186,한돈의달인,서울특별시 서대문구 통일로 510 북한산 더샵상가 101-3호,고기 요리,만원-2만원,1,,37.5927053,126.9416772
187,초가집,서울특별시 서대문구 연희로 90-1,고기 요리,만원-2만원,5,,37.5660355,126.9305237
188,192전집,서울특별시 서대문구 연희맛로 5,한정식 / 백반 / 정통 한식,만원-2만원,3,,37.5661202,126.9284364
189,미향,서울특별시 서대문구 충정로11길 8,기타 한식,만원-2만원,2,,37.5656734,126.9658385
190,미동식당,서울특별시 서대문구 충정로6길 59 1F,해산물 요리,만원-2만원,6,,37.5629206,126.9681811
191,짚불집,서울특별시 서대문구 연희로8길 5-3,고기 요리,만원-2만원,2,,37.5657394,126.9304601
192,이판저판,서울특별시 서대문구 통일로 153-1,고기 요리,만원-2만원,3,,37.5677021,126.9644465
193,가고싶은 선리네,서울특별시 서대문구 증가로 53 1F,한정식 / 백반 / 정통 한식,만원-2만원,2,,37.5724109,126.9287051
194,원마산아구찜,서울특별시 서대문구 통일로 387,해산물 요리,만원-2만원,3,,37.5843607,126.9484824
195,동네고기,서울특별시 서대문구 세무서길 59 ,고기 요리,만원-2만원,1,,37.5905758,126.9462379
196,비진도해물뚝배기,서울특별시 서대문구 서소문로 53,해산물 요리,만원-2만원,4,,37.5616365,126.9671383
197,만석집,서울특별시 서대문구 연희로 93-7 1F,고기 요리,만원-2만원,3,,37.566552,126.9300466
198,치킨매니아,서울특별시 서대문구 연희로 377,닭 / 오리 요리,만원-2만원,1,,37.5899283,126.9375328
199,마포구이마당,서울특별시 서대문구 거북골로23길 2 신진빌딩,고기 요리,만원-2만원,2,,37.5795277,126.9069133
200,마포갈비생고기전문점,서울특별시 서대문구 경기대로 36,고기 요리,만원-2만원,2,,37.5626044,126.9620235
201,고래식당,서울특별시 서대문구 연희맛로 32 1F 102호,해산물 요리,만원-2만원,1,,37.5674867,126.9307792
202,최고집바지락생칼국수,서울특별시 서대문구 응암로 59,국수 / 면 요리,만원-2만원,3,,37.5785605,126.9100105
203,기가막힌물닭갈비,서울특별시 서대문구 가재울로4길 61,닭 / 오리 요리,만원-2만원,2,,37.5763354,126.9245009
204,선굼터,서울특별시 서대문구 연희맛로 12,해산물 요리,만원-2만원,2,,37.5661317,126.929215
205,두리뽈살,서울특별시 서대문구 수색로 100 DMC래미안e편한세상 별동상가 102호,고기 요리,만원-2만원,2,,37.5743004,126.9121504
206,건강나누리닭한마리전문점,서울특별시 서대문구 통일로40안길 3-1,닭 / 오리 요리,만원-2만원,1,,37.59042669999999,126.9433685
207,육회이야기,서울특별시 서대문구 연희로 90-1 1F,고기 요리,만원-2만원,1,,37.5660355,126.9305237
208,명지돈,서울특별시 서대문구 거북골로 21-10 1F,고기 요리,만원-2만원,5,,37.5797982,126.9250047
209,북문아구찜,서울특별시 서대문구 연희로26길 32,해산물 요리,만원-2만원,2,,37.5726073,126.9371699
210,서대문꼼장어,서울특별시 서대문구 충정로5길 4,해산물 요리,만원-2만원,2,,37.5626607,126.9639175
211,어바웃샤브,서울특별시 서대문구 충정로 71,탕 / 찌개 / 전골,만원-2만원,2,,37.5649655,126.9656672
212,가우,서울특별시 서대문구 연희맛로 5 2F,고기 요리,만원-2만원,2,,37.5661202,126.9284364
213,바다와들,서울특별시 서대문구 남가좌동 274-34,해산물 요리,만원-2만원,1,,37.57181980000001,126.9145949
214,참숯화로갈비,서울특별시 서대문구 증가로25길 6-10,고기 요리,만원-2만원,1,,37.5818202,126.913407
215,돌로고기굽는집,서울특별시 서대문구 가좌로 105 1F,고기 요리,만원-2만원,3,,37.5818684,126.9261535
216,제주식탁,서울특별시 서대문구 통일로39가길 64,한정식 / 백반 / 정통 한식,만원-2만원,1,,37.590384,126.941417
217,유진치킨,서울특별시 서대문구 세무서7길 13,닭 / 오리 요리,만원-2만원,3,,37.5914212,126.9460607
218,어상,서울특별시 서대문구 통일로9안길 36-3,한정식 / 백반 / 정통 한식,만원-2만원,2,,37.5656694,126.9652749
219,북문우리집,서울특별시 서대문구 연희로26길 23,한정식 / 백반 / 정통 한식,만원-2만원,2,,37.5726303,126.9371581
220,원조부안집,서울특별시 서대문구 통일로9안길 22 1F,고기 요리,만원-2만원,2,,37.5662584,126.9651433
221,거북골숯불갈비,서울특별시 서대문구 증가로 215,고기 요리,만원-2만원,1,,37.5809095,126.9148071
222,놀란곱창,서울특별시 서대문구 응암로 100,고기 요리,만원-2만원,1,,37.58150310000001,126.912824
223,장모생각,서울특별시 서대문구 충정로2길 8,고기 요리,만원-2만원,1,,37.5605293,126.963767
224,마루샤브,서울특별시 서대문구 충정로 50 골든브릿지빌딩,탕 / 찌개 / 전골,만원-2만원,1,,37.563,126.965153
225,청기와소금구이,서울특별시 서대문구 충정로11길 21-4,고기 요리,만원-2만원,1,,37.5652754,126.9650415
226,마포소금구이,서울특별시 서대문구 통일로 389,고기 요리,만원-2만원,1,,37.5844848,126.9483516
227,남산골뱅이,서울특별시 서대문구 통일로 107  미근빌딩 2F,해산물 요리,만원-2만원,1,,37.5644183,126.9674824
228,신원당마늘보쌈,서울특별시 서대문구 서소문로 61-1,고기 요리,만원-2만원,1,,37.5618749,126.9681265
229,연희녹두삼계탕,서울특별시 서대문구 연희맛로 43-1,탕 / 찌개 / 전골,만원-2만원,2,,37.5686706,126.93118
230,교촌치킨,서울특별시 서대문구 통일로 153-1,닭 / 오리 요리,만원-2만원,3,,37.5677021,126.9644465
231,썬더치킨,서울특별시 서대문구 통일로37길 21,닭 / 오리 요리,만원-2만원,0,,37.58727289999999,126.9442532
232,지호한방삼계탕,서울특별시 서대문구 연희로25길 10,탕 / 찌개 / 전골,만원-2만원,2,,37.5728597,126.9347845
233,연희보리밥,서울특별시 서대문구 연희맛로 33,한정식 / 백반 / 정통 한식,만원-2만원,2,,37.5679613,126.9305585
234,홍제솥뚜껑생삼겹살,서울특별시 서대문구 홍제내길 128,고기 요리,만원-2만원,1,,37.5879901,126.9367146
235,선진국낙지마당,서울특별시 서대문구 충정로9길 12,해산물 요리,만원-2만원,1,,37.5644671,126.9647267
236,하남돼지집,서울특별시 서대문구 충정로 71-1,고기 요리,만원-2만원,1,,37.565118,126.9656923
237,삼삼치킨,서울특별시 서대문구 응암로 90,닭 / 오리 요리,만원-2만원,1,,37.5806504,126.9123009
238,정정아식당,서울특별시 서대문구 통일로9안길 36-2,탕 / 찌개 / 전골,만원-2만원,1,,37.5658053,126.9653545
239,표현식당,서울특별시 서대문구 통일로9안길 7 1F,고기 요리,만원-2만원,1,,37.5668401,126.9647889
240,계동치킨,서울특별시 서대문구 통일로9안길 37,닭 / 오리 요리,만원-2만원,1,,37.5658485,126.9657625
241,옛날왕솥뚜껑생삼겹살,서울특별시 서대문구 통일로39길 22-58 1F,고기 요리,만원-2만원,1,,37.5898331,126.941675
242,모래내꼼장어,서울특별시 서대문구 수색로 42,해산물 요리,만원-2만원,1,,37.57032410000001,126.9142057
243,마이샤브,서울특별시 서대문구 통일로 484 유진상가 1F,탕 / 찌개 / 전골,만원-2만원,1,,37.5915033,126.9429722
244,바네스치킨,서울특별시 서대문구 증가로 14,닭 / 오리 요리,만원-2만원,2,,37.5696721,126.9314204
245,오감도,서울특별시 서대문구 충정로 47,고기 요리,만원-2만원,3,,37.5631737,126.964371
246,본가서대문족발,서울특별시 서대문구 충정로 59 서대문디오빌 1F,고기 요리,만원-2만원,2,,37.564074,126.9649042
247,포방식당,서울특별시 서대문구 홍은중앙로8길 19,고기 요리,만원-2만원,1,,37.5988995,126.9486617
248,평양옥,서울특별시 서대문구 통일로 107-23,탕 / 찌개 / 전골,만원-2만원,1,,37.5642424,126.9669483
249,아리동동,서울특별시 서대문구 충정로11길 21-3,한정식 / 백반 / 정통 한식,만원-2만원,1,,37.5652794,126.9651829
250,월순홍가네철판동태찜,서울특별시 서대문구 통일로9안길 8,해산물 요리,만원-2만원,1,,37.5667599,126.9646802
251,만선수산,서울특별시 서대문구 연희로 46,해산물 요리,만원-2만원,1,,37.5625917,126.9280308
252,남도정식,서울특별시 서대문구 가재울로4길 47,한정식 / 백반 / 정통 한식,만원-2만원,1,,37.5759473,126.9239359
253,왕십리곱창,서울특별시 서대문구 증가로10길 12,고기 요리,만원-2만원,1,,37.5779454,126.923298
254,장충당족발,서울특별시 서대문구 통일로 402,고기 요리,만원-2만원,1,,37.5856488,126.9478257
255,맷돌빈대떡,서울특별시 서대문구 충정로 63  2F,한정식 / 백반 / 정통 한식,만원-2만원,1,,37.5645043,126.9653691
256,이밥차,서울특별시 서대문구 연희로 192,한정식 / 백반 / 정통 한식,만원-2만원,1,,37.5741531,126.9358268
257,치킨시대,서울특별시 서대문구 거북골로 53-24,닭 / 오리 요리,만원-2만원,1,,37.5780894,126.9230854
258,명숯불갈비,서울특별시 서대문구 통일로 366,고기 요리,만원-2만원,1,,37.5830034,126.9502677
259,홍제동부대찌개,서울특별시 서대문구 통일로36길 7,탕 / 찌개 / 전골,만원-2만원,1,,37.5875405,126.9463611
260,왕십리곱창천하,서울특별시 서대문구 통일로 376,고기 요리,만원-2만원,1,,37.583834,126.9496435
261,남원골,서울특별시 서대문구 충정로5길 11,탕 / 찌개 / 전골,만원-2만원,1,,37.5625648,126.9634672
262,제주흑돼지뽈살,서울특별시 서대문구 통일로9길 4,고기 요리,만원-2만원,1,,37.5673052,126.9647066
263,오븐에빠진닭,서울특별시 서대문구 통일로9안길 32,닭 / 오리 요리,만원-2만원,1,,37.5659296,126.9653596
264,찬우물들깨나라,서울특별시 서대문구 통일로 159,기타 한식,만원-2만원,1,,37.5681428,126.9639479
265,서대문한량돼지,서울특별시 서대문구 충정로7길 30,고기 요리,만원-2만원,1,,37.5637343,126.9631544
266,독립문맛집,서울특별시 서대문구 영천시장길 50,해산물 요리,2만원-3만원,14,3.7,37.5700602,126.9617864
267,수빈,서울특별시 서대문구 연희로25길 31-3,한정식 / 백반 / 정통 한식,2만원-3만원,12,3.4,37.5718899,126.9343534
268,영천수산,서울특별시 서대문구 영천시장길 58,해산물 요리,2만원-3만원,4,,37.569765,126.9621426
269,거북이집,서울특별시 서대문구 연희맛로 12-1 1F,한정식 / 백반 / 정통 한식,2만원-3만원,8,,37.5662207,126.9293914
270,한씨옥,서울특별시 서대문구 연희로25길 92,한정식 / 백반 / 정통 한식,2만원-3만원,6,,37.5697272,126.9319346
271,요릿집,서울특별시 서대문구 연희맛로 36 1F,한정식 / 백반 / 정통 한식,2만원-3만원,5,,37.5679412,126.9310251
272,꽃마름,서울특별시 서대문구 수색로 56 성공타워상가 6F,탕 / 찌개 / 전골,2만원-3만원,2,,37.5726526,126.9093869
273,꽃돼지식당,서울특별시 서대문구 통일로39길 4,고기 요리,2만원-3만원,4,,37.5877256,126.9417092
274,사조미가,서울특별시 서대문구 통일로 107-39 사조빌딩,한정식 / 백반 / 정통 한식,2만원-3만원,1,,37.56422939999999,126.9661833
275,째보식당,서울특별시 서대문구 연희맛로 33,한정식 / 백반 / 정통 한식,2만원-3만원,5,,37.5679613,126.9305585
276,와규앤다이닝,서울특별시 서대문구 홍제내길 128 주영빌딩 1F,고기 요리,2만원-3만원,2,,37.5879901,126.9367146
277,파파양대창,서울특별시 서대문구 연희로10길 75 ,고기 요리,2만원-3만원,2,,37.5639744,126.9332709
278,고향촌,서울특별시 서대문구 통일로9안길 28-5,고기 요리,2만원-3만원,2,,37.5659414,126.9651613
279,봉일천장군집,서울특별시 서대문구 응암로 141,고기 요리,2만원-3만원,2,,37.5849072,126.914688
280,백년약수골,서울특별시 서대문구 백련사길 55,탕 / 찌개 / 전골,2만원-3만원,3,,37.5818632,126.9309472
281,막내회집,서울특별시 서대문구 충정로6안길 6-2,해산물 요리,2만원-3만원,0,,37.562455,126.9676929
282,오징어세상,서울특별시 서대문구 연희맛로 7-6,해산물 요리,2만원-3만원,1,,37.5663016,126.9285685
283,이백사호,서울특별시 서대문구 연희맛로 24 3F,퓨전 한식,2만원-3만원,1,,37.5668232,126.9303438
284,조개일번지,서울특별시 서대문구 통일로9안길 16,해산물 요리,2만원-3만원,2,,37.5664987,126.9649
285,꾼활어회집,서울특별시 서대문구 통일로 145-1,해산물 요리,2만원-3만원,1,,37.5671646,126.9649112
286,김미자당진아구동태찜탕,서울특별시 서대문구 응암로 91,해산물 요리,2만원-3만원,1,,37.5811821,126.9120215
287,선어도,서울특별시 서대문구 충정로 18,해산물 요리,2만원-3만원,1,,37.56057,126.9634824
288,서대문아구찜,서울특별시 서대문구 연희로 271,탕 / 찌개 / 전골,2만원-3만원,1,,37.5812674,126.9358003
289,쌍대포생소금구이,서울특별시 서대문구 홍은중앙로3길 9 상가 207-208호,고기 요리,2만원-3만원,1,,37.5978409,126.9458399
290,한도올,서울특별시 서대문구 통일로26길 7,고기 요리,2만원-3만원,2,,37.5832061,126.9504653
291,홍성녹우촌,서울특별시 서대문구 세검정로1길 95,고기 요리,2만원-3만원,1,,37.5953053,126.9447195
292,백마강,서울특별시 서대문구 통일로 143-7,고기 요리,2만원-3만원,1,,37.5670997,126.9647989
293,평동집,서울특별시 서대문구 경기대로 84 성산빌딩,고기 요리,2만원-3만원,1,,37.563312,126.9627473
294,엄지숯불갈비,서울특별시 서대문구 모래내로 376-7,고기 요리,2만원-3만원,1,,37.582399,126.9376942
295,연희동태찜,서울특별시 서대문구 연희맛로 25,해산물 요리,3만원-4만원,10,3.8,37.5673733,126.9301967
296,한우명가,서울특별시 서대문구 연희로 46-1,고기 요리,3만원-4만원,3,,37.5626805,126.9280895
297,오소오소,서울특별시 서대문구 충정로 47 신원빌딩,고기 요리,3만원-4만원,2,,37.5631737,126.964371
298,장위동유성집,서울특별시 서대문구 경기대로 63,고기 요리,3만원-4만원,3,,37.5646122,126.963801
299,반하는보쌈앤밥상,서울특별시 서대문구 통일로11길 3,고기 요리,3만원-4만원,2,,37.5692736,126.962815
300,최고의집해물찜과칼국수,서울특별시 서대문구 홍제천로 82,해산물 요리,3만원-4만원,1,,37.573064,126.9240306
301,호반으로부터,서울특별시 서대문구 모래내로 285 현대빌딩 1F,닭 / 오리 요리,3만원-4만원,1,,37.5776992,126.9294184
302,금강산소한마리,서울특별시 서대문구 연희로 81-30,고기 요리,3만원-4만원,1,,37.5659813,126.9292194
303,대남소곱창,서울특별시 서대문구 통일로9길 8,기타 한식,3만원-4만원,1,,37.5672326,126.964548
304,이교수의청춘족발,서울특별시 서대문구 증가로 5,고기 요리,3만원-4만원,1,,37.5688428,126.9316846
305,우미26,서울특별시 서대문구 통일로 159 1F,고기 요리,4만원 이상,2,,37.5681428,126.9639479
306,가타쯔무리,서울특별시 서대문구 명지대길 72,라멘 / 소바 / 우동,만원 미만,47,4.4,37.5831877,126.9234127
307,우동카덴,서울특별시 서대문구 연희로 173 거화빌딩 1F,라멘 / 소바 / 우동,만원 미만,68,4.3,37.5647564,126.9298909
308,더스푼,서울특별시 서대문구 충정로6길 35,돈부리 / 일본 카레 / 벤토,만원 미만,15,3.5,37.5625146,126.9665783
309,긴자료코,서울특별시 서대문구 연희로12길 8 1F,라멘 / 소바 / 우동,만원 미만,31,3.3,37.5666031,126.9314144
310,멘야산다이메,서울특별시 서대문구 연희로 81-5,라멘 / 소바 / 우동,만원 미만,11,3.2,37.5655063,126.9294028
311,소소식탁,서울특별시 서대문구 통일로39나길 1 1F,정통 일식 / 일반 일식,만원 미만,14,3.1,37.58843350000001,126.9434555
312,히메지,서울특별시 서대문구 연희로11길 41,돈부리 / 일본 카레 / 벤토,만원 미만,13,2.9,37.5682399,126.9291825
313,홍제카카레,서울특별시 서대문구 홍제내길 124 B1,돈부리 / 일본 카레 / 벤토,만원 미만,1,,37.5877466,126.9364961
314,랑데부,서울특별시 서대문구 통일로9길 8 1F,돈부리 / 일본 카레 / 벤토,만원 미만,5,,37.5672326,126.964548
315,돈카츠,서울특별시 서대문구 세무서2길 16,까스 요리,만원 미만,6,,37.5887314,126.9464394
316,스티브키친,서울특별시 서대문구 경기대로 38 1F,돈부리 / 일본 카레 / 벤토,만원 미만,2,,37.5627989,126.9621136
317,골목스푼,서울특별시 서대문구 통일로39길 6,돈부리 / 일본 카레 / 벤토,만원 미만,6,,37.5884416,126.9438472
318,포방돈카,서울특별시 서대문구 포방터길 43,까스 요리,만원 미만,1,,37.6000149,126.9493745
319,나루정,서울특별시 서대문구 통일로9길 7,돈부리 / 일본 카레 / 벤토,만원 미만,3,,37.5670926,126.9646111
320,용카츠,서울특별시 서대문구 세무서길 61 1호,까스 요리,만원 미만,2,,37.590723,126.9461736
321,곰소바,서울특별시 서대문구 경기대로 64,라멘 / 소바 / 우동,만원 미만,3,,37.5644992,126.9640731
322,히비야,서울특별시 서대문구 충정로 8,까스 요리,만원 미만,1,,37.5597031,126.9631582
323,오니기리와이규동,서울특별시 서대문구 연희로 92,정통 일식 / 일반 일식,만원 미만,3,,37.566147,126.9306025
324,고씨네,서울특별시 서대문구 명지대2길 28 1F,돈부리 / 일본 카레 / 벤토,만원 미만,1,,37.5823971,126.9254428
325,긴자료코,서울특별시 서대문구 명지대2길 14,정통 일식 / 일반 일식,만원 미만,2,,37.5817969,126.9252341
326,고우미,서울특별시 서대문구 세검정로1길 39 풍림아파트상가 2F,까스 요리,만원 미만,1,,37.5932909,126.943046
327,나라비,서울특별시 서대문구 거북골로 39 2F,정통 일식 / 일반 일식,만원 미만,2,,37.579102,126.9235599
328,미타우동,서울특별시 서대문구 간호대로3길 24-8,라멘 / 소바 / 우동,만원 미만,1,,37.5959439,126.9470149
329,아쯔다무라,서울특별시 서대문구 증가로10길 25,까스 요리,만원 미만,1,,37.5786389,126.9235643
330,호랑이식탁,서울특별시 서대문구 명지대2길 14,돈부리 / 일본 카레 / 벤토,만원 미만,1,,37.5817969,126.9252341
331,호루라기,서울특별시 서대문구 연희로11가길 47,이자카야 / 오뎅 / 꼬치,만원 미만,1,,37.5664453,126.9277265
332,더돈가츠,서울특별시 서대문구 충정로 53,까스 요리,만원 미만,1,,37.5637129,126.9646194
333,텐조,서울특별시 서대문구 거북골로20길 71,이자카야 / 오뎅 / 꼬치,만원-2만원,17,4.3,37.5810354,126.9112594
334,이자카야카덴,서울특별시 서대문구 연희로 173 거화빌딩 2F,이자카야 / 오뎅 / 꼬치,만원-2만원,34,3.9,37.5647564,126.9298909
335,문화촌초밥집,서울특별시 서대문구 세검정로 49,회 / 스시,만원-2만원,9,3.8,37.5925139,126.9465378
336,시오,서울특별시 서대문구 연희로11가길 23,정통 일식 / 일반 일식,만원-2만원,110,3.7,37.5671694,126.9286817
337,로얄싸롱,서울특별시 서대문구 연희로11가길 43,기타 일식,만원-2만원,7,3.6,37.5665393,126.9278587
338,희로,서울특별시 서대문구 성산로 325,이자카야 / 오뎅 / 꼬치,만원-2만원,7,,37.5664472,126.926444
339,오징어바다,서울특별시 서대문구 거북골로 21-9,회 / 스시,만원-2만원,1,,37.5797687,126.925227
340,유월의살구나무,서울특별시 서대문구 거북골로 43-11 1F,회 / 스시,만원-2만원,9,,37.5789687,126.9235686
341,채쉐프의와쇼쿠,서울특별시 서대문구 연희맛로 7-8,정통 일식 / 일반 일식,만원-2만원,6,,37.5663712,126.9284984
342,사케아이,서울특별시 서대문구 성산로17길 30-14 1-2F,회 / 스시,만원-2만원,3,,37.5636627,126.9333716
343,안짱,서울특별시 서대문구 통일로39길 32 1F,퓨전 일식,만원-2만원,2,,37.5878369,126.9426295
344,나나하치,서울특별시 서대문구 연희로 153,이자카야 / 오뎅 / 꼬치,만원-2만원,3,,37.5711324,126.934088
345,사까야,서울특별시 서대문구 연희로 185 한영빌딩,이자카야 / 오뎅 / 꼬치,만원-2만원,2,,37.57358869999999,126.9353068
346,마츠키,서울특별시 서대문구 응암로 116 1F,이자카야 / 오뎅 / 꼬치,만원-2만원,2,,37.5826492,126.9137063
347,와다이자카야,서울특별시 서대문구 증가로 120,이자카야 / 오뎅 / 꼬치,만원-2만원,1,,37.577228,126.9244609
348,십일,서울특별시 서대문구 증가로30길 29-5,이자카야 / 오뎅 / 꼬치,만원-2만원,1,,37.5841043,126.9131145
349,레게 키친,서울특별시 서대문구 연희로28길 18,퓨전 일식,만원-2만원,1,,37.574471,126.936514
350,고래초밥마트,서울특별시 서대문구 통일로 405 1F,회 / 스시,만원-2만원,2,,37.5857528,126.947069
351,오카이스시,서울특별시 서대문구 응암로 76,회 / 스시,만원-2만원,1,,37.579625,126.9114146
352,오늘의식탁,서울특별시 서대문구 연희로 195 1F,돈부리 / 일본 카레 / 벤토,만원-2만원,1,,37.5743727,126.9352033
353,아토,서울특별시 서대문구 통일로37길 38 1F,이자카야 / 오뎅 / 꼬치,만원-2만원,3,,37.5865317,126.9438855
354,남오토코,서울특별시 서대문구 통일로 143-5,이자카야 / 오뎅 / 꼬치,만원-2만원,1,,37.5670506,126.9648584
355,이도현참치,서울특별시 서대문구 세무서길 71,정통 일식 / 일반 일식,만원-2만원,1,,37.5910411,126.9465801
356,미소,서울특별시 서대문구 충정로 53 골든타워빌딩,회 / 스시,만원-2만원,1,,37.5637294,126.9646376
357,초밥플러스,서울특별시 서대문구 충정로11길 8  1F,회 / 스시,만원-2만원,1,,37.5656734,126.9658385
358,효동바,서울특별시 서대문구 독립문로12길 18,퓨전 일식,2만원-3만원,6,3.9,37.5679714,126.9609461
359,스시마쯔,서울특별시 서대문구 연희로 166 예림빌딩,회 / 스시,2만원-3만원,9,3.8,37.5647564,126.9298909
360,유우,서울특별시 서대문구 연희로26길 23 럭스하우스 B1,기타 일식,2만원-3만원,8,,37.5726303,126.9371581
361,비스트로카덴,서울특별시 서대문구 연희로25길 12,퓨전 일식,2만원-3만원,1,,37.5727135,126.9346609
362,네코노키친,서울특별시 서대문구 거북골로 33-4,이자카야 / 오뎅 / 꼬치,2만원-3만원,1,,37.5792142,126.9240021
363,THE Yang,서울특별시 서대문구 연희맛로 36,기타 일식,2만원-3만원,2,,37.5679412,126.9310251
364,도쿄총각,서울특별시 서대문구 명지대2길 14,이자카야 / 오뎅 / 꼬치,2만원-3만원,2,,37.5817969,126.9252341
365,참치연,서울특별시 서대문구 연희로 82 브라운스톤연희 A동 105호,회 / 스시,2만원-3만원,1,,37.5653396,126.9299742
366,후지산,서울특별시 서대문구 연희로 79,정통 일식 / 일반 일식,4만원 이상,3,,37.5654475,126.9295677
367,사조참치,서울특별시 서대문구 통일로 107-39 사조빌딩,회 / 스시,4만원 이상,2,,37.56422939999999,126.9661833
368,오마카세 해,서울특별시 서대문구 연희맛로 12  101호,회 / 스시,4만원 이상,1,,37.5661317,126.929215
369,걸리부,서울특별시 서대문구 연희맛로 31,정통 중식 / 일반 중식,만원 미만,60,4.4,37.5677818,126.930441
370,락희안,서울특별시 서대문구 가재울로4길 53,정통 중식 / 일반 중식,만원 미만,15,4.4,37.5760537,126.9241393
371,오향만두,서울특별시 서대문구 연희맛로 22,딤섬 / 만두,만원 미만,55,4.0,37.5668987,126.9301311
372,편의방,서울특별시 서대문구 연희로 36,딤섬 / 만두,만원 미만,26,4.0,37.5617911,126.9274887
373,이품,서울특별시 서대문구 연희로11길 20,정통 중식 / 일반 중식,만원 미만,60,3.8,37.567508,126.9300522
374,짬뽕주의,서울특별시 서대문구 충정로11길 12 2F,정통 중식 / 일반 중식,만원 미만,12,3.7,37.5656196,126.965657
375,이화원,서울특별시 서대문구 연희맛로 13,정통 중식 / 일반 중식,만원 미만,22,3.4,37.5665127,126.9290001
376,3호선차이나,서울특별시 서대문구 통일로 430,정통 중식 / 일반 중식,만원 미만,8,,37.587651,126.9458228
377,만복래,서울특별시 서대문구 증가로10길 6,정통 중식 / 일반 중식,만원 미만,5,,37.5777433,126.9232693
378,계화원,서울특별시 서대문구 통일로39길 6,정통 중식 / 일반 중식,만원 미만,7,,37.5884416,126.9438472
379,박가네짬뽕,서울특별시 서대문구 연희로10길 50,정통 중식 / 일반 중식,만원 미만,8,,37.5649618,126.932555
380,동보성,서울특별시 서대문구 통일로34길 48 인왕산현대아트,정통 중식 / 일반 중식,만원 미만,1,,37.5854915,126.9510174
381,씽씽,서울특별시 서대문구 연희로10길 72 서문빌리지,정통 중식 / 일반 중식,만원 미만,2,,37.5640507,126.9329303
382,왕왕,서울특별시 서대문구 연희맛로 27,정통 중식 / 일반 중식,만원 미만,2,,37.56759590000001,126.9303045
383,맛있는중식 차이리,서울특별시 서대문구 서소문로 43-45 2F c-6호,정통 중식 / 일반 중식,만원 미만,2,,37.5606562,126.9649809
384,화린,서울특별시 서대문구 통일로 421 1F,정통 중식 / 일반 중식,만원 미만,1,,37.5867936,126.9459663
385,유래성,서울특별시 서대문구 응암로 99,정통 중식 / 일반 중식,만원 미만,2,,37.5817346,126.9124244
386,대흥각,서울특별시 서대문구 수색로4길 14,정통 중식 / 일반 중식,만원 미만,1,,37.5700102,126.9151487
387,탕화쿵푸마라탕,서울특별시 서대문구 서소문로 27,기타 중식,만원 미만,2,,37.5602081,126.9647483
388,왕가,서울특별시 서대문구 연희로 48-22,정통 중식 / 일반 중식,만원 미만,1,,37.5626429,126.9285201
389,만석궁,서울특별시 서대문구 경기대로 51 반석교회,정통 중식 / 일반 중식,만원 미만,1,,37.5638315,126.9627286
390,마라왕마라탕,서울특별시 서대문구 거북골로 14,기타 중식,만원 미만,1,,37.58078700000001,126.9255463
391,아미산,서울특별시 서대문구 연희로32길 151,정통 중식 / 일반 중식,만원 미만,1,,37.5792365,126.9371108
392,진미,서울특별시 서대문구 연희맛로 36 1F,정통 중식 / 일반 중식,만원-2만원,12,4.3,37.5679412,126.9310251
393,연희동양꼬치,서울특별시 서대문구 연희로 81-5,기타 중식,만원-2만원,7,4.3,37.5655063,126.9294028
394,연희일품향,서울특별시 서대문구 연희로 143,정통 중식 / 일반 중식,만원-2만원,12,4.2,37.5703569,126.9334187
395,양밍산,서울특별시 서대문구 가좌로 36 1F,기타 중식,만원-2만원,4,4.1,37.5776385,126.9318624
396,라이라이,서울특별시 서대문구 연희로15길 27 1F,정통 중식 / 일반 중식,만원-2만원,22,3.7,37.56854939999999,126.9304255
397,복성각,서울특별시 서대문구 통일로 135 충정빌딩 B1,딤섬 / 만두,만원-2만원,6,3.6,37.5663957,126.965443
398,진보,서울특별시 서대문구 연희맛로 9,정통 중식 / 일반 중식,만원-2만원,2,,37.56629650000001,126.9288017
399,산동만두,서울특별시 서대문구 가재울로 53-9,정통 중식 / 일반 중식,만원-2만원,1,,37.5756808,126.9209974
400,브런치마라샹궈,서울특별시 서대문구 성산로 384-2 1F,기타 중식,만원-2만원,1,,37.5626568,126.9308482
401,웨이,서울특별시 서대문구 거북골로 21-12 2F,기타 중식,만원-2만원,1,,37.5796658,126.9250122
402,양치기소녀,서울특별시 서대문구 독립문로 66,기타 중식,만원-2만원,1,,37.5671304,126.9638884
403,목란,서울특별시 서대문구 연희로15길 21,정통 중식 / 일반 중식,2만원-3만원,102,4.3,37.5683426,126.9304738
404,연경,서울특별시 서대문구 연희로 145,정통 중식 / 일반 중식,2만원-3만원,12,3.6,37.5705361,126.9336098
405,롱보트스모커,서울특별시 서대문구 증가로 27 1F,기타 양식,만원 미만,9,4.5,37.5705006,126.9302788
406,링키지버거,서울특별시 서대문구 연희로11가길 53 1F,브런치 / 버거 / 샌드위치,만원 미만,21,4.1,37.5662398,126.927425
407,제니스카페,서울특별시 서대문구 연희맛로 17-49,이탈리안,만원 미만,38,3.9,37.5669704,126.9288939
408,주인백파스타,서울특별시 서대문구 증가로10길 57,기타 양식,만원 미만,7,3.4,37.5794693,126.9249086
409,로라,서울특별시 서대문구 증가로32길 23-8 1F,이탈리안,만원 미만,14,3.0,37.5848694,126.9120482
410,깐쪼네,서울특별시 서대문구 경기대로 23,이탈리안,만원 미만,2,,37.5615031,126.9616924
411,03InNOut,서울특별시 서대문구 연희로11길 57 1F,브런치 / 버거 / 샌드위치,만원 미만,4,,37.5688231,126.9287191
412,에크리,서울특별시 서대문구 경기대로 42,브런치 / 버거 / 샌드위치,만원 미만,3,,37.5630034,126.9622081
413,파파존스,서울특별시 서대문구 성산로 379,기타 양식,만원 미만,3,,37.563182,126.9310297
414,꼬망딸레부,서울특별시 서대문구 불광천길 202 1F,브런치 / 버거 / 샌드위치,만원 미만,3,,37.5836383,126.9107459
415,윈야드,서울특별시 서대문구 연희로11다길 9 1-2F,퓨전 양식,만원 미만,1,,37.5670268,126.9276616
416,타비함박,서울특별시 서대문구 연희맛로 17-14,스테이크 / 바베큐,만원 미만,3,,37.5671888,126.9290368
417,배익헌씨,서울특별시 서대문구 홍연길 24,스테이크 / 바베큐,만원 미만,1,,37.5750626,126.928298
418,퀴즈노스,서울특별시 서대문구 가재울미래로 2 201동 112호,브런치 / 버거 / 샌드위치,만원 미만,1,,37.6101535,126.9558929
419,피자스쿨,서울특별시 서대문구 연희로 82,기타 양식,만원 미만,1,,37.5650311,126.9302529
420,풀칠,서울특별시 서대문구 증가로 1 2F,기타 양식,만원 미만,1,,37.5686274,126.9318779
421,10그램,서울특별시 서대문구 거북골로14길 32 DMC아이파크아파트 상가동 3F 104호,브런치 / 버거 / 샌드위치,만원 미만,1,,37.5763376,126.9145067
422,버거존,서울특별시 서대문구 명지대길 27,브런치 / 버거 / 샌드위치,만원 미만,1,,37.5815096,126.9245555
423,다한,서울특별시 서대문구 독립문로14길 3  돈의문센트레빌상가 103호,퓨전 양식,만원 미만,1,,37.5668425,126.963932
424,버거앤프라이즈,서울특별시 서대문구 응암로 100  1F,브런치 / 버거 / 샌드위치,만원 미만,1,,37.58150310000001,126.912824
425,버거킹,서울특별시 서대문구 수색로 56 성공타워1,브런치 / 버거 / 샌드위치,만원 미만,2,,37.5726526,126.9093869
426,써브웨이,서울특별시 서대문구 충정로 23 풍산빌딩 B2,브런치 / 버거 / 샌드위치,만원 미만,1,,37.5610883,126.9629895
427,피자인,서울특별시 서대문구 경기대로 23 1F 2호,기타 양식,만원 미만,1,,37.5615031,126.9616924
428,메노,서울특별시 서대문구 연희로26가길 15,이탈리안,만원-2만원,13,4.7,37.5736557,126.9361328
429,센트그릴 BBQ,서울특별시 서대문구 연희로 89-3 B1,스테이크 / 바베큐,만원-2만원,40,4.6,37.5661476,126.9298724
430,쿳사,서울특별시 서대문구 증가로 48 상가 1F 103호,이탈리안,만원-2만원,14,4.6,37.5721413,126.9293757
431,Thursday Stuffing,서울특별시 서대문구 연희로15안길 6-4,브런치 / 버거 / 샌드위치,만원-2만원,22,4.3,37.5686526,126.9307761
432,마우디,서울특별시 서대문구 연희로11길 18,퓨전 양식,만원-2만원,108,4.1,37.5674491,126.9301187
433,뱅센느,서울특별시 서대문구 연희로11길 41,브런치 / 버거 / 샌드위치,만원-2만원,31,3.9,37.5682399,126.9291825
434,밀스,서울특별시 서대문구 연희로11가길 3,기타 양식,만원-2만원,20,3.9,37.5678499,126.9294994
435,피자앤플랫,서울특별시 서대문구 연희로10길 43-4,이탈리안,만원-2만원,17,3.9,37.565101,126.9328066
436,그로어스,서울특별시 서대문구 연희로27길 52 ,브런치 / 버거 / 샌드위치,만원-2만원,5,3.9,37.5722365,126.9333218
437,희게,서울특별시 서대문구 증가로 1 201호,브런치 / 버거 / 샌드위치,만원-2만원,12,3.8,37.5686274,126.9318779
438,옐로우보울,서울특별시 서대문구 충정로 7 구세군빌딩,기타 양식,만원-2만원,18,3.7,37.5600861,126.9623213
439,홍제파스타,서울특별시 서대문구 통일로39가길 24 1F,이탈리안,만원-2만원,10,3.2,37.5891108,126.9429217
440,길모퉁이화덕피자,서울특별시 서대문구 포방터길 19,이탈리안,만원-2만원,5,,37.5976407,126.9485492
441,피자아일랜드,서울특별시 서대문구 연희로 377,기타 양식,만원-2만원,6,,37.5899283,126.9375328
442,충정각,서울특별시 서대문구 충정로2길 8 1F,이탈리안,만원-2만원,5,,37.5605293,126.963767
443,비스테이크,서울특별시 서대문구 충정로6길 35,스테이크 / 바베큐,만원-2만원,9,,37.5625146,126.9665783
444,라온하우스,서울특별시 서대문구 통일로37길 5 2F,이탈리안,만원-2만원,5,,37.5877697,126.9446923
445,포케올데이,서울특별시 서대문구 연희로15길 39 1F,기타 양식,만원-2만원,4,,37.569099,126.9299241
446,이이알티키친,서울특별시 서대문구 연희로11가길 36 1-2F,브런치 / 버거 / 샌드위치,만원-2만원,2,,37.5669316,126.927895
447,칠린에그,서울특별시 서대문구 연희로11가길 33-3 2F,브런치 / 버거 / 샌드위치,만원-2만원,4,,37.566802,126.9284107
448,하씨타씨다이닝,서울특별시 서대문구 불광천길 142 1F,브런치 / 버거 / 샌드위치,만원-2만원,4,,37.5815286,126.9085599
449,테리맘스키친,서울특별시 서대문구 세검정로1길 11,이탈리안,만원-2만원,1,,37.5921961,126.9424365
450,라드로게리아,서울특별시 서대문구 성산로 325  동신빌딩 1F,이탈리안,만원-2만원,2,,37.5664281,126.926495
451,인더게러지,서울특별시 서대문구 홍연4길 33 B1,퓨전 양식,만원-2만원,2,,37.5748846,126.9288251
452,팔레트샐러드,서울특별시 서대문구 연희로 83  은혜빌딩 B1,기타 양식,만원-2만원,1,,37.565784,126.9298076
453,대성씨,서울특별시 서대문구 세검정로 47,스테이크 / 바베큐,만원-2만원,1,,37.592437,126.9463974
454,꾸오레 베로,서울특별시 서대문구 증가로10길 60-9,이탈리안,만원-2만원,2,,37.5791717,126.9255673
455,37.5,서울특별시 서대문구 가재울미래로 17 801호,브런치 / 버거 / 샌드위치,만원-2만원,1,,37.5791158,126.9367789
456,묵직한 샌드위치,서울특별시 서대문구 경기대로9길 81 102호,브런치 / 버거 / 샌드위치,만원-2만원,1,,37.5643904,126.9596896
457,보타닉힐,서울특별시 서대문구 연희맛로 17-14 B-01호,브런치 / 버거 / 샌드위치,만원-2만원,1,,37.5671888,126.9290368
458,레이씨,서울특별시 서대문구 연희로15길 43,브런치 / 버거 / 샌드위치,만원-2만원,1,,37.5692076,126.9298807
459,산스,서울특별시 서대문구 홍연4길 33,브런치 / 버거 / 샌드위치,만원-2만원,1,,37.5748846,126.9288251
460,피자쏠레,서울특별시 서대문구 거북골로 104,기타 양식,만원-2만원,2,,37.5753311,126.9181236
461,에버렛,서울특별시 서대문구 연희로 82,기타 양식,만원-2만원,1,,37.5650311,126.9302529
462,알리오올리오,서울특별시 서대문구 경기대로11길 12 유원 골든타워 빌딩 식당가 B1 29호,이탈리안,만원-2만원,1,,37.5658142,126.9638013
463,타볼로,서울특별시 서대문구 통일로9안길 22,이탈리안,만원-2만원,1,,37.5662584,126.9651433
464,서오릉피자,서울특별시 서대문구 가재울미래로 2 상가동 221동 109호,기타 양식,만원-2만원,1,,37.5791158,126.9367789
465,뚜띠쿠치나,서울특별시 서대문구 충정로 70 웨스트게이트타워 1F,기타 양식,만원-2만원,1,,37.5647015,126.9662207
466,잭슨피자,서울특별시 서대문구 경기대로9길 1 1F,기타 양식,만원-2만원,1,,37.5644277,126.9636236
467,시카고피자,서울특별시 서대문구 연희로 154,기타 양식,만원-2만원,1,,37.5709508,126.9344325
468,퐁신수플레,서울특별시 서대문구 거북골로 31-1 2F,브런치 / 버거 / 샌드위치,만원-2만원,1,,37.5795031,126.9241621
469,도미노피자,서울특별시 서대문구 세검정로 72 1F,기타 양식,만원-2만원,1,,37.5939095,126.9482461
470,파올로데마리아,서울특별시 서대문구 연희로26길 24,이탈리안,2만원-3만원,88,4.4,37.5727163,126.9368729
471,다이닝후,서울특별시 서대문구 충정로 43-1,퓨전 양식,2만원-3만원,9,4.4,37.5628257,126.9641393
472,에노테카오토,서울특별시 서대문구 연희맛로 17-18,이탈리안,2만원-3만원,48,4.2,37.5673433,126.9288852
473,크로키,서울특별시 서대문구 연희맛로 7-7 3F,이탈리안,2만원-3만원,10,4.0,37.56623889999999,126.928309
474,쉐프수,서울특별시 서대문구 연희맛로 12,이탈리안,2만원-3만원,2,,37.5661317,126.929215
475,감성매인,서울특별시 서대문구 연희로11가길 56 1F,퓨전 양식,2만원-3만원,4,,37.5662864,126.92719
476,쁠라뒤쥬르,서울특별시 서대문구 증가로 26-1,프랑스 음식,4만원 이상,7,,37.5705782,126.9306942
477,밀플랜비,서울특별시 서대문구 연희로10길 80,남미 음식,만원 미만,12,3.1,37.5637363,126.9334441
478,수국쌀복,서울특별시 서대문구 증가로 258,베트남 음식,만원 미만,2,,37.5837473,126.9116286
479,하노이맛집,서울특별시 서대문구 충정로9길 10-5,베트남 음식,만원 미만,3,,37.5645959,126.9647238
480,황씨네,서울특별시 서대문구 홍제천로 116,다국적 아시아 음식,만원 미만,2,,37.5751005,126.9269175
481,아시안쿠진,서울특별시 서대문구 수색로2길 30-6,베트남 음식,만원 미만,1,,37.5701888,126.9163472
482,베트남시장쌀국수,서울특별시 서대문구 영천시장길 30,베트남 음식,만원 미만,1,,37.5707011,126.9609013
483,포베이,서울특별시 서대문구 통일로9안길 28 2F,베트남 음식,만원 미만,1,,37.5660546,126.9653216
484,연희미식,서울특별시 서대문구 연희맛로 22 삼원빌딩,다국적 아시아 음식,만원-2만원,38,4.8,37.5668987,126.9301311
485,하노이의아침,서울특별시 서대문구 연희맛로 10,베트남 음식,만원-2만원,16,3.2,37.5660327,126.9290228
486,핀스코너,서울특별시 서대문구 통일로9안길 20-7,베트남 음식,만원-2만원,2,,37.5662431,126.9650417
487,커리야,서울특별시 서대문구 거북골로 55 2F,인도 음식,만원-2만원,1,,37.5781551,126.9221867
488,브라보,서울특별시 서대문구 충정로4길 22-4,남미 음식,만원-2만원,1,,37.5603831,126.9640452
489,모노보라초,서울특별시 서대문구 연희로15길 39 B1 우측,세계음식 기타,만원-2만원,1,,37.569099,126.9299241
490,작은스페인,서울특별시 서대문구 연희로25길 37,세계음식 기타,2만원-3만원,23,3.4,37.571722,126.934023
491,레몬,서울특별시 서대문구 연희로10길 78 ,뷔페,만원 미만,1,,37.563795,126.9332554
492,신라스테이카페,서울특별시 서대문구 충정로 76 신라스테이 서대문점 B1 ,뷔페,2만원-3만원,8,3.5,37.56516149999999,126.9667489
493,그랜드힐튼서울뷔페,서울특별시 서대문구 연희로 353 스위스그랜드호텔 서울점 L1,뷔페,4만원 이상,4,,37.5890761,126.934305
494,올레무스,서울특별시 서대문구 연희로5길 58,카페 / 디저트,만원 미만,60,4.5,37.5652411,126.9266544
495,르솔레이,서울특별시 서대문구 연희맛로 7-29,베이커리,만원 미만,80,4.4,37.56632949999999,126.9279715
496,폴앤폴리나,서울특별시 서대문구 연희로11길 56,베이커리,만원 미만,28,4.3,37.5688442,126.929055
497,디폴트벨류,서울특별시 서대문구 성산로 333 2F,카페 / 디저트,만원 미만,22,4.3,37.5661525,126.9273379
498,아이덴티티커피랩,서울특별시 서대문구 모래내로 390 1F,카페 / 디저트,만원 미만,7,4.3,37.583523,126.938841
499,커피가게동경,서울특별시 서대문구 연희맛로 23,카페 / 디저트,만원 미만,8,4.3,37.5671033,126.9296369
500,에브리띵베이글,서울특별시 서대문구 연희로11길 29 1F,카페 / 디저트,만원 미만,35,4.2,37.567758,126.9295981
501,비하인드리메인,서울특별시 서대문구 연희로11라길 10-6 101호,카페 / 디저트,만원 미만,27,4.2,37.568358,126.9302902
502,프로토콜,서울특별시 서대문구 연희로 109 2F,카페 / 디저트,만원 미만,14,4.2,37.56775409999999,126.9313583
503,포포브레드,서울특별시 마포구 동교로18길 13,베이커리,만원 미만,11,4.2,37.5545365,126.9170843
504,하이파이,서울특별시 서대문구 연희로11가길 39 B1,베이커리,만원 미만,5,4.2,37.5666972,126.9280817
505,매뉴팩트커피,서울특별시 서대문구 연희로11길 29,카페 / 디저트,만원 미만,94,4.1,37.567758,126.9295981
506,오디너리핏,서울특별시 서대문구 연희로11가길 48-23 3F,카페 / 디저트,만원 미만,16,4.1,37.5670752,126.9269455
507,행복감,서울특별시 서대문구 연희로11가길 51,카페 / 디저트,만원 미만,16,4.1,37.5663048,126.9275361
508,카페위검,서울특별시 서대문구 연희로11가길 8 2F,카페 / 디저트,만원 미만,5,4.1,37.5678955,126.9291648
509,컨시어지 커피,서울특별시 서대문구 증가로 1,카페 / 디저트,만원 미만,34,4.0,37.5686274,126.9318779
510,스웨이커피스테이션,서울특별시 서대문구 연희로11길 61,카페 / 디저트,만원 미만,23,4.0,37.568952,126.9285226
511,콜드레시피,서울특별시 서대문구 연희로11라길 2,카페 / 디저트,만원 미만,50,3.9,37.5679911,126.9296649
512,피터팬 1978,서울특별시 서대문구 증가로 10,베이커리,만원 미만,53,3.9,37.5693908,126.931704
513,금옥당,서울특별시 서대문구 연희로11라길 2,카페 / 디저트,만원 미만,34,3.9,37.5679911,126.9296649
514,앤트러사이트,서울특별시 서대문구 연희로 135,카페 / 디저트,만원 미만,37,3.9,37.5696478,126.9328198
515,알레스구떼,서울특별시 서대문구 연희로26길 4,베이커리,만원 미만,12,3.9,37.5728484,126.9358307
516,노아스로스팅,서울특별시 서대문구 연희로 160 1F,카페 / 디저트,만원 미만,25,3.9,37.5713968,126.9349321
517,망넛이네,서울특별시 서대문구 동교로 296 1-3F,베이커리,만원 미만,25,3.9,37.5651112,126.9278588
518,뉘블랑쉬베이커리,서울특별시 서대문구 연희로15길 52,베이커리,만원 미만,10,3.9,37.5696826,126.9298954
519,피터팬,서울특별시 서대문구 연희맛로 23,베이커리,만원 미만,16,3.9,37.5671033,126.9296369
520,ANNIV,서울특별시 서대문구 연희로11가길 8-8,카페 / 디저트,만원 미만,4,3.9,37.56809399999999,126.9289956
521,낟더쌔임,서울특별시 서대문구 서소문로 61 1F,카페 / 디저트,만원 미만,8,3.9,37.5618749,126.9681265
522,에뚜왈,서울특별시 서대문구 충정로4길 28,베이커리,만원 미만,9,3.9,37.5601567,126.9641253
523,컬러드빈,서울특별시 서대문구 연희로11가길 8-8,카페 / 디저트,만원 미만,11,3.9,37.56809399999999,126.9289956
524,푸어링아웃,서울특별시 서대문구 연희로11나길 7-7,카페 / 디저트,만원 미만,27,3.8,37.5672517,126.9281179
525,카페129-11,서울특별시 서대문구 연희로11가길 20,카페 / 디저트,만원 미만,17,3.8,37.5674716,126.9286185
526,오월의 이유,서울특별시 서대문구 증가로10길 36-41 1F,카페 / 디저트,만원 미만,4,3.8,37.5785932,126.9241865
527,시간이머무는홍차가게,서울특별시 서대문구 연희로16길 7-15,카페 / 디저트,만원 미만,15,3.7,37.5683103,126.9325842
528,연희양과점,서울특별시 서대문구 연희로11가길 56,카페 / 디저트,만원 미만,10,3.7,37.5662864,126.92719
529,하이드미플리즈,서울특별시 서대문구 통일로39나길 5,카페 / 디저트,만원 미만,19,3.7,37.5884239,126.9430865
530,쇼콜라티끄,서울특별시 서대문구 연희맛로 17-18,카페 / 디저트,만원 미만,8,3.7,37.5673433,126.9288852
531,달인꽈배기,서울특별시 서대문구 통일로 205-3,카페 / 디저트,만원 미만,13,3.7,37.5712096,126.9607313
532,아워온즈,서울특별시 서대문구 연희맛로 45,카페 / 디저트,만원 미만,4,3.7,37.5688266,126.9311834
533,독일빵집,서울특별시 서대문구 연희로11길 22,베이커리,만원 미만,7,3.7,37.5675868,126.9300001
534,커피콘하스,서울특별시 서대문구 연희로27길 99,카페 / 디저트,만원 미만,29,3.6,37.5702835,126.9321757
535,로덴드론,서울특별시 서대문구 연희로25길 82,카페 / 디저트,만원 미만,15,3.6,37.5701002,126.9322327
536,연희커피,서울특별시 서대문구 연희맛로 17-21,카페 / 디저트,만원 미만,12,3.5,37.5665983,126.9287997
537,발카롱,서울특별시 서대문구 통일로39길 43 1F,카페 / 디저트,만원 미만,15,3.5,37.5871253,126.9424606
538,떡의미학,서울특별시 서대문구 연희로25길 95,카페 / 디저트,만원 미만,9,,37.5694956,126.9322345
539,롯지190,서울특별시 서대문구 홍제천로 190,카페 / 디저트,만원 미만,4,,37.5786731,126.9338866
540,소설원,서울특별시 서대문구 통일로 419-1,카페 / 디저트,만원 미만,2,,37.5867399,126.9460112
541,연희예술극장,서울특별시 서대문구 연희맛로 2-3,카페 / 디저트,만원 미만,1,,37.5656012,126.9285411
542,티아레나,서울특별시 서대문구 연희맛로 43-2 2F,카페 / 디저트,만원 미만,1,,37.5687481,126.9310781
543,보틀팩토리,서울특별시 서대문구 홍연길 26 1F,카페 / 디저트,만원 미만,4,,37.5751488,126.9284689
544,카페몰리,서울특별시 서대문구 통일로 139,카페 / 디저트,만원 미만,1,,37.5667122,126.965308
545,우드사이드커피,서울특별시 서대문구 불광천길 274,카페 / 디저트,만원 미만,6,,37.586217,126.913282
546,카시코이,서울특별시 서대문구 성산로 253-4 금송빌딩,카페 / 디저트,만원 미만,5,,37.567789,126.9185655
547,로네펠트티하우스,서울특별시 서대문구 충정로 71-5,카페 / 디저트,만원 미만,6,,37.5651589,126.9654212
548,소빈커피,서울특별시 서대문구 연희로10길 40,카페 / 디저트,만원 미만,8,,37.5652907,126.9323591
549,베네쉬커피,서울특별시 서대문구 증가로32길 23-7,카페 / 디저트,만원 미만,5,,37.5846329,126.9118048
550,금양식방,서울특별시 서대문구 홍제천로 156-8,베이커리,만원 미만,3,,37.5768153,126.9309119
551,tuuli,서울특별시 서대문구 홍제천로 198,카페 / 디저트,만원 미만,2,,37.5790086,126.9349109
552,버드스틱 ,서울특별시 서대문구 증가로 49,카페 / 디저트,만원 미만,6,,37.5722223,126.9288674
553,피카니피카노,서울특별시 서대문구 연희로11길 30,베이커리,만원 미만,4,,37.567848,126.9297926
554,더니커피,서울특별시 서대문구 연희로11길 41 1F,카페 / 디저트,만원 미만,3,,37.5682399,126.9291825
555,맥널티커피팩토리,서울특별시 서대문구 연희로 152,카페 / 디저트,만원 미만,7,,37.5706638,126.9342758
556,제이슨95,서울특별시 서대문구 연희로11길 57 1F,카페 / 디저트,만원 미만,2,,37.5688231,126.9287191
557,유일한베이커리,서울특별시 서대문구 거북골로 120 DMC센트레빌아파트,베이커리,만원 미만,6,,37.5757437,126.915567
558,제니스커피하우스,서울특별시 서대문구 연희로11가길 30,카페 / 디저트,만원 미만,4,,37.5671518,126.9282325
559,비나리,서울특별시 서대문구 연희로 160 1F,카페 / 디저트,만원 미만,3,,37.5713968,126.9349321
560,곳간,서울특별시 서대문구 성산로 317,베이커리,만원 미만,4,,37.5665374,126.9254703
561,컴바인스,서울특별시 서대문구 송죽길 30 1F,카페 / 디저트,만원 미만,2,,37.5845756,126.9391669
562,서호파이,서울특별시 서대문구 수색로10길 8,카페 / 디저트,만원 미만,5,,37.5754126,126.9054635
563,강성은명과,서울특별시 서대문구 연희로25길 29,베이커리,만원 미만,2,,37.5719634,126.9342177
564,온고 파티세리,서울특별시 서대문구 연희로11길 71 ,카페 / 디저트,만원 미만,3,,37.5693754,126.9282177
565,페르마타,서울특별시 서대문구 충정로6길 37,카페 / 디저트,만원 미만,2,,37.5625016,126.9667403
566,폴센,서울특별시 서대문구 명지대3길 9 1F,카페 / 디저트,만원 미만,2,,37.5820784,126.9231932
567,띵스체인지,서울특별시 서대문구 경기대로 38,카페 / 디저트,만원 미만,7,,37.5627989,126.9621136
568,마리아칼라스,서울특별시 서대문구 성산로17길 26,카페 / 디저트,만원 미만,3,,37.563419,126.9325239
569,오늘,서울특별시 서대문구 연희로 119,카페 / 디저트,만원 미만,3,,37.5683925,126.9319107
570,투티거스,서울특별시 서대문구 연희로26길 28,카페 / 디저트,만원 미만,1,,37.5726599,126.9370107
571,핑크버터,서울특별시 서대문구 세검정로1길 81,베이커리,만원 미만,3,,37.5939749,126.9455785
572,카페가가,서울특별시 서대문구 충정로 67-1 1F,카페 / 디저트,만원 미만,3,,37.5646077,126.9654514
573,베이커리 카페 쏠트,서울특별시 서대문구 통일로 510 북한산더샵상가동 B2 109호,베이커리,만원 미만,4,,37.5927053,126.9416772
574,연희동오븐,서울특별시 서대문구 연희로11나길 7-5,카페 / 디저트,만원 미만,3,,37.5673331,126.9282549
575,공드린,서울특별시 서대문구 연희로 38-14,카페 / 디저트,만원 미만,3,,37.5618075,126.9281982
576,스페이스독,서울특별시 서대문구 연희로8길 18,카페 / 디저트,만원 미만,2,,37.5651376,126.9308739
577,카페드에덴,서울특별시 서대문구 포방터길 23 1F,카페 / 디저트,만원 미만,2,,37.5977707,126.9486776
578,주재근베이커리,서울특별시 서대문구 통일로 438,베이커리,만원 미만,9,,37.5881177,126.9453203
579,꼰대꽈배기,서울특별시 서대문구 포방터길 31,카페 / 디저트,만원 미만,3,,37.5981469,126.9488354
580,바늘이야기,서울특별시 서대문구 연희로11가길 15,카페 / 디저트,만원 미만,3,,37.5674075,126.9291039
581,라우터커피,서울특별시 서대문구 연희로11마길 12,카페 / 디저트,만원 미만,3,,37.5689642,126.9279757
582,다레젤라또,서울특별시 서대문구 가재울미래로 2 DMC파크뷰자이 101호,카페 / 디저트,만원 미만,1,,37.573616,126.916407
583,마냐나,서울특별시 서대문구 가재울미래로 2 205동 103-2호,카페 / 디저트,만원 미만,4,,37.5791158,126.9367789
584,런드리즈,서울특별시 서대문구 명지대길 29 1F,카페 / 디저트,만원 미만,3,,37.5815852,126.9244401
585,무무대베이크,서울특별시 서대문구 연희로12길 10-4  101호,카페 / 디저트,만원 미만,3,,37.56653379999999,126.9315286
586,공간커피,서울특별시 서대문구 연희로25길 68 1F,카페 / 디저트,만원 미만,2,,37.5706551,126.9327183
587,에스페란자로스터즈,서울특별시 서대문구 증가로4길 58-15,카페 / 디저트,만원 미만,1,,37.5774566,126.9287007
588,알키미스타,서울특별시 서대문구 거북골로24길 27-8,카페 / 디저트,만원 미만,2,,37.5808579,126.9078394
589,위더스,서울특별시 서대문구 명지대길 18,카페 / 디저트,만원 미만,3,,37.5811807,126.9250414
590,더 코티지 베이크하우스,서울특별시 서대문구 응암로 32 연희한양아파트상가 25호,베이커리,만원 미만,2,,37.57571,126.9089777
591,카페그레이지,서울특별시 서대문구 거북골로 12-15 2F,카페 / 디저트,만원 미만,2,,37.5809135,126.9253838
592,더그커피바,서울특별시 서대문구 세검정로 52-10,카페 / 디저트,만원 미만,3,,37.5919658,126.9465059
593,빈플루,서울특별시 서대문구 응암로 118 1F,카페 / 디저트,만원 미만,1,,37.5828856,126.9138365
594,하우디,서울특별시 서대문구 명지대길 10 2F,카페 / 디저트,만원 미만,1,,37.5807533,126.9251087
595,W P,서울특별시 서대문구 연희로 89-11 J Y 빌딩 1F,카페 / 디저트,만원 미만,8,,37.5647564,126.9298909
596,증가로커피공방,서울특별시 서대문구 증가로10길 36-55,카페 / 디저트,만원 미만,2,,37.5784149,126.9245887
597,파랑베이커리,서울특별시 서대문구 가재울미래로 2 204동,베이커리,만원 미만,3,,37.5791158,126.9367789
598,쿡앤커피,서울특별시 서대문구 거북골로 172 1F,카페 / 디저트,만원 미만,1,,37.5767682,126.9112683
599,페이퍼넛츠,서울특별시 서대문구 거북골로24길 37-8 1F,카페 / 디저트,만원 미만,2,,37.5812074,126.9082238
600,카페겸,서울특별시 서대문구 증가로 264  2F,카페 / 디저트,만원 미만,2,,37.5840396,126.9111805
601,에스프레소룸,서울특별시 서대문구 충정로6길 51,카페 / 디저트,만원 미만,1,,37.5623611,126.967469
602,대구떡집,서울특별시 서대문구 연희로11길 26,카페 / 디저트,만원 미만,4,,37.56768539999999,126.9299387
603,커피팝,서울특별시 서대문구 연희맛로 5,카페 / 디저트,만원 미만,2,,37.5661202,126.9284364
604,레몽즈,서울특별시 서대문구 연희로11마길 17,카페 / 디저트,만원 미만,1,,37.568765,126.9275789
605,보라다방,서울특별시 서대문구 연희로11가길 48-23,카페 / 디저트,만원 미만,1,,37.5670752,126.9269455
606,연희대공원,서울특별시 서대문구 연희로11가길 42,카페 / 디저트,만원 미만,1,,37.5668247,126.9277358
607,챙스베리,서울특별시 서대문구 성산로 325 동신빌딩 1F,카페 / 디저트,만원 미만,1,,37.5664281,126.926495
608,드웰타임,서울특별시 서대문구 연희로15길 31,카페 / 디저트,만원 미만,3,,37.5708358,126.9286946
609,스타벅스,서울특별시 서대문구 연희로 144,카페 / 디저트,만원 미만,1,,37.5701185,126.9338591
610,미도파커피하우스,서울특별시 서대문구 성산로 317 2F,카페 / 디저트,만원 미만,2,,37.5665374,126.9254703
611,빈스앤와플,서울특별시 서대문구 증가로25길 22,카페 / 디저트,만원 미만,1,,37.5812474,126.9129398
612,모두다가치 카페,서울특별시 서대문구 명지대길 50-7 1F,카페 / 디저트,만원 미만,1,,37.5822344,126.9240028
613,하이파이브커피웍스,서울특별시 서대문구 증가로 13-9 1F,카페 / 디저트,만원 미만,2,,37.5690889,126.9311004
614,스플릿세컨드,서울특별시 서대문구 성산로 374,카페 / 디저트,만원 미만,2,,37.5632143,126.9302177
615,마룬,서울특별시 서대문구 연희로26가길 14 스페이스엑스빌딩,카페 / 디저트,만원 미만,2,,37.5736048,126.9365784
616,헤일우드,서울특별시 서대문구 통일로34길 7  1F,카페 / 디저트,만원 미만,2,,37.5853624,126.9485589
617,혹스턴,서울특별시 서대문구 연희로 91 2F,카페 / 디저트,만원 미만,2,,37.5663242,126.9302728
618,노스트리커피,서울특별시 서대문구 충정로 70,카페 / 디저트,만원 미만,1,,37.5647724,126.966349
619,옛날맛꽈배기,서울특별시 서대문구 성산로 704 영천시장 A열 54호,카페 / 디저트,만원 미만,1,,37.5715736,126.9601149
620,호호빵집,서울특별시 서대문구 거북골로 100 상가 20호,베이커리,만원 미만,1,,37.5755235,126.9184706
621,레이지나인,서울특별시 서대문구 연희로15길 5 1F,카페 / 디저트,만원 미만,1,,37.5678179,126.9311435
622,디파트먼트 이엔,서울특별시 서대문구 연희로 48-22  1F,카페 / 디저트,만원 미만,1,,37.5626429,126.9285201
623,쩐쭈나이차,서울특별시 서대문구 거북골로 27,카페 / 디저트,만원 미만,2,,37.5797412,126.9244926
624,까페여름,서울특별시 서대문구 홍제천로 198,카페 / 디저트,만원 미만,2,,37.5790086,126.9349109
625,에스페란자로스터즈,서울특별시 서대문구 홍연길 80,카페 / 디저트,만원 미만,2,,37.5764155,126.9309334
626,메르시보꾸,서울특별시 서대문구 연희맛로 38,카페 / 디저트,만원 미만,2,,37.5681379,126.9311559
627,여미향망개떡,서울특별시 서대문구 수색로 56 성공타워1,카페 / 디저트,만원 미만,1,,37.5726526,126.9093869
628,1Q84 CHURROS,서울특별시 서대문구 가좌로 97 1F,카페 / 디저트,만원 미만,1,,37.581267,126.9268075
629,에스크투데이,서울특별시 서대문구 연희로11가길 56 2F,카페 / 디저트,만원 미만,1,,37.5662864,126.92719
630,노아스로스팅,서울특별시 서대문구 연희로11가길 23,카페 / 디저트,만원 미만,1,,37.5671694,126.9286817
631,황카페,서울특별시 서대문구 연희로 89-8 1F,카페 / 디저트,만원 미만,2,,37.5664407,126.9299939
632,파리바게뜨,서울특별시 서대문구 충정로9길 6,베이커리,만원 미만,2,,37.5644238,126.9650318
633,크리스피크림도넛,서울특별시 서대문구 수색로 56 성공타워1,카페 / 디저트,만원 미만,2,,37.5726526,126.9093869
634,스타벅스,서울특별시 서대문구 충정로 53 유원골든타워오피스텔,카페 / 디저트,만원 미만,2,,37.5637129,126.9646194
635,무쵸구스토올리바,서울특별시 서대문구 연희로 89-12,카페 / 디저트,만원 미만,2,,37.56651859999999,126.9298479
636,Eert,서울특별시 서대문구 연희로11가길 42,카페 / 디저트,만원 미만,2,,37.5668247,126.9277358
637,도나르스브레드,서울특별시 서대문구 연희맛로 17-49 B1좌측,베이커리,만원 미만,1,,37.5669704,126.9288939
638,위라이크,서울특별시 서대문구 응암로 43 1F,카페 / 디저트,만원 미만,1,,37.5774078,126.9090084
639,올드프렌드,서울특별시 서대문구 연희로25길 37 2F,카페 / 디저트,만원 미만,1,,37.571722,126.934023
640,어반게이트,서울특별시 서대문구 홍은중앙로 91 1F,카페 / 디저트,만원 미만,1,,37.5991884,126.9475071
641,루모스케이크,서울특별시 서대문구 연희로15안길 6-4 1F,카페 / 디저트,만원 미만,2,,37.5686526,126.9307761
642,발루토 핀치,서울특별시 서대문구 증가로10길 48,카페 / 디저트,만원 미만,2,,37.5790204,126.9245913
643,투썸플레이스,서울특별시 서대문구 모래내로 151,카페 / 디저트,만원 미만,2,,37.5697878,126.917717
644,커피볶는김여사,서울특별시 서대문구 포방터길 31,카페 / 디저트,만원 미만,1,,37.5981469,126.9488354
645,피나포어25,서울특별시 서대문구 경기대로 21 글로리아파트,카페 / 디저트,만원 미만,1,,37.561281,126.9616434
646,알콩커피,서울특별시 서대문구 충정로 73,카페 / 디저트,만원 미만,1,,37.5652823,126.9659356
647,하니앤손스,서울특별시 서대문구 연희맛로 12 3-5F,카페 / 디저트,만원 미만,1,,37.5661317,126.929215
648,할리스커피,서울특별시 서대문구 통일로 360,카페 / 디저트,만원 미만,1,,37.5825641,126.9505071
649,연두베이킹,서울특별시 서대문구 증가로29길 24,카페 / 디저트,만원 미만,1,,37.5818615,126.9119233
650,스타벅스,서울특별시 서대문구 서소문로 21 충정타워,카페 / 디저트,만원 미만,1,,37.5598507,126.964065
651,아멜리 티하우스,서울특별시 서대문구 연희로11마길 8,카페 / 디저트,만원 미만,1,,37.5689902,126.9281598
652,카페 시차,서울특별시 서대문구 증가로10길 16-20 1F,카페 / 디저트,만원 미만,1,,37.5776824,126.9241034
653,래핑폭스,서울특별시 서대문구 연희로11나길 5 1F,카페 / 디저트,만원 미만,1,,37.5674462,126.9283064
654,쿠키숲,서울특별시 서대문구 모래내로 453,카페 / 디저트,만원 미만,1,,37.5854584,126.9448699
655,녹다,서울특별시 서대문구 연희로 195 ,카페 / 디저트,만원 미만,1,,37.5743727,126.9352033
656,DNK149,서울특별시 서대문구 연희로 149 1F,카페 / 디저트,만원 미만,4,,37.570835,126.9337844
657,연희다방,서울특별시 서대문구 성산로18길 3 1F,카페 / 디저트,만원 미만,1,,37.56222169999999,126.9312563
658,파리바게뜨,서울특별시 서대문구 연희로 106,베이커리,만원 미만,1,,37.567145,126.9314542
659,해피박스,서울특별시 서대문구 충정로 36 국민연금충정로,카페 / 디저트,만원 미만,1,,37.5619429,126.9644696
660,배스킨라빈스,서울특별시 서대문구 연희맛로 23,카페 / 디저트,만원 미만,1,,37.5671033,126.9296369
661,카페 누마루,서울특별시 서대문구 연희로 377 현대아파트상가,카페 / 디저트,만원 미만,1,,37.5899283,126.9375328
662,떡가게종춘1975,서울특별시 서대문구 거북골로 57,카페 / 디저트,만원 미만,1,,37.5780802,126.9220734
663,커피랩로스터스,서울특별시 서대문구 연희로 52-2,카페 / 디저트,만원 미만,1,,37.5629207,126.9282479
664,올웨더도넛,서울특별시 서대문구 연희로15길 43 1F,카페 / 디저트,만원 미만,1,,37.5692076,126.9298807
665,인앤아웃커피,서울특별시 서대문구 세검정로 51-1,카페 / 디저트,만원 미만,1,,37.5927133,126.9468634
666,아지트커피,서울특별시 서대문구 연희로10길 83,카페 / 디저트,만원 미만,3,,37.5638874,126.9337125
667,인벤토커피,서울특별시 서대문구 연희로 399,카페 / 디저트,만원 미만,1,,37.5910447,126.940033
668,카인드맨커피,서울특별시 서대문구 성산로 384 진성오피스텔 1F,카페 / 디저트,만원 미만,2,,37.5624807,126.9309934
669,할리스커피,서울특별시 서대문구 통일로9안길 28,카페 / 디저트,만원 미만,1,,37.5660546,126.9653216
670,Cafe imt,서울특별시 서대문구 경기대로 26-20,카페 / 디저트,만원 미만,1,,37.5615704,126.9626807
671,초콜릿책방,서울특별시 서대문구 연희로5길 46-11 102호,카페 / 디저트,만원 미만,1,,37.5652455,126.9270679
672,먹고싶지롱,서울특별시 서대문구 세검정로 45-1 1F,카페 / 디저트,만원 미만,1,,37.5924159,126.9463512
673,연남장,서울특별시 서대문구 연희로5길 22 1F,카페 / 디저트,만원-2만원,20,4.4,37.5642886,126.9275718
674,보연희,서울특별시 서대문구 연희맛로 17-63 2F,카페 / 디저트,만원-2만원,4,4.3,37.56706459999999,126.9287454
675,ME3,서울특별시 서대문구 통일로 105,카페 / 디저트,만원-2만원,1,,37.5642669,126.967583
676,드렁크몽크,서울특별시 서대문구 연희맛로 3-4 B1,칵테일 / 와인,만원 미만,3,,37.5660746,126.9282819
677,야식포차,서울특별시 서대문구 성산로 337,일반 주점,만원 미만,4,,37.5659333,126.9278029
678,연희노가리,서울특별시 서대문구 연희로8길 5-3,전통 주점 / 포차,만원 미만,6,,37.5657394,126.9304601
679,물뛴다,서울특별시 서대문구 경기대로 43,전통 주점 / 포차,만원 미만,6,,37.5632558,126.9620235
680,2002포장마차,서울특별시 서대문구 충정로 69,전통 주점 / 포차,만원 미만,3,,37.5648427,126.9656383
681,치치,서울특별시 서대문구 증가로 254 연안빌딩,일반 주점,만원 미만,1,,37.5835464,126.9119225
682,심두,서울특별시 서대문구 홍연길 82 202호,칵테일 / 와인,만원 미만,2,,37.5765469,126.9311183
683,연희비어,서울특별시 서대문구 연희맛로 5,치킨 / 호프 / 펍,만원 미만,2,,37.5661202,126.9284364
684,볼 워크 비어 (휴업중),서울특별시 서대문구 연희로 94,치킨 / 호프 / 펍,만원 미만,1,,37.5663222,126.9307483
685,각자의새벽,서울특별시 서대문구 연희맛로 17-13,치킨 / 호프 / 펍,만원 미만,2,,37.5667378,126.9290829
686,노가리호프,서울특별시 서대문구 충정로11길 26 현대빌딩,치킨 / 호프 / 펍,만원 미만,1,,37.5655592,126.9650353
687,책바,서울특별시 서대문구 연희맛로 24 101호,칵테일 / 와인,만원-2만원,22,4.4,37.5668232,126.9303438
688,떼뮤즐렛,서울특별시 서대문구 연희맛로 24 2F,칵테일 / 와인,만원-2만원,23,4.4,37.5668232,126.9303438
689,탭스터,서울특별시 서대문구 증가로 1 103호,치킨 / 호프 / 펍,만원-2만원,15,4.3,37.5686274,126.9318779
690,크래프트비어칸,서울특별시 서대문구 연희로11길 7,치킨 / 호프 / 펍,만원-2만원,20,4.2,37.5669492,126.9304371
691,위드미치코,서울특별시 서대문구 충정로4길 20,전통 주점 / 포차,만원-2만원,21,4.2,37.5604582,126.9640827
692,백색소음,서울특별시 서대문구 연희로 38-12,일반 주점,만원-2만원,8,4.0,37.5617287,126.9280601
693,더 풍년,서울특별시 서대문구 영천시장길 56,전통 주점 / 포차,만원-2만원,12,3.9,37.5698786,126.9620436
694,묘한술책,서울특별시 서대문구 연희맛로 17-18,칵테일 / 와인,만원-2만원,6,3.4,37.5673433,126.9288852
695,마세,서울특별시 서대문구 연희로11가길 47,일반 주점,만원-2만원,6,,37.5664453,126.9277265
696,미정,서울특별시 서대문구 연희로11가길 53,일반 주점,만원-2만원,6,,37.5662398,126.927425
697,서울무궁화,서울특별시 서대문구 증가로 49-1 1F,일반 주점,만원-2만원,2,,37.5720131,126.9289496
698,브루어리304,서울특별시 서대문구 통일로11길 7,치킨 / 호프 / 펍,만원-2만원,2,,37.5691522,126.9625348
699,케그스테이션,서울특별시 서대문구 연희맛로 23 사러가쇼핑 1F 6호,치킨 / 호프 / 펍,만원-2만원,5,,37.5671033,126.9296369
700,완숙,서울특별시 서대문구 명지대길 35,일반 주점,만원-2만원,4,,37.5817854,126.9243681
701,연희와인,서울특별시 서대문구 연희맛로 26 1F,칵테일 / 와인,만원-2만원,2,,37.5670234,126.9302696
702,여기가좋겠네,서울특별시 서대문구 수색로 25,전통 주점 / 포차,만원-2만원,2,,37.5687206,126.915413
703,웅포차,서울특별시 서대문구 통일로 151,일반 주점,만원-2만원,1,,37.5675881,126.9645012
704,벙커1,서울특별시 서대문구 충정로 20,치킨 / 호프 / 펍,만원-2만원,1,,37.5607318,126.9637416
705,생화,서울특별시 서대문구 증가로30길 29-5 1F,일반 주점,만원-2만원,1,,37.5841043,126.9131145
706,나이트앤포그,서울특별시 서대문구 증가로 217,칵테일 / 와인,만원-2만원,1,,37.5810808,126.9146246
707,단독,서울특별시 서대문구 충정로5길 6,일반 주점,만원-2만원,1,,37.5626742,126.9638131
708,오동술,서울특별시 서대문구 충정로11길 8,전통 주점 / 포차,만원-2만원,2,,37.5656734,126.9658385
709,영순이네,서울특별시 서대문구 거북골로 37 B1,일반 주점,만원-2만원,1,,37.57924,126.9237764
710,맨인문,서울특별시 서대문구 서소문로 27 충정리시온 110호,칵테일 / 와인,만원-2만원,2,,37.5602081,126.9647483
711,요란,서울특별시 서대문구 통일로9안길 36-1,일반 주점,만원-2만원,1,,37.56571100000001,126.9653977
712,니하우객잔,서울특별시 서대문구 통일로11길 12-1,일반 주점,만원-2만원,1,,37.5691724,126.9622708
713,하이트비어뱅,서울특별시 서대문구 통일로 133-5,치킨 / 호프 / 펍,만원-2만원,2,,37.5660435,126.9657055
714,미근동 105-1,서울특별시 서대문구 충정로6길 37,치킨 / 호프 / 펍,만원-2만원,1,,37.5625016,126.9667403
715,정리의밤,서울특별시 서대문구 연희맛로 31-10,전통 주점 / 포차,2만원-3만원,5,4.4,37.5681429,126.9304121
716,코블러 연희,서울특별시 서대문구 연희맛로 31-9,칵테일 / 와인,2만원-3만원,6,4.3,37.56810979999999,126.9301443
717,어라우즈,서울특별시 서대문구 증가로6길 34-27,칵테일 / 와인,2만원-3만원,13,4.1,37.5776285,126.9265948
718,잘들어,서울특별시 서대문구 연희맛로 7,전통 주점 / 포차,2만원-3만원,6,,37.566234,126.928669
719,자정,서울특별시 서대문구 증가로 24 2F,일반 주점,2만원-3만원,5,,37.5703507,126.9308435
720,대피공간,서울특별시 서대문구 충정로4길 5-6 1F,칵테일 / 와인,2만원-3만원,2,,37.5610663,126.9641818
721,우주,서울특별시 서대문구 증가로32길 23-7,일반 주점,2만원-3만원,2,,37.5846329,126.9118048
722,엔드그리고,서울특별시 서대문구 홍제천로 186,칵테일 / 와인,2만원-3만원,2,,37.5785249,126.9335355
723,브루스톤,서울특별시 서대문구 통일로 149-1 B1,치킨 / 호프 / 펍,2만원-3만원,2,,37.5675,126.9646179
724,달빛아래,서울특별시 서대문구 통일로 159,일반 주점,2만원-3만원,1,,37.5681428,126.9639479
725,봉봉포차,서울특별시 서대문구 통일로9안길 36-1,일반 주점,2만원-3만원,1,,37.56571100000001,126.9653977
