,가게이름,가게 주소,음식 종류,가격 범위,리뷰개수,평점,lat,lng
1,일흥콩나물국밥,서울특별시 성북구 고려대로5길 77,탕 / 찌개 / 전골,만원 미만,9,4.4,37.59040299999999,127.035926
2,고른햇살,서울특별시 성북구 개운사길 27,기타 한식,만원 미만,55,4.3,37.5874859,127.0290878
3,성북동누룽지백숙,서울특별시 성북구 성북로31길 9,국수 / 면 요리,만원 미만,40,4.3,37.5945466,126.990451
4,참나무닭나라,서울특별시 성북구 동소문로8길 12,닭 / 오리 요리,만원 미만,14,4.3,37.5892652,127.0096491
5,수아당,서울특별시 성북구 동소문로20가길 33 1F,기타 한식,만원 미만,19,4.2,37.5930311,127.0180081
6,팔백집,서울특별시 성북구 보문로30길 46,고기 요리,만원 미만,10,4.1,37.5894509,127.0198045
7,동우설렁탕,서울특별시 성북구 개운사길 45,탕 / 찌개 / 전골,만원 미만,15,4.1,37.588347,127.0290505
8,명문막국수,서울특별시 성북구 창경궁로 319,국수 / 면 요리,만원 미만,10,4.1,37.5882358,127.0047815
9,이공김밥,서울특별시 성북구 안암로 61-6,기타 한식,만원 미만,17,4.1,37.5823573,127.028449
10,국시집,서울특별시 성북구 창경궁로43길 9,국수 / 면 요리,만원 미만,27,4.0,37.5883894,127.0042903
11,봉화묵집,서울특별시 성북구 아리랑로19길 46-2,한정식 / 백반 / 정통 한식,만원 미만,20,4.0,37.6026763,127.010733
12,우리할매떡볶이,서울특별시 성북구 보문로30길 82,기타 한식,만원 미만,15,4.0,37.5910816,127.0199983
13,호랑이김밥,서울특별시 성북구 성북로 18,기타 한식,만원 미만,5,4.0,37.5897578,127.0049073
14,돈암순대,서울특별시 성북구 동소문로18길 12-3,탕 / 찌개 / 전골,만원 미만,14,3.9,37.59162060000001,127.0156917
15,제순식당,서울특별시 성북구 동소문로20다길 30-9,한정식 / 백반 / 정통 한식,만원 미만,25,3.7,37.5917772,127.0184831
16,성북동돼지갈비집,서울특별시 성북구 성북로 115,고기 요리,만원 미만,16,3.7,37.5932483,126.9960567
17,태조감자국,서울특별시 성북구 보문로34길 43 세학빌딩,탕 / 찌개 / 전골,만원 미만,20,3.7,37.5907826,127.017715
18,미스터국밥,서울특별시 성북구 고려대로 102,탕 / 찌개 / 전골,만원 미만,11,3.7,37.59040299999999,127.035926
19,오박사네왕돈가스,서울특별시 성북구 혜화로 80,기타 한식,만원 미만,20,3.6,37.5925549,126.9989682
20,구포국수,서울특별시 성북구 성북로 52-1,국수 / 면 요리,만원 미만,10,3.6,37.5924992,127.0027159
21,돈까스하우스,서울특별시 성북구 고려대로27길 15 2F,기타 한식,만원 미만,5,3.6,37.59040299999999,127.035926
22,석관시장떡볶이,서울특별시 성북구 돌곶이로18길 27-9,기타 한식,만원 미만,12,3.6,37.6098447,127.0604356
23,서울쌈냉면,서울특별시 성북구 개운사길 21-4,국수 / 면 요리,만원 미만,10,3.6,37.5874416,127.0288585
24,유자유김치떡볶이,서울특별시 성북구 인촌로24길 47,기타 한식,만원 미만,34,3.5,37.5840706,127.0295975
25,삼통치킨,서울특별시 성북구 인촌로24길 60,닭 / 오리 요리,만원 미만,25,3.5,37.5834169,127.0293206
26,치즈를사랑한찜닭,서울특별시 성북구 개운사길 21-3 2F,닭 / 오리 요리,만원 미만,8,3.5,37.5872626,127.0288936
27,금왕돈까스,서울특별시 성북구 성북로 138,기타 한식,만원 미만,15,3.4,37.5948081,126.9943757
28,쌍다리돼지불백,서울특별시 성북구 성북로23길 4,한정식 / 백반 / 정통 한식,만원 미만,15,3.3,37.5934747,126.9956687
29,추억의 옛날떡볶이,서울특별시 성북구 동소문로22길 39-5,기타 한식,만원 미만,20,3.3,37.5914138,127.0185581
30,온달왕돈까스,서울특별시 성북구 동소문로20가길 4,기타 한식,만원 미만,16,3.1,37.5921262,127.0168899
31,손가네,서울특별시 성북구 성북로15길 8,탕 / 찌개 / 전골,만원 미만,7,,37.5930531,127.0003453
32,고대맛집ㅋㅋ,서울특별시 성북구 안암로9가길 80-17,기타 한식,만원 미만,5,,37.5827683,127.0286792
33,안동할매청국장,서울특별시 성북구 성북로5길 9-3,탕 / 찌개 / 전골,만원 미만,1,,37.5889086,127.0046366
34,우리밀국시,서울특별시 성북구 혜화로 84-2,국수 / 면 요리,만원 미만,7,,37.5926603,126.9984335
35,소담식당,서울특별시 성북구 인촌로24길 3-44,한정식 / 백반 / 정통 한식,만원 미만,6,,37.5859302,127.0297998
36,할매닭갈비곱창,서울특별시 성북구 동소문로20길 37-10,닭 / 오리 요리,만원 미만,4,,37.5908909,127.0174383
37,덕써니,서울특별시 성북구 돌곶이로14길 6-1,기타 한식,만원 미만,6,,37.6083283,127.0602202
38,장수식당,서울특별시 성북구 정릉로26길 55,한정식 / 백반 / 정통 한식,만원 미만,4,,37.6028926,127.0128943
39,전통평양만두,서울특별시 성북구 보문로32길 34,기타 한식,만원 미만,1,,37.5899324,127.0182209
40,아미가,서울특별시 성북구 북악산로29길 9,한정식 / 백반 / 정통 한식,만원 미만,9,,37.5927461,127.0348001
41,정키친프로젝트,서울특별시 성북구 동소문로24길 46 1F,퓨전 한식,만원 미만,9,,37.5917314,127.0186128
42,장수감자탕,서울특별시 성북구 도봉로3길 9-10,탕 / 찌개 / 전골,만원 미만,7,,37.6099808,127.0293855
43,옥두헌손두부가,서울특별시 성북구 개운사길 18,탕 / 찌개 / 전골,만원 미만,7,,37.5870906,127.0294484
44,솔샘길기사식당,서울특별시 성북구 보국문로 101,한정식 / 백반 / 정통 한식,만원 미만,5,,37.6128521,127.0070326
45,밀양손칼국수,서울특별시 성북구 동소문로26길 13,국수 / 면 요리,만원 미만,5,,37.5939552,127.0196956
46,마전터,서울특별시 성북구 혜화로 82-2,한정식 / 백반 / 정통 한식,만원 미만,4,,37.5926558,126.9986555
47,성북설렁탕,서울특별시 성북구 성북로 147,탕 / 찌개 / 전골,만원 미만,1,,37.5945083,126.9933504
48,싸움의고수,서울특별시 성북구 인촌로24가길 1,고기 요리,만원 미만,9,,37.5852926,127.0295137
49,떡뽀이,서울특별시 성북구 개운사길 22-6,기타 한식,만원 미만,10,,37.58730850000001,127.0296562
50,최대섭김밥,서울특별시 성북구 동소문로 315,기타 한식,만원 미만,3,,37.6083223,127.0287626
51,이상조전통만두국,서울특별시 성북구 인촌로8길 67,한정식 / 백반 / 정통 한식,만원 미만,5,,37.5830107,127.0223493
52,김만희분식,서울특별시 성북구 오패산로4길 39,기타 한식,만원 미만,9,,37.6042254,127.0398897
53,버들국수,서울특별시 성북구 화랑로40길 39,국수 / 면 요리,만원 미만,5,,37.6134811,127.0637063
54,바르다김선생,서울특별시 성북구 성북로 11,기타 한식,만원 미만,1,,37.5889972,127.0048925
55,미향,서울특별시 성북구 동소문로23길 20,한정식 / 백반 / 정통 한식,만원 미만,3,,37.5942746,127.0171481
56,돈암동찌개,서울특별시 성북구 동소문로20나길 34,탕 / 찌개 / 전골,만원 미만,3,,37.5923986,127.0184478
57,공식당,서울특별시 성북구 종암로21길 81-4,탕 / 찌개 / 전골,만원 미만,2,,37.60183079999999,127.0317802
58,990한줄애김밥,서울특별시 성북구 아리랑로 23 1F,기타 한식,만원 미만,1,,37.5948411,127.0158237
59,닭만리,서울특별시 성북구 보문로30라길 14,닭 / 오리 요리,만원 미만,3,,37.5899521,127.0189634
60,청년다방,서울특별시 성북구 동소문로20길 37-20,기타 한식,만원 미만,2,,37.5910197,127.0178692
61,니뽕내뽕,서울특별시 성북구 인촌로24길 23,퓨전 한식,만원 미만,5,,37.585144,127.0295122
62,양지설렁탕,서울특별시 성북구 고려대로 47,탕 / 찌개 / 전골,만원 미만,5,,37.59040299999999,127.035926
63,알촌,서울특별시 성북구 보문로34길 68-2,한정식 / 백반 / 정통 한식,만원 미만,2,,37.5908838,127.019078
64,장원식당,서울특별시 성북구 정릉로38나길 22,탕 / 찌개 / 전골,만원 미만,1,,37.6015561,127.019896
65,비야,서울특별시 성북구 개운사길 22-3 1F,탕 / 찌개 / 전골,만원 미만,11,,37.5874437,127.0294393
66,곰탕집,서울특별시 성북구 동소문로17길 1,탕 / 찌개 / 전골,만원 미만,4,,37.5925871,127.0145693
67,모두와,서울특별시 성북구 동소문로20다길 30-3,기타 한식,만원 미만,3,,37.5919656,127.0183822
68,남매부대찌개,서울특별시 성북구 화랑로11길 27 정우빌딩,탕 / 찌개 / 전골,만원 미만,5,,37.6036147,127.0418511
69,최고당돈가스,서울특별시 성북구 보문로34길 77,기타 한식,만원 미만,4,,37.5913637,127.0194714
70,모임터찜칼국수,서울특별시 성북구 동소문로17길 26,국수 / 면 요리,만원 미만,1,,37.5935484,127.0152431
71,미락,서울특별시 성북구 화랑로25길 13,고기 요리,만원 미만,1,,37.6091307,127.0521664
72,크림스치킨,서울특별시 성북구 인촌로24길 39,닭 / 오리 요리,만원 미만,6,,37.5843704,127.0295607
73,테이블토크,서울특별시 성북구 화랑로32길 12,퓨전 한식,만원 미만,4,,37.6097264,127.0560029
74,덕수칼국수,서울특별시 성북구 화랑로32길 26 1F,국수 / 면 요리,만원 미만,2,,37.6091092,127.0564513
75,맛닭꼬,서울특별시 성북구 고려대로24길 27,닭 / 오리 요리,만원 미만,1,,37.59040299999999,127.035926
76,서도바지락칼국수,서울특별시 성북구 동소문로20길 28-8,국수 / 면 요리,만원 미만,4,,37.5913204,127.0163173
77,빙수야,서울특별시 성북구 종암로38길 16,기타 한식,만원 미만,5,,37.6062728,127.0323172
78,난이네곱창,서울특별시 성북구 동소문로 225-13,고기 요리,만원 미만,3,,37.6022496,127.021375
79,인생닭강정,서울특별시 성북구 동소문로22길 29-4,닭 / 오리 요리,만원 미만,3,,37.5916214,127.0181715
80,숭덕분식,서울특별시 성북구 정릉로27길 15,기타 한식,만원 미만,2,,37.6044312,127.0131764
81,무아국수집,서울특별시 성북구 종암로3길 13,국수 / 면 요리,만원 미만,2,,37.5932095,127.0353818
82,소문난만나식당,서울특별시 성북구 동소문로6길 19,한정식 / 백반 / 정통 한식,만원 미만,1,,37.5883507,127.0085765
83,인정국물떡볶이,서울특별시 성북구 정릉로38길 16,기타 한식,만원 미만,1,,37.6014982,127.018565
84,쌀떡볶이나라,서울특별시 성북구 아리랑로 38,기타 한식,만원 미만,7,,37.5960919,127.0157336
85,혜화면옥,서울특별시 성북구 보문로 193-1,국수 / 면 요리,만원 미만,4,,37.5908183,127.0139166
86,황해감자탕,서울특별시 성북구 보문로38길 33-1,탕 / 찌개 / 전골,만원 미만,3,,37.5911621,127.0157034
87,청년다방,서울특별시 성북구 안암로 77,기타 한식,만원 미만,4,,37.5831505,127.0296921
88,공릉동원조멸치국수,서울특별시 성북구 화랑로 88-1,국수 / 면 요리,만원 미만,3,,37.6023715,127.0421695
89,불난집,서울특별시 성북구 동소문로 225-9 복지빌딩,기타 한식,만원 미만,4,,37.6022267,127.0215474
90,마떡366,서울특별시 성북구 보문로32길 10 1F,기타 한식,만원 미만,2,,37.5892138,127.0171886
91,정릉설렁탕,서울특별시 성북구 보국문로 16 초원빌딩 1F,탕 / 찌개 / 전골,만원 미만,2,,37.6059812,127.0113721
92,427월곡닭갈비,서울특별시 성북구 화랑로 170,닭 / 오리 요리,만원 미만,6,,37.6066297,127.0495049
93,성가네낙지마을,서울특별시 성북구 화랑로 236,해산물 요리,만원 미만,4,,37.6098567,127.055734
94,구포국수,서울특별시 성북구 길음로13길 22 길음뉴타운7단지,국수 / 면 요리,만원 미만,2,,37.6095887,127.0186795
95,짱구분식,서울특별시 성북구 보문로34길 77,기타 한식,만원 미만,3,,37.5913637,127.0194714
96,이가네즉석바지락칼국수,서울특별시 성북구 보문로 132,국수 / 면 요리,만원 미만,2,,37.5867261,127.0188224
97,신의주부대찌개,서울특별시 성북구 안암로9가길 98,탕 / 찌개 / 전골,만원 미만,2,,37.5830697,127.0287364
98,세븐돈까스김밥,서울특별시 성북구 돌곶이로 105,기타 한식,만원 미만,1,,37.6122291,127.0552804
99,도꼬정,서울특별시 성북구 삼양로 86-1,한정식 / 백반 / 정통 한식,만원 미만,1,,37.6110776,127.0224169
100,띵동이네떡볶이,서울특별시 성북구 월곡로 85,기타 한식,만원 미만,1,,37.5999242,127.0400481
101,참맛감자탕,서울특별시 성북구 돌곶이로 68 ,탕 / 찌개 / 전골,만원 미만,1,,37.609786,127.0582742
102,옛날손칼국수만두,서울특별시 성북구 동소문로6길 14-3,국수 / 면 요리,만원 미만,1,,37.5884142,127.0083141
103,닭잡는파로,서울특별시 성북구 인촌로24길 3-44,닭 / 오리 요리,만원 미만,5,,37.5859302,127.0297998
104,제나키친,서울특별시 성북구 화랑로11길 23,한정식 / 백반 / 정통 한식,만원 미만,5,,37.6033721,127.0416697
105,대머리식당,서울특별시 성북구 돌곶이로 162,한정식 / 백반 / 정통 한식,만원 미만,5,,37.6158199,127.0510292
106,청년다방,서울특별시 성북구 월곡로 108,기타 한식,만원 미만,3,,37.6015431,127.0415652
107,먹거리곱창,서울특별시 성북구 정릉로21길 71,고기 요리,만원 미만,3,,37.6084036,127.007769
108,팽팽닭발,서울특별시 성북구 삼선교로 33,닭 / 오리 요리,만원 미만,2,,37.5882291,127.00945
109,청보리꼴,서울특별시 성북구 북악산로 1062,한정식 / 백반 / 정통 한식,만원 미만,1,,37.5923635,127.0358355
110,따띠삼겹,서울특별시 성북구 보문로34길 95 102호,고기 요리,만원 미만,2,,37.5913791,127.0205583
111,올레해장국,서울특별시 성북구 보국문로 158,탕 / 찌개 / 전골,만원 미만,2,,37.6167632,127.0038962
112,고봉냉면,서울특별시 성북구 화랑로 96 1F,국수 / 면 요리,만원 미만,2,,37.6028891,127.0427744
113,로라방앗간,서울특별시 성북구 안암로 73,기타 한식,만원 미만,1,,37.5830088,127.0291131
114,작렬곱창,서울특별시 성북구 장월로1길 11,고기 요리,만원 미만,1,,37.6073276,127.0467733
115,오래누드김밥,서울특별시 성북구 동소문로26길 20,한정식 / 백반 / 정통 한식,만원 미만,1,,37.5937765,127.0199856
116,띵라면,서울특별시 성북구 동소문로22길 33-9,기타 한식,만원 미만,3,,37.5916336,127.018331
117,후문식당,서울특별시 성북구 인촌로27길 14,한정식 / 백반 / 정통 한식,만원 미만,2,,37.5869498,127.0299643
118,해밀,서울특별시 성북구 동소문로24가길 17,기타 한식,만원 미만,2,,37.5916146,127.0195214
119,신품떡볶이,서울특별시 성북구 화랑로32다길 6-23 행복아트빌,기타 한식,만원 미만,3,,37.6091166,127.0558033
120,청년식당 문간,서울특별시 성북구 보국문로11길 18-2 2F,탕 / 찌개 / 전골,만원 미만,3,,37.6087565,127.0091268
121,크앙분식,서울특별시 성북구 장월로1길 85 1F,기타 한식,만원 미만,3,,37.60502710000001,127.0440845
122,더대박치킨,서울특별시 성북구 삼선교로10다길 5,닭 / 오리 요리,만원 미만,1,,37.5861547,127.009628
123,마르니,서울특별시 성북구 인촌로26길 25,기타 한식,만원 미만,1,,37.5850259,127.0300538
124,걸작떡볶이치킨,서울특별시 성북구 아리랑로5길 92 상가동 B104호-디호,기타 한식,만원 미만,2,,37.5982311,127.0126184
125,명랑핫도그,서울특별시 성북구 동소문로22길 6,기타 한식,만원 미만,2,,37.592679,127.0173831
126,미가박당,서울특별시 성북구 고려대로28길 12-13,국수 / 면 요리,만원 미만,1,,37.59040299999999,127.035926
127,경화네 김밥,서울특별시 성북구 돌곶이로8길 22,기타 한식,만원 미만,1,,37.606749,127.0625109
128,미소샤브칼국수,서울특별시 성북구 동소문로22길 28 2F,탕 / 찌개 / 전골,만원 미만,1,,37.5917635,127.0178085
129,성북면가,서울특별시 성북구 동소문로 67,국수 / 면 요리,만원 미만,1,,37.591862,127.0126573
130,동네아저씨치킨,서울특별시 성북구 고려대로26길 55,닭 / 오리 요리,만원 미만,1,,37.59040299999999,127.035926
131,구포국수,서울특별시 성북구 동소문로23길 20 1F,국수 / 면 요리,만원 미만,1,,37.5942746,127.0171481
132,성북손두부,서울특별시 성북구 보문로32길 33 1F,한정식 / 백반 / 정통 한식,만원 미만,1,,37.5900553,127.0180528
133,순창집,서울특별시 성북구 오패산로13길 32 ,한정식 / 백반 / 정통 한식,만원 미만,1,,37.60693270000001,127.0346587
134,홍두깨손칼국수,서울특별시 성북구 보문로40길 5,국수 / 면 요리,만원 미만,6,,37.5916975,127.0137861
135,지지고,서울특별시 성북구 보문로34길 92,기타 한식,만원 미만,2,,37.5912209,127.0202841
136,보리보리옥선이시골밥상,서울특별시 성북구 솔샘로1길 19,한정식 / 백반 / 정통 한식,만원 미만,1,,37.6082056,127.003837
137,끼니와새참,서울특별시 성북구 안암로 145 고려대학교,기타 한식,만원 미만,3,,37.590799,127.0277773
138,어부삼대,서울특별시 성북구 개운사길 19 2F,한정식 / 백반 / 정통 한식,만원 미만,1,,37.5881084,127.02927
139,박씨돈까스,서울특별시 성북구 솔샘로4길 46 성신프라자 103호,기타 한식,만원 미만,3,,37.6084254,127.0073678
140,할매순대국,서울특별시 성북구 삼선교로 2,탕 / 찌개 / 전골,만원 미만,1,,37.588092,127.0062089
141,김철판,서울특별시 성북구 동소문로20다길 30-10,퓨전 한식,만원 미만,1,,37.5916694,127.01842
142,말뚜기감자탕,서울특별시 성북구 화랑로 86,탕 / 찌개 / 전골,만원 미만,1,,37.6021949,127.0420483
143,핫떡,서울특별시 성북구 아리랑로 120,기타 한식,만원 미만,2,,37.6025463,127.0137177
144,순자네야채곱창,서울특별시 성북구 동소문로20나길 16 1F,고기 요리,만원 미만,1,,37.5919865,127.017433
145,두메산골,서울특별시 성북구 보문로36길 16,기타 한식,만원 미만,1,,37.5908824,127.0150085
146,오직떡볶이,서울특별시 성북구 솔샘로6길 41 1F,기타 한식,만원 미만,1,,37.60957,127.00751
147,닭장,서울특별시 성북구 동소문로22길 69,닭 / 오리 요리,만원 미만,2,,37.5900607,127.0189111
148,치즈밥있슈,서울특별시 성북구 동소문로20다길 28 1F,퓨전 한식,만원 미만,1,,37.59197229999999,127.0182111
149,먹자해장국,서울특별시 성북구 오패산로 24,탕 / 찌개 / 전골,만원 미만,1,,37.6043485,127.0375234
150,짱가네돈냉면,서울특별시 성북구 안암로 73-9,국수 / 면 요리,만원 미만,2,,37.583265,127.0288142
151,우승식당,서울특별시 성북구 안암로9가길 80-8 1F,한정식 / 백반 / 정통 한식,만원 미만,1,,37.5824871,127.028676
152,보리밥바지락칼국수,서울특별시 성북구 종암로 54,국수 / 면 요리,만원 미만,1,,37.5949919,127.0361673
153,쓰리,서울특별시 성북구 삼선교로10길 19 1F,고기 요리,만원 미만,1,,37.5872182,127.0093456
154,가정쌈밥,서울특별시 성북구 보문로 153-3,한정식 / 백반 / 정통 한식,만원 미만,1,,37.5881058,127.0171137
155,홍대개미,서울특별시 성북구 동소문로 315 현대백화점 미아점,퓨전 한식,만원 미만,1,,37.6083313,127.0287845
156,자연숯불화로,서울특별시 성북구 돌곶이로22길 10,고기 요리,만원 미만,1,,37.6099238,127.0584922
157,토담,서울특별시 성북구 인촌로27길 14-4,한정식 / 백반 / 정통 한식,만원 미만,5,,37.5869498,127.0299643
158,아라부대찌개,서울특별시 성북구 화랑로11길 31,탕 / 찌개 / 전골,만원 미만,2,,37.6037127,127.0419926
159,오박사네돈까스,서울특별시 성북구 북악산로 1055,기타 한식,만원 미만,3,,37.59249519999999,127.0351895
160,정오네고추장불고기,서울특별시 성북구 월곡로 102,한정식 / 백반 / 정통 한식,만원 미만,3,,37.6011427,127.0412974
161,엄마손식당,서울특별시 성북구 인촌로27길 25 2F,한정식 / 백반 / 정통 한식,만원 미만,2,,37.5874546,127.0296713
162,봉구스밥버거,서울특별시 성북구 삼선교로10길 81,기타 한식,만원 미만,2,,37.584624,127.0103016
163,명동왕만두,서울특별시 성북구 종암로 97,기타 한식,만원 미만,1,,37.5989002,127.0342472
164,전주콩나물국밥,서울특별시 성북구 보국문로 75,한정식 / 백반 / 정통 한식,만원 미만,2,,37.6109439,127.0086663
165,얌샘김밥,서울특별시 성북구 화랑로 76 코업스타클래스 112-2호,기타 한식,만원 미만,2,,37.6018094,127.0403791
166,왕푸징만두,서울특별시 성북구 보문로26길 75,한정식 / 백반 / 정통 한식,만원 미만,2,,37.5878314,127.0228127
167,남가네설악추어탕,서울특별시 성북구 솔샘로 16-11,탕 / 찌개 / 전골,만원 미만,1,,37.6091749,127.0053169
168,청보리,서울특별시 성북구 동소문로17길 19,한정식 / 백반 / 정통 한식,만원 미만,1,,37.5932802,127.014918
169,일심해장국,서울특별시 성북구 동소문로 314-21,탕 / 찌개 / 전골,만원 미만,1,,37.6084774,127.0302001
170,도리연닭도리탕,서울특별시 성북구 동소문로20길 37-19 1F,닭 / 오리 요리,만원 미만,1,,37.5912035,127.0177603
171,명동칼국수,서울특별시 성북구 고려대로5길 87 1F,국수 / 면 요리,만원 미만,1,,37.59040299999999,127.035926
172,오늘김밥,서울특별시 성북구 보문로34길 60 ,기타 한식,만원 미만,1,,37.5907951,127.0187055
173,계모임,서울특별시 성북구 보문로30라길 5-10 1F,닭 / 오리 요리,만원-2만원,5,4.4,37.5895322,127.0191796
174,토로생선구이,서울특별시 성북구 고려대로28길 14-1,한정식 / 백반 / 정통 한식,만원-2만원,11,4.4,37.4779868,127.0496375
175,한상차림밥상,서울특별시 성북구 고려대로8길 35 1F,한정식 / 백반 / 정통 한식,만원-2만원,24,4.3,37.5917087,127.0054531
176,달밝은집,서울특별시 성북구 정릉로6길 35 ,고기 요리,만원-2만원,7,4.3,37.6101804,126.9945731
177,성북동집,서울특별시 성북구 성북로24길 4,국수 / 면 요리,만원-2만원,30,4.2,37.59441169999999,126.9956583
178,제주고깃집,서울특별시 성북구 안암로 69-1,고기 요리,만원-2만원,20,4.2,37.5826156,127.028851
179,김통,서울특별시 성북구 동소문로23길 12,고기 요리,만원-2만원,15,4.1,37.59402350000001,127.017507
180,모소리,서울특별시 성북구 삼양로 13,고기 요리,만원-2만원,5,4.1,37.604417,127.0247997
181,동선식당,서울특별시 성북구 보문로30라길 9,고기 요리,만원-2만원,5,4.1,37.5897991,127.0190968
182,성북동면옥집,서울특별시 성북구 대사관로 40,국수 / 면 요리,만원-2만원,40,4.0,37.5958581,126.988618
183,청수장,서울특별시 성북구 정릉로 237-2,고기 요리,만원-2만원,5,4.0,37.6052968,127.0107696
184,할매숯불닭갈비,서울특별시 성북구 동소문로20길 37-5,닭 / 오리 요리,만원-2만원,10,4.0,37.5909871,127.0171993
185,천막집,서울특별시 성북구 보문로30길 31 1F,고기 요리,만원-2만원,7,4.0,37.5890635,127.0190476
186,선동보리밥,서울특별시 성북구 성북로 134-4,한정식 / 백반 / 정통 한식,만원-2만원,6,3.9,37.5946523,126.9951319
187,하단,서울특별시 성북구 성북로6길 14,탕 / 찌개 / 전골,만원-2만원,35,3.7,37.5899558,127.0049805
188,창신동매운족발,서울특별시 성북구 한천로78길 57,고기 요리,만원-2만원,17,3.7,37.6129494,127.0647154
189,등촌샤브칼국수,서울특별시 성북구 개운사길 11,탕 / 찌개 / 전골,만원-2만원,12,3.3,37.5869599,127.029115
190,쭈꾸미달인,서울특별시 성북구 동소문로20나길 40,해산물 요리,만원-2만원,7,,37.5924816,127.0186721
191,밥짓고티우림,서울특별시 성북구 성북로2길 15,한정식 / 백반 / 정통 한식,만원-2만원,7,,37.5895197,127.0068059
192,정가네지짐이,서울특별시 성북구 아리랑로19길 20,한정식 / 백반 / 정통 한식,만원-2만원,7,,37.6025639,127.0122656
193,종로곱창철판닭갈비,서울특별시 성북구 동소문로6길 8,고기 요리,만원-2만원,3,,37.5887465,127.0080764
194,백두한우곱창,서울특별시 성북구 보문로 55,탕 / 찌개 / 전골,만원-2만원,6,,37.5802861,127.0218313
195,꾸이꾸이멱살,서울특별시 성북구 동소문로22길 25-3 1F,고기 요리,만원-2만원,3,,37.5919123,127.0182606
196,화야,서울특별시 성북구 종암로28길 7,고기 요리,만원-2만원,4,,37.6024398,127.0331947
197,공복식당,서울특별시 성북구 장월로1길 60,고기 요리,만원-2만원,9,,37.6059975,127.0448604
198,오징어한마리매운떡볶이,서울특별시 성북구 화랑로13길 28,기타 한식,만원-2만원,3,,37.6045655,127.0422671
199,성북동소곱창,서울특별시 성북구 성북로 57-1,고기 요리,만원-2만원,2,,37.5925488,127.0019792
200,인생전집,서울특별시 성북구 보문로38길 11 돈암동일하이빌 1F 113호,한정식 / 백반 / 정통 한식,만원-2만원,3,,37.5915696,127.0145464
201,봉추찜닭,서울특별시 성북구 인촌로24길 3-3,닭 / 오리 요리,만원-2만원,1,,37.5860811,127.029628
202,등마루,서울특별시 성북구 동소문로20나길 12,고기 요리,만원-2만원,1,,37.5919229,127.0172606
203,영자네곱창,서울특별시 성북구 장위로 40 ,고기 요리,만원-2만원,1,,37.6141543,127.0409423
204,산적,서울특별시 성북구 인촌로26길 51 진영빌딩,고기 요리,만원-2만원,6,,37.5840614,127.0301306
205,불타는소금구이,서울특별시 성북구 보문로30길 43-3,고기 요리,만원-2만원,3,,37.5893102,127.0193602
206,돈가래,서울특별시 성북구 성북로2길 56,고기 요리,만원-2만원,5,,37.5899855,127.0087269
207,두메산골쌈밥,서울특별시 성북구 화랑로 119-9,한정식 / 백반 / 정통 한식,만원-2만원,2,,37.604785,127.0443345
208,팔백집,서울특별시 성북구 고려대로27길 3,고기 요리,만원-2만원,6,,37.59040299999999,127.035926
209,이향,서울특별시 성북구 성북로26길 13,한정식 / 백반 / 정통 한식,만원-2만원,5,,37.5948806,126.994223
210,잭아저씨족발&보쌈,서울특별시 성북구 동소문로22길 57-3,고기 요리,만원-2만원,4,,37.5906514,127.0187572
211,원진노기순청국장,서울특별시 성북구 안암로9가길 94 1F,고기 요리,만원-2만원,1,,37.5829681,127.0286517
212,한마리채 서서갈비,서울특별시 성북구 동소문로20길 37,고기 요리,만원-2만원,4,,37.5909214,127.016985
213,청년고기장수,서울특별시 성북구 화랑로13길 8 2F,고기 요리,만원-2만원,2,,37.6036913,127.042806
214,우리맛곱창,서울특별시 성북구 보국문로11길 21-4,고기 요리,만원-2만원,2,,37.6080419,127.0088996
215,무한리필고기굼터,서울특별시 성북구 보국문로11가길 1,고기 요리,만원-2만원,1,,37.6087387,127.0092596
216,김과장고깃집,서울특별시 성북구 한천로78길 46,고기 요리,만원-2만원,1,,37.6125404,127.0647194
217,노랑통닭,서울특별시 성북구 인촌로26길 12,닭 / 오리 요리,만원-2만원,3,,37.5856619,127.0298157
218,돼야지,서울특별시 성북구 인촌로24가길 12,고기 요리,만원-2만원,2,,37.5851456,127.0300443
219,솥뚜껑생삼겹살,서울특별시 성북구 아리랑로2길 15 한국빌딩,고기 요리,만원-2만원,2,,37.59356349999999,127.017136
220,나의장어,서울특별시 성북구 삼선교로24길 18 1F,해산물 요리,만원-2만원,1,,37.5890159,127.0153943
221,신의한수 매운갈비찜,서울특별시 성북구 동소문로20나길 26-1,고기 요리,만원-2만원,1,,37.592253,127.0180602
222,동소문집,서울특별시 성북구 동소문로22길 64,고기 요리,만원-2만원,1,,37.5902132,127.0185037
223,돈암집,서울특별시 성북구 동소문로20길 37-18,고기 요리,만원-2만원,1,,37.5910386,127.0177523
224,고품콩,서울특별시 성북구 안암로 87-5,고기 요리,만원-2만원,5,,37.5837261,127.0301012
225,오빠곱창,서울특별시 성북구 동소문로22길 29-4,고기 요리,만원-2만원,2,,37.5916214,127.0181715
226,삽교원조두리곱창,서울특별시 성북구 장월로1길 57,고기 요리,만원-2만원,3,,37.605929,127.0451954
227,옛골,서울특별시 성북구 동소문로22길 60,고기 요리,만원-2만원,1,,37.5904049,127.0184785
228,전곱,서울특별시 성북구 동소문로2길 63,고기 요리,만원-2만원,1,,37.5888655,127.0094721
229,원조닭한마리,서울특별시 성북구 개운사길 22-3 2F,닭 / 오리 요리,만원-2만원,12,,37.5874437,127.0294393
230,안암아줌마치킨,서울특별시 성북구 고려대로24길 37,닭 / 오리 요리,만원-2만원,5,,37.59040299999999,127.035926
231,원조한방삼계탕,서울특별시 성북구 인촌로1길 92,탕 / 찌개 / 전골,만원-2만원,3,,37.5890826,127.0173421
232,전주완산골,서울특별시 성북구 고려대로 84,한정식 / 백반 / 정통 한식,만원-2만원,2,,37.59040299999999,127.035926
233,일번지정육식당,서울특별시 성북구 화랑로 254 대성프라자 1F,고기 요리,만원-2만원,2,,37.6109475,127.057766
234,대마족발,서울특별시 성북구 동소문로22길 72,고기 요리,만원-2만원,2,,37.5899214,127.0187374
235,적벽가,서울특별시 성북구 동소문로17길 29,한정식 / 백반 / 정통 한식,만원-2만원,1,,37.5936443,127.0152529
236,우가네황칠맛나,서울특별시 성북구 화랑로15길 12,고기 요리,만원-2만원,1,,37.6054383,127.0455742
237,동원생돼지연탄구이,서울특별시 성북구 화랑로9길 42 1F,고기 요리,만원-2만원,1,,37.603845,127.0404212
238,영석이네,서울특별시 성북구 보문로38길 43,고기 요리,만원-2만원,1,,37.5909623,127.0161726
239,바람난오리궁뎅이,서울특별시 성북구 보국문로29길 15,닭 / 오리 요리,2만원-3만원,16,4.3,37.6159629,127.003029
240,창신동매운족발,서울특별시 성북구 한천로78길 52,고기 요리,2만원-3만원,7,3.5,37.6126348,127.0648111
241,갈비명가이상,서울특별시 성북구 정릉로 364,고기 요리,2만원-3만원,8,3.5,37.6014124,127.0236475
242,성북동디너쑈,서울특별시 성북구 창경궁로43길 6,퓨전 한식,2만원-3만원,10,3.3,37.58825059999999,127.0046103
243,자작나무,서울특별시 성북구 정릉로10길 107 1-2F,고기 요리,2만원-3만원,2,,37.6050269,126.9985384
244,남해바다마차,서울특별시 성북구 한천로78길 71,해산물 요리,2만원-3만원,4,,37.6135144,127.0649496
245,오백집모자족발,서울특별시 성북구 동소문로20길 20,고기 요리,2만원-3만원,9,,37.5916301,127.016508
246,자연에서왔소,서울특별시 성북구 성북로 36 성북1동 경로당,고기 요리,2만원-3만원,2,,37.5911315,127.0037952
247,정릉회관,서울특별시 성북구 솔샘로12길 1 1F,고기 요리,2만원-3만원,2,,37.6110146,127.0053886
248,큰대문집,서울특별시 성북구 종암로14길 6-21,고기 요리,2만원-3만원,5,,37.5962746,127.0361281
249,머구리,서울특별시 성북구 한천로78길 47,해산물 요리,2만원-3만원,2,,37.6125646,127.0644733
250,유성집,서울특별시 성북구 안암로 117,고기 요리,2만원-3만원,3,,37.5860053,127.0321358
251,정통집,서울특별시 성북구 동소문로20길 29-20,고기 요리,2만원-3만원,2,,37.5913726,127.0178249
252,이가네정육식당,서울특별시 성북구 숭인로 66-1,고기 요리,2만원-3만원,2,,37.6122074,127.0290723
253,이차돌,서울특별시 성북구 돌곶이로 62 1F,고기 요리,2만원-3만원,2,,37.6093366,127.058751
254,모심,서울특별시 성북구 개운사길 8 3F,한정식 / 백반 / 정통 한식,2만원-3만원,3,,37.5868192,127.0295425
255,한상,서울특별시 성북구 화랑로 248 장위뉴타워 13F,한정식 / 백반 / 정통 한식,2만원-3만원,2,,37.6102531,127.056905
256,숙수도가,서울특별시 성북구 동소문로17길 28,고기 요리,3만원-4만원,3,,37.593504,127.0153986
257,국화정원,서울특별시 성북구 성북로 154,한정식 / 백반 / 정통 한식,4만원 이상,2,,37.5945261,126.9926888
258,태성식당,서울특별시 성북구 화랑로33길 38,고기 요리,3만원-4만원,7,,37.6118238,127.0548415
259,삼청각,서울특별시 성북구 대사관로 3,한정식 / 백반 / 정통 한식,4만원 이상,4,,37.5970377,126.9841211
260,오리사냥,서울특별시 성북구 북악산로 813,닭 / 오리 요리,3만원-4만원,1,,37.6009374,127.0155984
261,갈비명가이상,서울특별시 성북구 정릉로 395,고기 요리,3만원-4만원,7,,37.6038271,127.0257089
262,능이회관,서울특별시 성북구 한천로 578,닭 / 오리 요리,4만원 이상,1,,37.6112096,127.0626826
263,장위동유성집,서울특별시 성북구 화랑로37길 32,고기 요리,3만원-4만원,3,,37.6130703,127.0574863
264,셀프장어세상,서울특별시 성북구 정릉로 240,해산물 요리,4만원 이상,1,,37.6046797,127.0103587
265,삼홍,서울특별시 성북구 삼선교로 75,고기 요리,3만원-4만원,1,,37.5895692,127.0137769
266,섭지코지,서울특별시 성북구 성북로 118-5,해산물 요리,3만원-4만원,1,,37.5937952,126.9962656
267,한우누렁소,서울특별시 성북구 동소문로20가길 46,고기 요리,3만원-4만원,1,,37.5933684,127.0188076
268,야마토텐동,서울특별시 성북구 고려대로28길 2,돈부리 / 일본 카레 / 벤토,만원 미만,10,4.0,37.59040299999999,127.035926
269,이세돈가스,서울특별시 성북구 개운사길 32,까스 요리,만원 미만,17,4.0,37.5877499,127.029424
270,소담,서울특별시 성북구 지봉로24길 31,라멘 / 소바 / 우동,만원 미만,10,3.7,37.5838134,127.0196248
271,쿠이도라쿠라멘,서울특별시 성북구 안암로 103,라멘 / 소바 / 우동,만원 미만,25,3.4,37.5849728,127.0312762
272,도쿄커틀릿,서울특별시 성북구 동소문로22길 57-1,까스 요리,만원 미만,10,3.4,37.5906197,127.0186274
273,백소정,서울특별시 성북구 개운사길 30 2F,정통 일식 / 일반 일식,만원 미만,13,3.3,37.5876534,127.0294038
274,미아리우동집,서울특별시 성북구 종암로 178,라멘 / 소바 / 우동,만원 미만,5,3.3,37.6056847,127.0316906
275,상미규카츠,서울특별시 성북구 동소문로20길 39,정통 일식 / 일반 일식,만원 미만,12,3.1,37.5908035,127.0170069
276,가츠나베식당,서울특별시 성북구 동소문로20나길 12,까스 요리,만원 미만,4,,37.5919229,127.0172606
277,토라돈부리,서울특별시 성북구 동소문로22길 33-1,돈부리 / 일본 카레 / 벤토,만원 미만,5,,37.591555,127.0181996
278,밀거래,서울특별시 성북구 동소문로22길 57-6,돈부리 / 일본 카레 / 벤토,만원 미만,5,,37.5905233,127.0189593
279,긴자료코,서울특별시 성북구 보문로34가길 5,까스 요리,만원 미만,3,,37.5917299,127.0197339
280,이공탄,서울특별시 성북구 안암로 73-5,까스 요리,만원 미만,3,,37.5831142,127.0290007
281,스타동,서울특별시 성북구 삼선교로16길 40,돈부리 / 일본 카레 / 벤토,만원 미만,3,,37.5864625,127.0106656
282,멘부리,서울특별시 성북구 개운사길 22-4,라멘 / 소바 / 우동,만원 미만,3,,37.5872983,127.0295091
283,가야가야,서울특별시 성북구 동소문로22길 57-10,라멘 / 소바 / 우동,만원 미만,3,,37.5905776,127.0190945
284,치치,서울특별시 성북구 동소문로20길 37-12,퓨전 일식,만원 미만,2,,37.5909215,127.0175432
285,탄,서울특별시 성북구 인촌로27길 25,정통 일식 / 일반 일식,만원 미만,7,,37.5874546,127.0296713
286,마마우동,서울특별시 성북구 보국문로 92-1,라멘 / 소바 / 우동,만원 미만,2,,37.6124387,127.0082387
287,미식구락부,서울특별시 성북구 동소문로26가길 8,돈부리 / 일본 카레 / 벤토,만원 미만,1,,37.59426029999999,127.0197698
288,키바레,서울특별시 성북구 동소문로22길 19-7,라멘 / 소바 / 우동,만원 미만,2,,37.5921317,127.0178817
289,홍대개미,서울특별시 성북구 종암로9길 3,돈부리 / 일본 카레 / 벤토,만원 미만,5,,37.5954903,127.0353025
290,일본가정식 호쿠호쿠,서울특별시 성북구 동소문로20다길 2,정통 일식 / 일반 일식,만원 미만,1,,37.5914817,127.0168621
291,마카나이,서울특별시 성북구 고려대로28길 11 1F,라멘 / 소바 / 우동,만원 미만,2,,37.4782488,127.0497257
292,낭만덮밥,서울특별시 성북구 삼양로 53,돈부리 / 일본 카레 / 벤토,만원 미만,2,,37.6077841,127.0231588
293,돌냄비열우동,서울특별시 성북구 회기로3길 2,라멘 / 소바 / 우동,만원 미만,2,,37.591434,127.0375278
294,오바케돈부리,서울특별시 성북구 안암로9가길 99 1F,돈부리 / 일본 카레 / 벤토,만원 미만,3,,37.583303,127.028619
295,유메노카츠,서울특별시 성북구 화랑로 96 수복빌딩,까스 요리,만원 미만,2,,37.6028926,127.0427677
296,고씨네,서울특별시 성북구 보문로34길 72-2,돈부리 / 일본 카레 / 벤토,만원 미만,1,,37.591004,127.0193358
297,광속우동,서울특별시 성북구 동소문로 315 현대백화점 미아점,라멘 / 소바 / 우동,만원 미만,1,,37.6083313,127.0287845
298,호시호시,서울특별시 성북구 종암로 167,정통 일식 / 일반 일식,만원 미만,1,,37.602119,127.0332133
299,포보,서울특별시 성북구 동소문로22길 23 2F,까스 요리,만원 미만,2,,37.5919971,127.0179481
300,미소야,서울특별시 성북구 화랑로11길 26 갑을명가 1F,까스 요리,만원 미만,3,,37.6032359,127.042095
301,파파타코,서울특별시 성북구 종암로 99,철판 요리,만원 미만,2,,37.5991216,127.0341141
302,마카나이,서울특별시 성북구 보문로30길 72 선희빌 1F,라멘 / 소바 / 우동,만원 미만,1,,37.5906957,127.0199716
303,백소정,서울특별시 성북구 화랑로11길 11-3,정통 일식 / 일반 일식,만원 미만,1,,37.6028418,127.0412688
304,돈시락,서울특별시 성북구 보문로32길 6  1F,까스 요리,만원 미만,1,,37.58910600000001,127.0170077
305,역전우동0410,서울특별시 성북구 동소문로20길 29-18,라멘 / 소바 / 우동,만원 미만,1,,37.5913614,127.0176722
306,경복궁우동냉면,서울특별시 성북구 고려대로 100 1F,라멘 / 소바 / 우동,만원 미만,1,,37.59040299999999,127.035926
307,스시포유,서울특별시 성북구 동소문로20길 28-3 2F,회 / 스시,만원 미만,1,,37.59111970000001,127.0164559
308,윤휘식당,서울특별시 성북구 보문로34길 70,정통 일식 / 일반 일식,만원-2만원,70,3.6,37.5910082,127.019193
309,김태완의 초밥좋은날,서울특별시 성북구 동소문로20길 32,회 / 스시,만원-2만원,21,3.5,37.59110039999999,127.0166248
310,동경산책,서울특별시 성북구 보문로34길 45,회 / 스시,만원-2만원,15,3.2,37.5908162,127.0178877
311,사보텐,서울특별시 성북구 동소문로 315 현대백화점 미아점 9F,까스 요리,만원-2만원,3,,37.6083313,127.0287845
312,스시토로,서울특별시 성북구 개운사길 19,회 / 스시,만원-2만원,8,,37.5881084,127.02927
313,정릉긴타로,서울특별시 성북구 솔샘로4길 38-22,이자카야 / 오뎅 / 꼬치,만원-2만원,2,,37.6081874,127.0070334
314,사카모리,서울특별시 성북구 아리랑로4길 15,이자카야 / 오뎅 / 꼬치,만원-2만원,3,,37.5948149,127.0167888
315,야마토카츠,서울특별시 성북구 안암로 91 1F,까스 요리,만원-2만원,4,,37.5842642,127.0306785
316,오성초밥,서울특별시 성북구 화랑로 261,회 / 스시,만원-2만원,1,,37.6115381,127.0578783
317,스시현,서울특별시 성북구 오패산로4길 32 은혜타워,회 / 스시,만원-2만원,3,,37.6041071,127.0394224
318,식샤,서울특별시 성북구 성북로5길 15 1F,정통 일식 / 일반 일식,만원-2만원,5,,37.58881119999999,127.0043028
319,스시로,서울특별시 성북구 동소문로 315 현대백화점 미아점 9F,회 / 스시,만원-2만원,2,,37.6083313,127.0287845
320,돈카와치,서울특별시 성북구 보문로34길 95,까스 요리,만원-2만원,3,,37.5913791,127.0205583
321,스시히카리,서울특별시 성북구 정릉로 255-4,회 / 스시,만원-2만원,2,,37.604426,127.0125501
322,명동가츠라,서울특별시 성북구 동소문로 65-2,까스 요리,만원-2만원,1,,37.5917461,127.0125999
323,스시와다,서울특별시 성북구 보문로 128,회 / 스시,만원-2만원,4,,37.586352,127.0190209
324,보문7,서울특별시 성북구 보문로 38 세진빌딩 1F,이자카야 / 오뎅 / 꼬치,만원-2만원,2,,37.5790515,127.0229965
325,와우철판,서울특별시 성북구 동소문로 315 현대백화점 미아점 9F,철판 요리,만원-2만원,1,,37.6083313,127.0287845
326,최우수,서울특별시 성북구 동소문로2길 55,기타 일식,만원-2만원,1,,37.5886127,127.0090939
327,강동수 초밥,서울특별시 성북구 솔샘로4길 12-1,회 / 스시,만원-2만원,2,,37.6083581,127.0054682
328,석이네스시초밥집,서울특별시 성북구 고려대로28길 7-6,회 / 스시,만원-2만원,3,,37.59040299999999,127.035926
329,모노스시,서울특별시 성북구 안암로9가길 76 ,회 / 스시,만원-2만원,1,,37.5822173,127.0281882
330,키작은아저씨초밥,서울특별시 성북구 동소문로24길 37 1F,회 / 스시,만원-2만원,4,,37.591942,127.0189011
331,미우,서울특별시 성북구 인촌로7길 84-9,기타 일식,만원-2만원,1,,37.58945200000001,127.0189677
332,정담초밥,서울특별시 성북구 삼양로 62 1F,회 / 스시,만원-2만원,1,,37.608564,127.023323
333,스시빈,서울특별시 성북구 화랑로 105,회 / 스시,만원-2만원,2,,37.6038185,127.0432642
334,정담초밥,서울특별시 성북구 장월로 144 1F,회 / 스시,만원-2만원,3,,37.6176579,127.0510126
335,홍연집,서울특별시 성북구 삼선교로 44,회 / 스시,만원-2만원,1,,37.5882594,127.0106928
336,시올돈,서울특별시 성북구 성북로5길 20 1F,까스 요리,만원-2만원,1,,37.5889238,127.0039899
337,주락,서울특별시 성북구 정릉로10길 62,이자카야 / 오뎅 / 꼬치,만원-2만원,1,,37.6071196,126.9992318
338,미소초밥,서울특별시 성북구 개운사길 19 1F,회 / 스시,만원-2만원,1,,37.5881084,127.02927
339,스시진,서울특별시 성북구 동소문로20가길 54,회 / 스시,만원-2만원,1,,37.5935566,127.0190033
340,보문7,서울특별시 성북구 보문로 38 세진빌딩 1F,이자카야 / 오뎅 / 꼬치,만원-2만원,2,,37.5790515,127.0229965
341,와우철판,서울특별시 성북구 동소문로 315 현대백화점 미아점 9F,철판 요리,만원-2만원,1,,37.6083313,127.0287845
342,최우수,서울특별시 성북구 동소문로2길 55,기타 일식,만원-2만원,1,,37.5886127,127.0090939
343,강동수 초밥,서울특별시 성북구 솔샘로4길 12-1,회 / 스시,만원-2만원,2,,37.6083581,127.0054682
344,키작은아저씨초밥,서울특별시 성북구 동소문로24길 37 1F,회 / 스시,만원-2만원,4,,37.591942,127.0189011
345,미우,서울특별시 성북구 인촌로7길 84-9,기타 일식,만원-2만원,1,,37.58945200000001,127.0189677
346,정담초밥,서울특별시 성북구 삼양로 62 1F,회 / 스시,만원-2만원,1,,37.608564,127.023323
347,정담초밥,서울특별시 성북구 장월로 144 1F,회 / 스시,만원-2만원,3,,37.6176579,127.0510126
348,시올돈,서울특별시 성북구 성북로5길 20 1F,까스 요리,만원-2만원,1,,37.5889238,127.0039899
349,주락,서울특별시 성북구 정릉로10길 62,이자카야 / 오뎅 / 꼬치,만원-2만원,1,,37.6071196,126.9992318
350,미소초밥,서울특별시 성북구 개운사길 19 1F,회 / 스시,만원-2만원,1,,37.5881084,127.02927
351,스시진,서울특별시 성북구 동소문로20가길 54,회 / 스시,만원-2만원,1,,37.5935566,127.0190033
352,우정초밥,서울특별시 성북구 종암로3길 31 1F,회 / 스시,2만원-3만원,15,4.4,37.5929438,127.0342868
353,드시소,서울특별시 성북구 보국문로 86-3 1F,이자카야 / 오뎅 / 꼬치,2만원-3만원,5,4.4,37.6119909,127.0086603
354,스시산,서울특별시 성북구 성북로 19,회 / 스시,2만원-3만원,10,3.2,37.5896291,127.0043859
355,쿠마,서울특별시 성북구 고려대로26길 9,이자카야 / 오뎅 / 꼬치,2만원-3만원,3,,37.59040299999999,127.035926
356,아도겐,서울특별시 성북구 화랑로42길 50,이자카야 / 오뎅 / 꼬치,2만원-3만원,2,,37.6138463,127.0648763
357,정릉맨숀,서울특별시 성북구 솔샘로 10-7 1F,이자카야 / 오뎅 / 꼬치,2만원-3만원,1,,37.6083277,127.0049589
358,서민스시,서울특별시 성북구 화랑로25길 20,회 / 스시,2만원-3만원,2,,37.60949799999999,127.0521277
359,스시만,서울특별시 성북구 종암로19길 17,회 / 스시,2만원-3만원,1,,37.5981113,127.0337546
360,스시바,서울특별시 성북구 인촌로28길 16,회 / 스시,2만원-3만원,3,,37.5855142,127.0305932
361,곤조,서울특별시 성북구 동소문로20길 29-11 1F,이자카야 / 오뎅 / 꼬치,2만원-3만원,1,,37.5914615,127.0173561
362,희야,서울특별시 성북구 인촌로26길 32 1F,이자카야 / 오뎅 / 꼬치,2만원-3만원,1,,37.5848016,127.0298484
363,다노신,서울특별시 성북구 보문로30라길 5-2,기타 일식,2만원-3만원,1,,37.5898553,127.0192489
364,스시 오오시마 (휴업중),서울특별시 성북구 성북로 74,회 / 스시,4만원 이상,14,4.3,37.593528,127.0007738
365,스시다온,서울특별시 성북구 한천로80길 51 2F,회 / 스시,3만원-4만원,5,4.2,37.6129664,127.0643606
366,마구로산,서울특별시 성북구 성북로 5-1 산빌딩 B1,회 / 스시,3만원-4만원,1,,37.5887368,127.005316
367,공푸,서울특별시 성북구 삼선교로24길 29,정통 중식 / 일반 중식,만원 미만,35,4.5,37.5887752,127.016138
368,영순관,서울특별시 성북구 지봉로24길 19,정통 중식 / 일반 중식,만원 미만,9,4.3,37.5842701,127.0193924
369,임금님자장면,서울특별시 성북구 보국문로 91,정통 중식 / 일반 중식,만원 미만,11,4.2,37.6123806,127.0077547
370,안동반점,서울특별시 성북구 고려대로1길 35-1,정통 중식 / 일반 중식,만원 미만,10,4.1,37.59040299999999,127.035926
371,라라면가,서울특별시 성북구 동소문로22길 57-25,기타 중식,만원 미만,42,4.0,37.5908868,127.0196566
372,안선생주가,서울특별시 성북구 동소문로20다길 14 2F,정통 중식 / 일반 중식,만원 미만,18,3.9,37.59165429999999,127.0174691
373,사랑마라탕,서울특별시 성북구 개운사길 21-3,기타 중식,만원 미만,32,3.9,37.5872626,127.0288936
374,언니네반점,서울특별시 성북구 인촌로27길 42,정통 중식 / 일반 중식,만원 미만,17,3.8,37.5882183,127.0298414
375,송림원,서울특별시 성북구 동소문로 25-2,정통 중식 / 일반 중식,만원 미만,10,3.7,37.5898797,127.0087929
376,가부,서울특별시 성북구 보문로 182 1F,정통 중식 / 일반 중식,만원 미만,13,3.6,37.59033,127.0152207
377,옛날중국집,서울특별시 성북구 성북로8길 8,정통 중식 / 일반 중식,만원 미만,17,3.4,37.5907607,127.0043764
378,보배반점,서울특별시 성북구 보문로34길 39 백옥빌딩,정통 중식 / 일반 중식,만원 미만,6,,37.590727,127.017465
379,신진원,서울특별시 성북구 지봉로20길 43,정통 중식 / 일반 중식,만원 미만,2,,37.582989,127.0189812
380,니뽕내뽕,서울특별시 성북구 동소문로20길 37-19 2F,퓨전 중식,만원 미만,4,,37.5912035,127.0177603
381,일미옥,서울특별시 성북구 개운사길 22-6 B1,정통 중식 / 일반 중식,만원 미만,13,,37.58730850000001,127.0296562
382,짬뽕지존,서울특별시 성북구 동소문로20길 40 1F,정통 중식 / 일반 중식,만원 미만,1,,37.5907627,127.0166553
383,불맛나는직화짬뽕전문점,서울특별시 성북구 돌곶이로 105,정통 중식 / 일반 중식,만원 미만,2,,37.6122291,127.0552804
384,가부,서울특별시 성북구 보문로 78 브라운호텔 1F,정통 중식 / 일반 중식,만원 미만,2,,37.5822414,127.0212928
385,왕쓰브,서울특별시 성북구 삼선교로24길 38,정통 중식 / 일반 중식,만원 미만,3,,37.5884337,127.0162421
386,공자의식탁,서울특별시 성북구 길음로13길 22 두산위브아파트,정통 중식 / 일반 중식,만원 미만,2,,37.6095887,127.0186795
387,자미원,서울특별시 성북구 삼선교로 77,정통 중식 / 일반 중식,만원 미만,2,,37.58966059999999,127.0140474
388,신룽푸마라탕,서울특별시 성북구 고려대로24길 35 2F,기타 중식,만원 미만,6,,37.59040299999999,127.035926
389,한스친친,서울특별시 성북구 화랑로 265,정통 중식 / 일반 중식,만원 미만,2,,37.6117655,127.0582571
390,자스민,서울특별시 성북구 종암로 37 선경아파트상가 11호,정통 중식 / 일반 중식,만원 미만,5,,37.5935224,127.0357412
391,칠기도삭면소롱포,서울특별시 성북구 고려대로27길 13,기타 중식,만원 미만,1,,37.59040299999999,127.035926
392,씽푸,서울특별시 성북구 동소문로10길 6,정통 중식 / 일반 중식,만원 미만,2,,37.590069,127.0107311
393,착한짬뽕 더 착한탕수육,서울특별시 성북구 월곡로18길 4 2F,정통 중식 / 일반 중식,만원 미만,1,,37.6015563,127.0417519
394,짬뽕의신,서울특별시 성북구 한천로 572,정통 중식 / 일반 중식,만원 미만,1,,37.6108434,127.0629783
395,수저가,서울특별시 성북구 안암로 89-3 1F,정통 중식 / 일반 중식,만원 미만,2,,37.5839179,127.0304237
396,고려성,서울특별시 성북구 안암로 69-1 ,정통 중식 / 일반 중식,만원 미만,1,,37.5826156,127.028851
397,신룽푸마라탕,서울특별시 성북구 동소문로24길 26,기타 중식,만원 미만,1,,37.5925474,127.0187844
398,보배반점,서울특별시 성북구 종암로 184,정통 중식 / 일반 중식,만원 미만,1,,37.6062956,127.0314675
399,마라삼국지,서울특별시 성북구 동소문로20나길 3 2F,기타 중식,만원 미만,1,,37.5919396,127.0167825
400,교동짬뽕,서울특별시 성북구 돌곶이로 65-6,정통 중식 / 일반 중식,만원 미만,1,,37.6095244,127.058009
401,미스터왕,서울특별시 성북구 안암로9가길 87,정통 중식 / 일반 중식,만원 미만,2,,37.5828609,127.028327
402,황궁,서울특별시 성북구 솔샘로4길 38,정통 중식 / 일반 중식,만원 미만,1,,37.6085265,127.006953
403,라화쿵부,서울특별시 성북구 동소문로20다길 3,기타 중식,만원 미만,1,,37.5916283,127.0168376
404,요리왕,서울특별시 성북구 보문로30길 14,정통 중식 / 일반 중식,만원 미만,1,,37.5883932,127.0186284
405,만추,서울특별시 성북구 동소문로 315  B1,정통 중식 / 일반 중식,만원 미만,1,,37.6083223,127.0287626
406,홍콩반점0410,서울특별시 성북구 인촌로24가길 6 2F,정통 중식 / 일반 중식,만원 미만,3,,37.5851374,127.029698
407,차이니웍,서울특별시 성북구 안암로 73-5,정통 중식 / 일반 중식,만원 미만,1,,37.5831142,127.0290007
408,북악루,서울특별시 성북구 정릉로8길 75,정통 중식 / 일반 중식,만원 미만,1,,37.6082242,126.9990154
409,희객,서울특별시 성북구 동소문로13가길 16 1F,정통 중식 / 일반 중식,만원 미만,1,,37.5919154,127.0120474
410,애정마라샹궈,서울특별시 성북구 동소문로24길 23 2F,정통 중식 / 일반 중식,만원-2만원,5,4.3,37.5926059,127.0189965
411,북경양꼬치,서울특별시 성북구 인촌로24길 3-36 1F,기타 중식,만원-2만원,15,3.9,37.585793,127.0296623
412,애정훠궈,서울특별시 성북구 동소문로20나길 32 2F,기타 중식,만원-2만원,7,3.7,37.5923671,127.0183474
413,한성대 양꼬치,서울특별시 성북구 동소문로6길 14-31,기타 중식,만원-2만원,3,,37.5880379,127.0076057
414,동북참숯양꼬치,서울특별시 성북구 종암로24길 35 종암2차 SK View 상가 103-104호,기타 중식,만원-2만원,2,,37.5981431,127.0351019
415,미엔아이,서울특별시 성북구 동소문로 315 현대백화점 미아점 9F,기타 중식,만원-2만원,3,,37.6083313,127.0287845
416,초림정,서울특별시 성북구 동소문로 181 성북성심빌딩,정통 중식 / 일반 중식,만원-2만원,2,,37.6002176,127.0215772
417,탕화쿵푸마라탕,서울특별시 성북구 고려대로27길 24-2 2F,기타 중식,만원-2만원,1,,37.59040299999999,127.035926
418,멘보샤,서울특별시 성북구 화랑로32길 41 1F,기타 중식,만원-2만원,1,,37.6086464,127.0571661
419,기본,서울특별시 성북구 장월로1길 91,기타 중식,만원-2만원,1,,37.6034869,127.0431507
420,버거파크,서울특별시 성북구 동소문로22길 56-1,브런치 / 버거 / 샌드위치,만원 미만,75,4.1,37.5905518,127.0183747
421,너의냠냠버거,서울특별시 성북구 성북로7길 4,브런치 / 버거 / 샌드위치,만원 미만,20,4.0,37.5901816,127.0037671
422,샐러드프린세스,서울특별시 성북구 화랑로13길 42,기타 양식,만원 미만,23,4.0,37.6050677,127.0417578
423,어흥식당,서울특별시 성북구 고려대로27길 40,스테이크 / 바베큐,만원 미만,10,4.0,37.59040299999999,127.035926
424,샌드위치하우스,서울특별시 성북구 보문로34가길 2,브런치 / 버거 / 샌드위치,만원 미만,14,4.0,37.591529,127.0200637
425,프로마치,서울특별시 성북구 인촌로24가길 13,브런치 / 버거 / 샌드위치,만원 미만,30,3.9,37.5853609,127.0301412
426,히포크라테스 스프,서울특별시 성북구 고려대로28길 12-3,브런치 / 버거 / 샌드위치,만원 미만,20,3.9,37.59040299999999,127.035926
427,마몽함박,서울특별시 성북구 보국문로 92 1F,스테이크 / 바베큐,만원 미만,5,3.8,37.6124387,127.0082387
428,정상호프,서울특별시 성북구 개운사길 2,기타 양식,만원 미만,10,3.7,37.5864708,127.0294599
429,영철버거,서울특별시 성북구 안암로9가길 100,브런치 / 버거 / 샌드위치,만원 미만,5,3.7,37.5831459,127.0287977
430,투고샐러드,서울특별시 성북구 보문로30나길 36,기타 양식,만원 미만,15,3.6,37.5909145,127.0204908
431,마이란,서울특별시 성북구 동소문로22길 33-9 1F,퓨전 양식,만원 미만,8,3.6,37.5916336,127.018331
432,이웃집라자냐,서울특별시 성북구 오패산로 23,이탈리안,만원 미만,6,3.5,37.6043763,127.0371776
433,샐러데이,서울특별시 성북구 개운사길 45,기타 양식,만원 미만,12,,37.588347,127.0290505
434,버거스타,서울특별시 성북구 숭인로16길 3,브런치 / 버거 / 샌드위치,만원 미만,2,,37.6121066,127.0297441
435,어펄슨,서울특별시 성북구 개운사길 2 B1,기타 양식,만원 미만,7,,37.5864708,127.0294599
436,아케미,서울특별시 성북구 삼양로8길 5,기타 양식,만원 미만,1,,37.6078051,127.0239513
437,투고샐러드,서울특별시 성북구 인촌로28길 5,기타 양식,만원 미만,6,,37.5859678,127.030533
438,치클스,서울특별시 성북구 보문로34길 64,브런치 / 버거 / 샌드위치,만원 미만,4,,37.5908853,127.0189297
439,조아버거,서울특별시 성북구 오패산로4길 58,브런치 / 버거 / 샌드위치,만원 미만,1,,37.60386099999999,127.0408389
440,궤도에오르다,서울특별시 성북구 보문로34길 72-4,브런치 / 버거 / 샌드위치,만원 미만,2,,37.59090330000001,127.0193631
441,리얼파스타,서울특별시 성북구 동소문로20다길 15,기타 양식,만원 미만,1,,37.5918563,127.0174811
442,sisisi샐러드,서울특별시 성북구 동소문로6길 4-19 1F,기타 양식,만원 미만,2,,37.5883833,127.0072049
443,호파스타,서울특별시 성북구 동소문로22길 57-12 1F,기타 양식,만원 미만,2,,37.5906129,127.019222
444,미태리,서울특별시 성북구 길음로13길 22 상가동 B1 217호,이탈리안,만원 미만,1,,37.6095887,127.0186795
445,포크에돌돌,서울특별시 성북구 동소문로22길 47 B1,기타 양식,만원 미만,1,,37.5909949,127.0184617
446,서브웨이,서울특별시 성북구 동소문로 10,브런치 / 버거 / 샌드위치,만원 미만,1,,37.588696,127.0073207
447,살롱15,서울특별시 성북구 화랑로30길 26,시푸드 요리,만원 미만,1,,37.6095419,127.0559124
448,치폴레옹,서울특별시 성북구 고려대로24길 45 2F,스테이크 / 바베큐,만원 미만,3,,37.59040299999999,127.035926
449,dips,서울특별시 성북구 종암로 167 동일하이빌뉴시티상가,브런치 / 버거 / 샌드위치,만원 미만,2,,37.6058335,127.0309281
450,샐러드온,서울특별시 성북구 삼선교로10길 8,기타 양식,만원 미만,2,,37.5875521,127.0088713
451,리틀마나님,서울특별시 성북구 종암로22길 41 1F,기타 양식,만원 미만,1,,37.6005602,127.0360468
452,디어원밀,서울특별시 성북구 보문로 184-6  1F,브런치 / 버거 / 샌드위치,만원 미만,1,,37.5905862,127.015146
453,노브랜드버거,서울특별시 성북구 고려대로24길 51,브런치 / 버거 / 샌드위치,만원 미만,1,,37.59040299999999,127.035926
454,프랭크버거,서울특별시 성북구 길음로7길 6 1F,브런치 / 버거 / 샌드위치,만원 미만,1,,37.6043228,127.0224543
455,요녀석,서울특별시 성북구 삼선교로24길 41 1F,기타 양식,만원 미만,1,,37.5883994,127.0165573
456,날쌘카페,서울특별시 성북구 화랑로32길 21,브런치 / 버거 / 샌드위치,만원 미만,1,,37.6093754,127.0564944
457,퍽앤어니언,서울특별시 성북구 고려대로28길 17-3  101호,브런치 / 버거 / 샌드위치,만원 미만,1,,37.59040299999999,127.035926
458,롤링파스타,서울특별시 성북구 동소문로22길 5 2F,기타 양식,만원 미만,4,,37.5927635,127.0175813
459,정다래함박스텍,서울특별시 성북구 안암로9가길 91,스테이크 / 바베큐,만원 미만,1,,37.5830382,127.0284062
460,샐러비샐러드,서울특별시 성북구 성북로2길 20 1F,기타 양식,만원 미만,1,,37.5891766,127.0069282
461,KFC,서울특별시 성북구 동소문로20나길 18,기타 양식,만원 미만,1,,37.5920953,127.0176263
462,롯데리아,서울특별시 성북구 동소문로 2,브런치 / 버거 / 샌드위치,만원 미만,1,,37.5883859,127.0067712
463,모짜,서울특별시 성북구 성북로 102,이탈리안,만원-2만원,5,4.5,37.59302479999999,126.9975442
464,쓰리로보스,서울특별시 성북구 동소문로20다길 25,퓨전 양식,만원-2만원,29,3.7,37.5920776,127.0180965
465,성북동 이안,서울특별시 성북구 성북로5길 29-19 1F,이탈리안,만원-2만원,6,3.7,37.5889145,127.0028872
466,문화식당,서울특별시 성북구 혜화로 88 2F,퓨전 양식,만원-2만원,10,3.7,37.5927374,126.9981799
467,소테,서울특별시 성북구 보문로30길 77,이탈리안,만원-2만원,11,3.6,37.590926,127.0197138
468,모이리타,서울특별시 성북구 인촌로24길 20 2F,이탈리안,만원-2만원,15,3.6,37.585345,127.0291914
469,놈 (휴업중),서울특별시 성북구 보문로30길 81,기타 양식,만원-2만원,5,3.5,37.5910747,127.0196088
470,매스플레이트,서울특별시 성북구 개운사길 18 2F,이탈리안,만원-2만원,15,3.5,37.5870906,127.0294484
471,갱상도갱양식,서울특별시 성북구 보문로34길 68-6,스테이크 / 바베큐,만원-2만원,5,3.4,37.5907663,127.0191362
472,마이셰프,서울특별시 성북구 인촌로24가길 14-1,기타 양식,만원-2만원,5,3.4,37.585141,127.0303614
473,마늘과올리브,서울특별시 성북구 동소문로22길 29 2F,기타 양식,만원-2만원,10,3.4,37.5916214,127.0181715
474,벤베누토,서울특별시 성북구 동소문로20나길 39,이탈리안,만원-2만원,6,,37.5926896,127.0185448
475,파스타펍,서울특별시 성북구 솔샘로6길 62,이탈리안,만원-2만원,5,,37.6089059,127.0078223
476,예술미각,서울특별시 성북구 삼선교로24길 38 B1,브런치 / 버거 / 샌드위치,만원-2만원,4,,37.5884337,127.0162421
477,구름파스타,서울특별시 성북구 보국문로20길 18 대선빌딩,기타 양식,만원-2만원,5,,37.6120971,127.0095129
478,화덕과베토벤,서울특별시 성북구 장월로1길 65,이탈리안,만원-2만원,5,,37.6056779,127.0447818
479,팬쿡,서울특별시 성북구 동소문로24길 37 2F,이탈리안,만원-2만원,7,,37.591942,127.0189011
480,언앨리셰프,서울특별시 성북구 동소문로24가길 21 B1,이탈리안,만원-2만원,3,,37.5915455,127.019657
481,테리키친,서울특별시 성북구 보문로39길 4,이탈리안,만원-2만원,3,,37.5913945,127.0132217
482,파세로,서울특별시 성북구 동소문로23길 8-15,이탈리안,만원-2만원,2,,37.5945729,127.0179108
483,스페셜리,서울특별시 성북구 장월로1길 28 동아에코빌아파트 상가동 2F,이탈리안,만원-2만원,4,,37.6065589,127.0449061
484,라체나1907,서울특별시 성북구 한천로80길 63 1F,이탈리안,만원-2만원,3,,37.6133143,127.0645907
485,달링스테이크,서울특별시 성북구 고려대로27길 9,스테이크 / 바베큐,만원-2만원,3,,37.59040299999999,127.035926
486,호랑이술상,서울특별시 성북구 고려대로26길 55 2F,퓨전 양식,만원-2만원,2,,37.59040299999999,127.035926
487,아삐에디,서울특별시 성북구 보문로34길 7-4,이탈리안,만원-2만원,1,,37.5903272,127.0158616
488,부부셰프,서울특별시 성북구 성북로2길 21,이탈리안,만원-2만원,1,,37.589462,127.0070139
489,Wnch,서울특별시 성북구 고려대로7길 48  1F,퓨전 양식,만원-2만원,1,,37.48484730000001,126.9266324
490,반지,서울특별시 성북구 인촌로26길 35 B1,기타 양식,만원-2만원,5,,37.584624,127.0300579
491,Asap Pizza,서울특별시 성북구 동소문로20다길 34 B1,기타 양식,만원-2만원,1,,37.5919675,127.0185044
492,쌀루떼 비건스토어,서울특별시 성북구 장월로23길 47-3 ,브런치 / 버거 / 샌드위치,만원-2만원,1,,37.6169872,127.0463985
493,쿠쿠치치,서울특별시 성북구 삼선교로10길 15,퓨전 양식,만원-2만원,1,,37.5873613,127.0092169
494,라메사,서울특별시 성북구 길음로15가길 3,이탈리안,만원-2만원,1,,37.6104013,127.0151045
495,서오릉피자,서울특별시 성북구 아리랑로 89 ,기타 양식,만원-2만원,1,,37.60082390000001,127.0125842
496,핏짜피자,서울특별시 성북구 화랑로11길 31 2F,퓨전 양식,만원-2만원,1,,37.6037127,127.0419926
497,이태리맨션,서울특별시 성북구 동소문로26마길 2-8 1F,이탈리안,만원-2만원,2,,37.5938234,127.0214016
498,까사디바포,서울특별시 성북구 보문로34길 80 2F,이탈리안,만원-2만원,1,,37.591134,127.019693
499,샐러몬 샐러드,서울특별시 성북구 돌곶이로22나길 28,기타 양식,만원-2만원,1,,37.6092816,127.060898
500,미스터피자,서울특별시 성북구 인촌로24길 58-5,기타 양식,만원-2만원,1,,37.5836572,127.0290684
501,동선물망초,서울특별시 성북구 보문로30라길 5-2 B1,퓨전 양식,만원-2만원,1,,37.5898553,127.0192489
502,오스테리아치티,서울특별시 성북구 성북로5길 12 101호,이탈리안,2만원-3만원,10,4.2,37.5890112,127.004299
503,포도집,서울특별시 성북구 정릉로32길 4 1F,이탈리안,2만원-3만원,12,3.9,37.6027466,127.0165554
504,무르무르드구스토,서울특별시 성북구 고려대로 102-2 4F,이탈리안,2만원-3만원,27,3.4,37.59040299999999,127.035926
505,두에꼬제,서울특별시 성북구 성북로19길 9,이탈리안,2만원-3만원,0,,37.5926282,126.9966776
506,매드포갈릭,서울특별시 성북구 동소문로 315 현대백화점 미아점 9F,이탈리안,2만원-3만원,3,,37.6083313,127.0287845
507,HESTORY,서울특별시 성북구 고려대로5길 89 2F,스테이크 / 바베큐,2만원-3만원,2,,37.59040299999999,127.035926
508,가재야,서울특별시 성북구 보문로 163,시푸드 요리,4만원 이상,2,,37.58885,127.0163476
509,꽌부이,서울특별시 성북구 인촌로27길 28,베트남 음식,만원 미만,25,3.8,37.5875571,127.0298647
510,라이라이라이,서울특별시 성북구 보문로34길 76,베트남 음식,만원 미만,11,3.7,37.5910851,127.0194468
511,베나레스,서울특별시 성북구 인촌로24길 27,인도 음식,만원 미만,5,3.4,37.5848711,127.0295316
512,프릭타이,서울특별시 성북구 회기로 7,태국 음식,만원 미만,3,,37.5913785,127.0371413
513,포썸,서울특별시 성북구 동소문로 125,베트남 음식,만원 미만,2,,37.5941167,127.0182044
514,사이공포,서울특별시 성북구 화랑로32가길 5  1F,베트남 음식,만원 미만,1,,37.6093009,127.0560853
515,미스사이공,서울특별시 성북구 동소문로20가길 14,베트남 음식,만원 미만,4,,37.5923125,127.0172996
516,고고인디안쿠진,서울특별시 성북구 고려대로24길 3-3,인도 음식,만원 미만,2,,37.59040299999999,127.035926
517,포몬스,서울특별시 성북구 인촌로24길 9,베트남 음식,만원 미만,2,,37.5857781,127.0294904
518,72420,서울특별시 성북구 동소문로24길 13 1F,베트남 음식,만원 미만,2,,37.593074,127.0187311
519,72420,서울특별시 성북구 숭인로 50 래미안길음센터피스 근린생활시설 2동 2103호,베트남 음식,만원 미만,1,,37.6113506,127.0269359
520,밀플랜비,서울특별시 성북구 개운사길 52 1F,남미 음식,만원 미만,1,,37.5886262,127.0293685
521,베르데9,서울특별시 성북구 동소문로20길 28-3,남미 음식,만원 미만,1,,37.59111970000001,127.0164559
522,슬로우캘리,서울특별시 성북구 동소문로 9-2  1F,세계음식 기타,만원 미만,1,,37.5891684,127.0072397
523,아시안콘티낸탈쿠진,서울특별시 성북구 고려대로24길 56 B1,인도 음식,만원 미만,1,,37.59040299999999,127.035926
524,꽌부이,서울특별시 성북구 인촌로27길 28,베트남 음식,만원 미만,29,3.8,37.5875571,127.0298647
525,라이라이라이,서울특별시 성북구 보문로34길 76,베트남 음식,만원 미만,11,3.7,37.5910851,127.0194468
526,베나레스,서울특별시 성북구 인촌로24길 27,인도 음식,만원 미만,28,3.4,37.5848711,127.0295316
527,포앤시드니,서울특별시 성북구 보문로34길 77 201호,베트남 음식,만원 미만,6,,37.5913637,127.0194714
528,누들아한타이,서울특별시 성북구 화랑로13길 10,베트남 음식,만원 미만,5,,37.6038529,127.0427326
529,프릭타이,서울특별시 성북구 회기로 7,태국 음식,만원 미만,3,,37.5913785,127.0371413
530,트라타,서울특별시 성북구 인촌로28길 14,남미 음식,만원 미만,4,,37.5856899,127.0306023
531,포썸,서울특별시 성북구 동소문로 125,베트남 음식,만원 미만,2,,37.5941167,127.0182044
532,사이공포,서울특별시 성북구 화랑로32가길 5  1F,베트남 음식,만원 미만,1,,37.6093009,127.0560853
533,미스사이공,서울특별시 성북구 동소문로20가길 14,베트남 음식,만원 미만,4,,37.5923125,127.0172996
534,고고인디안쿠진,서울특별시 성북구 고려대로24길 3-3,인도 음식,만원 미만,2,,37.59040299999999,127.035926
535,포몬스,서울특별시 성북구 인촌로24길 9,베트남 음식,만원 미만,2,,37.5857781,127.0294904
536,72420,서울특별시 성북구 동소문로24길 13 1F,베트남 음식,만원 미만,2,,37.593074,127.0187311
537,72420,서울특별시 성북구 숭인로 50 래미안길음센터피스 근린생활시설 2동 2103호,베트남 음식,만원 미만,1,,37.6113506,127.0269359
538,밀플랜비,서울특별시 성북구 개운사길 52 1F,남미 음식,만원 미만,1,,37.5886262,127.0293685
539,베르데9,서울특별시 성북구 동소문로20길 28-3,남미 음식,만원 미만,1,,37.59111970000001,127.0164559
540,슬로우캘리,서울특별시 성북구 동소문로 9-2  1F,세계음식 기타,만원 미만,1,,37.5891684,127.0072397
541,아시안콘티낸탈쿠진,서울특별시 성북구 고려대로24길 56 B1,인도 음식,만원 미만,1,,37.59040299999999,127.035926
542,베누스타76,서울특별시 성북구 도봉로 1,뷔페,3만원-4만원,1,,37.6092939,127.0295609
543,베누스타76,서울특별시 성북구 도봉로 1,뷔페,3만원-4만원,1,,37.6092939,127.0295609
544,비나케이크,서울특별시 성북구 보문로30길 12 101호,카페 / 디저트,만원-2만원,20,4.1,37.5880801,127.0186846
545,수연산방,서울특별시 성북구 성북로26길 8,카페 / 디저트,만원-2만원,10,3.7,37.5950128,126.9948259
546,제이스케이크,서울특별시 성북구 성북로31길 85-5 1F,카페 / 디저트,만원-2만원,5,,37.5944281,126.9886046
547,도쿄빙수,서울특별시 성북구 동소문로20다길 26 1F,카페 / 디저트,만원-2만원,1,,37.59197229999999,127.0182111
548,아모르파티,서울특별시 성북구 월곡로18길 7,카페 / 디저트,만원-2만원,1,,37.6016916,127.0419868
549,누브티스,서울특별시 성북구 선잠로 42,카페 / 디저트,2만원-3만원,4,,37.596288,126.99718
550,춘자,서울특별시 성북구 인촌로26길 42-2,일반 주점,만원 미만,5,3.9,37.5843864,127.0298617
551,청춘예찬,서울특별시 성북구 동소문로20길 29-14,치킨 / 호프 / 펍,만원 미만,10,,37.5913332,127.0175299
552,포테이토101,서울특별시 성북구 동소문로22길 39-5,치킨 / 호프 / 펍,만원 미만,5,,37.5914138,127.0185581
553,오늘와인한잔,서울특별시 성북구 보문로34길 56,칵테일 / 와인,만원 미만,5,,37.590766,127.0185587
554,박군포차,서울특별시 성북구 인촌로26길 34,전통 주점 / 포차,만원 미만,8,,37.5846638,127.0298524
555,뉴욕야시장,서울특별시 성북구 고려대로24길 11,치킨 / 호프 / 펍,만원 미만,2,,37.59040299999999,127.035926
556,주유소1,서울특별시 성북구 인촌로27길 24-2,일반 주점,만원 미만,7,,37.5873167,127.0298837
557,바라라라디오,서울특별시 성북구 고려대로24가길 29,일반 주점,만원 미만,2,,37.59040299999999,127.035926
558,가운뎃집,서울특별시 성북구 동소문로6길 20-23,치킨 / 호프 / 펍,만원 미만,1,,37.587958,127.0075287
559,골목집,서울특별시 성북구 고려대로 93,전통 주점 / 포차,만원 미만,3,,37.59040299999999,127.035926
560,동네요리사,서울특별시 성북구 화랑로15길 28,일반 주점,만원 미만,2,,37.6053533,127.0447486
561,천원의행복,서울특별시 성북구 보국문로11길 13,일반 주점,만원 미만,1,,37.6085091,127.0091697
562,노가리생맥주,서울특별시 성북구 동소문로24길 13 103호,치킨 / 호프 / 펍,만원 미만,1,,37.593074,127.0187311
563,찬수씨 싼술을 부탁해,서울특별시 성북구 인촌로24길 48,일반 주점,만원 미만,1,,37.58397070000001,127.0292806
564,한잔의추억,서울특별시 성북구 인촌로26길 30,일반 주점,만원-2만원,17,3.7,37.5849151,127.029839
565,문화식당,서울특별시 성북구 보문로30나길 37,일반 주점,만원-2만원,20,3.4,37.5910372,127.0202944
566,"늘,안암",서울특별시 성북구 고려대로24가길 13-2 1F,칵테일 / 와인,만원-2만원,4,,37.59040299999999,127.035926
567,비스트로홈,서울특별시 성북구 동소문로22길 25,일반 주점,만원-2만원,3,,37.5918733,127.0180154
568,지금보고싶다,서울특별시 성북구 고려대로26길 42-2 2F,일반 주점,만원-2만원,2,,37.59040299999999,127.035926
569,대한맥주집,서울특별시 성북구 동소문로24길 49,치킨 / 호프 / 펍,만원-2만원,4,,37.5914423,127.0187299
570,쵸이양식,서울특별시 성북구 동소문로20나길 24 2F,치킨 / 호프 / 펍,만원-2만원,3,,37.5923306,127.0181053
571,쿠바,서울특별시 성북구 성북로7길 36,치킨 / 호프 / 펍,만원-2만원,3,,37.5887685,127.0037304
572,공간 뒷동산,서울특별시 성북구 삼선교로2길 3,전통 주점 / 포차,만원-2만원,3,,37.58787239999999,127.0063466
573,다락,서울특별시 성북구 고려대로 95,일반 주점,만원-2만원,2,,37.59040299999999,127.035926
574,생활맥주,서울특별시 성북구 보문로30길 43-5,치킨 / 호프 / 펍,만원-2만원,4,,37.58936720000001,127.0191681
575,추랑,서울특별시 성북구 보문로36길 20 1F,전통 주점 / 포차,만원-2만원,2,,37.5908399,127.0152095
576,골목집포장마차,서울특별시 성북구 보문로13나길 29,전통 주점 / 포차,만원-2만원,3,,37.5789553,127.022263
577,탭하우스F64,서울특별시 성북구 성북로 19-1,치킨 / 호프 / 펍,만원-2만원,2,,37.5897247,127.0042929
578,에스키모,서울특별시 성북구 회기로 5,치킨 / 호프 / 펍,만원-2만원,1,,37.5913754,127.0369771
579,나그네파전,서울특별시 성북구 고려대로28길 7-4,전통 주점 / 포차,만원-2만원,3,,37.59040299999999,127.035926
580,땡전집,서울특별시 성북구 인촌로24길 24,전통 주점 / 포차,만원-2만원,4,,37.585138,127.0292303
581,주유소2,서울특별시 성북구 인촌로27길 19,치킨 / 호프 / 펍,만원-2만원,6,,37.5871815,127.0296578
582,성북동막걸리,서울특별시 성북구 동소문로2길 25,전통 주점 / 포차,만원-2만원,2,,37.58793500000001,127.0077871
583,밤을잊은그대에게,서울특별시 성북구 오패산로4길 74-3,일반 주점,만원-2만원,1,,37.6038706,127.0419113
584,테이블담소,서울특별시 성북구 보문로34길 68-4,칵테일 / 와인,만원-2만원,7,,37.5908255,127.019106
585,하이로,서울특별시 성북구 보문로30길 35,일반 주점,만원-2만원,4,,37.5891469,127.0192175
586,비스트로이쩜이오,서울특별시 성북구 동소문로22길 57-4,칵테일 / 와인,만원-2만원,1,,37.590487,127.0188194
587,연리지,서울특별시 성북구 동소문로20다길 11 산정빌딩 2F,일반 주점,만원-2만원,2,,37.59180449999999,127.0173199
588,버블,서울특별시 성북구 고려대로 103,일반 주점,만원-2만원,7,,37.59040299999999,127.035926
589,째즈스토리,서울특별시 성북구 혜화로 88,칵테일 / 와인,만원-2만원,2,,37.5927374,126.9981799
590,코젤다크하우스,서울특별시 성북구 동소문로20길 37-14,치킨 / 호프 / 펍,만원-2만원,1,,37.590988,127.017625
591,펍피맥,서울특별시 성북구 한천로78길 43,치킨 / 호프 / 펍,만원-2만원,1,,37.6124887,127.0643372
592,이모네포차,서울특별시 성북구 동소문로 225-3,전통 주점 / 포차,만원-2만원,2,,37.6021283,127.0218454
593,버킷리스트,서울특별시 성북구 동소문로20길 29-5,칵테일 / 와인,만원-2만원,4,,37.5913084,127.0170388
594,홈타운숯불바베큐치킨,서울특별시 성북구 서경로 92,치킨 / 호프 / 펍,만원-2만원,3,,37.6112134,127.0140563
595,별난주점,서울특별시 성북구 인촌로24길 5,치킨 / 호프 / 펍,만원-2만원,3,,37.5859312,127.0294771
596,시작이밤이다,서울특별시 성북구 고려대로 114 1F,일반 주점,만원-2만원,2,,37.59040299999999,127.035926
597,토크쇼,서울특별시 성북구 보국문로18길 6,일반 주점,만원-2만원,2,,37.6111325,127.0091315
598,성북동막걸리,서울특별시 성북구 동소문로2길 25,전통 주점 / 포차,만원-2만원,2,,37.58793500000001,127.0077871
599,밤을잊은그대에게,서울특별시 성북구 오패산로4길 74-3,일반 주점,만원-2만원,1,,37.6038706,127.0419113
600,하이로,서울특별시 성북구 보문로30길 35,일반 주점,만원-2만원,4,,37.5891469,127.0192175
601,비스트로이쩜이오,서울특별시 성북구 동소문로22길 57-4,칵테일 / 와인,만원-2만원,1,,37.590487,127.0188194
602,연리지,서울특별시 성북구 동소문로20다길 11 산정빌딩 2F,일반 주점,만원-2만원,2,,37.59180449999999,127.0173199
603,버블,서울특별시 성북구 고려대로 103,일반 주점,만원-2만원,7,,37.59040299999999,127.035926
604,펍피맥,서울특별시 성북구 한천로78길 43,치킨 / 호프 / 펍,만원-2만원,1,,37.6124887,127.0643372
605,홈타운숯불바베큐치킨,서울특별시 성북구 서경로 92,치킨 / 호프 / 펍,만원-2만원,3,,37.6112134,127.0140563
606,별난주점,서울특별시 성북구 인촌로24길 5,치킨 / 호프 / 펍,만원-2만원,3,,37.5859312,127.0294771
607,시작이밤이다,서울특별시 성북구 고려대로 114 1F,일반 주점,만원-2만원,2,,37.59040299999999,127.035926
608,토크쇼,서울특별시 성북구 보국문로18길 6,일반 주점,만원-2만원,2,,37.6111325,127.0091315
609,주유소2,서울특별시 성북구 인촌로27길 19,치킨 / 호프 / 펍,만원-2만원,6,,37.5871815,127.0296578
610,성북동막걸리,서울특별시 성북구 동소문로2길 25,전통 주점 / 포차,만원-2만원,2,,37.58793500000001,127.0077871
611,밤을잊은그대에게,서울특별시 성북구 오패산로4길 74-3,일반 주점,만원-2만원,1,,37.6038706,127.0419113
612,테이블담소,서울특별시 성북구 보문로34길 68-4,칵테일 / 와인,만원-2만원,7,,37.5908255,127.019106
613,하이로,서울특별시 성북구 보문로30길 35,일반 주점,만원-2만원,4,,37.5891469,127.0192175
614,비스트로이쩜이오,서울특별시 성북구 동소문로22길 57-4,칵테일 / 와인,만원-2만원,1,,37.590487,127.0188194
615,연리지,서울특별시 성북구 동소문로20다길 11 산정빌딩 2F,일반 주점,만원-2만원,2,,37.59180449999999,127.0173199
616,버블,서울특별시 성북구 고려대로 103,일반 주점,만원-2만원,7,,37.59040299999999,127.035926
617,코젤다크하우스,서울특별시 성북구 동소문로20길 37-14,치킨 / 호프 / 펍,만원-2만원,1,,37.590988,127.017625
618,버킷리스트,서울특별시 성북구 동소문로20길 29-5,칵테일 / 와인,만원-2만원,4,,37.5913084,127.0170388
619,홈타운숯불바베큐치킨,서울특별시 성북구 서경로 92,치킨 / 호프 / 펍,만원-2만원,3,,37.6112134,127.0140563
620,별난주점,서울특별시 성북구 인촌로24길 5,치킨 / 호프 / 펍,만원-2만원,3,,37.5859312,127.0294771
621,시작이밤이다,서울특별시 성북구 고려대로 114 1F,일반 주점,만원-2만원,2,,37.59040299999999,127.035926
622,토크쇼,서울특별시 성북구 보국문로18길 6,일반 주점,만원-2만원,2,,37.6111325,127.0091315
623,이모네포차,서울특별시 성북구 종암로36나길 13,전통 주점 / 포차,3만원-4만원,1,,37.606512,127.0337966
