,가게이름,가게 주소,음식 종류,가격 범위,리뷰개수,평점,lat,lng
1,뚝방길 홍차가게,서울특별시 광진구 자양강변길 277,카페 / 디저트,만원 미만,30,4.5,37.5299463,127.0738435
2,스미다,서울특별시 광진구 천호대로109길 18 1F,카페 / 디저트,만원 미만,5,4.2,37.5575166,127.0812452
3,Daughter,서울특별시 광진구 아차산로31길 40,카페 / 디저트,만원 미만,11,4.2,37.5426446,127.0701649
4,최가커피회관,서울특별시 광진구 능동로13길 30 B1,카페 / 디저트,만원 미만,7,4.2,37.5433597,127.0705804
5,Index,서울특별시 광진구 아차산로 200 3F,카페 / 디저트,만원 미만,34,4.1,37.5408693,127.0660137
6,FEFE,서울특별시 광진구 뚝섬로 628 3F,카페 / 디저트,만원 미만,7,4.0,37.5319544,127.0792235
7,꼬메노,서울특별시 광진구 군자로7길 29,카페 / 디저트,만원 미만,44,3.9,37.5455626,127.0690728
8,모서리에커피집,서울특별시 광진구 능동로17길 5,카페 / 디저트,만원 미만,24,3.9,37.5460009,127.0730146
9,칼레오커피로스터스,서울특별시 광진구 아차산로 291 1F,카페 / 디저트,만원 미만,37,3.9,37.5387079,127.0754381
10,띵똥와플,서울특별시 광진구 능동로13길 10,카페 / 디저트,만원 미만,23,3.9,37.5425901,127.0713651
11,보라젤라또,서울특별시 광진구 동일로24길 59 1F,카페 / 디저트,만원 미만,10,3.9,37.5431154,127.0683892
12,고망고,서울특별시 광진구 아차산로30길 8 1F,카페 / 디저트,만원 미만,6,3.9,37.540361,127.0675997
13,열매제과점,서울특별시 광진구 동일로24길 31,카페 / 디저트,만원 미만,6,3.9,37.5435969,127.0669427
14,체리커피,서울특별시 광진구 능동로 284,카페 / 디저트,만원 미만,23,3.8,37.5551802,127.0787035
15,카페래디언트,서울특별시 광진구 능동로38길 41,카페 / 디저트,만원 미만,12,3.8,37.5570187,127.0821069
16,벨롱에스프레소,서울특별시 광진구 능동로17길 34 1F,카페 / 디저트,만원 미만,17,3.7,37.5463936,127.0720304
17,카페 아르무아,서울특별시 광진구 동일로22길 117-27,카페 / 디저트,만원 미만,17,3.6,37.5417287,127.0709084
18,건대커피랩,서울특별시 광진구 동일로22길 102 2F,카페 / 디저트,만원 미만,8,3.6,37.5407978,127.0696311
19,카페드라이,서울특별시 광진구 아차산로 216-12,카페 / 디저트,만원 미만,12,3.6,37.5406795,127.0670911
20,도쿄빙수,서울특별시 광진구 아차산로31길 45 1F,카페 / 디저트,만원 미만,21,3.5,37.5429982,127.0700892
21,안다즈커피,서울특별시 광진구 천호대로132길 10,카페 / 디저트,만원 미만,12,3.4,37.5503218,127.0895022
22,마우스래빗,서울특별시 광진구 능동로11길 10,카페 / 디저트,만원 미만,21,3.4,37.5419628,127.0708885
23,Cafe k375,서울특별시 광진구 아차산로33길 68 1F,카페 / 디저트,만원 미만,19,3.4,37.543111,127.0712556
24,펠어커피,서울특별시 광진구 아차산로59길 63 1F,카페 / 디저트,만원 미만,10,3.4,37.5412294,127.0908055
25,아오스요거트,서울특별시 광진구 군자로5길 22,카페 / 디저트,만원 미만,7,3.4,37.5450787,127.0696333
26,해피니스디저트,서울특별시 광진구 아차산로 30길 31,카페 / 디저트,만원 미만,13,3.3,37.539321,127.0673535
27,카페온,서울특별시 광진구 능동로4길 3,카페 / 디저트,만원 미만,8,3.3,37.5340361,127.068225
28,라이트레인,서울특별시 광진구 아차산로 200 커먼그라운드 3F,카페 / 디저트,만원 미만,6,3.3,37.5408693,127.0660137
29,캐치볼클럽,서울특별시 광진구 동일로30길 51  B1,카페 / 디저트,만원 미만,5,3.3,37.5475323,127.070214
30,보난자커피,서울특별시 광진구 능동로 239,카페 / 디저트,만원 미만,5,3.2,37.5516078,127.0761909
31,바나나토크,서울특별시 광진구 능동로 237,카페 / 디저트,만원 미만,14,3.1,37.5512509,127.0760697
32,샹그리라,서울특별시 광진구 능동로 161,카페 / 디저트,만원 미만,6,,37.5451809,127.0727712
33,띵킹커피,서울특별시 광진구 아차산로29길 32,카페 / 디저트,만원 미만,8,,37.5421557,127.0688391
34,헤르만쿠키,서울특별시 광진구 아차산로55길 62-16,카페 / 디저트,만원 미만,6,,37.5402507,127.0872733
35,몽몽공장 캐러멜 티라미수,서울특별시 광진구 능동로13길 10-9 1F,카페 / 디저트,만원 미만,5,,37.5430741,127.0713749
36,롬곡,서울특별시 광진구 광나루로17길 18 1F,카페 / 디저트,만원 미만,7,,37.5484325,127.0726257
37,뢰베,서울특별시 광진구 자양번영로1길 24,카페 / 디저트,만원 미만,5,,37.5308927,127.0734222
38,아비앙또플라워,서울특별시 광진구 뚝섬로44길 56 1F,카페 / 디저트,만원 미만,3,,37.53046690000001,127.0755432
39,세인트바츠,서울특별시 광진구 아차산로49길 41-5 1F 101호,카페 / 디저트,만원 미만,2,,37.5386887,127.0839486
40,보리스,서울특별시 광진구 아차산로 290,카페 / 디저트,만원 미만,3,,37.5383305,127.0751022
41,카페에이룸,서울특별시 광진구 능동로 18 1F 106호,카페 / 디저트,만원 미만,5,,37.5325759,127.0679308
42,애드앤드,서울특별시 광진구 광나루로26길 28 1F,카페 / 디저트,만원 미만,6,,37.5452587,127.0774156
43,블루샥,서울특별시 광진구 천호대로 544,카페 / 디저트,만원 미만,1,,37.557197,127.0783811
44,히릿,서울특별시 광진구 광나루로 404 3F,카페 / 디저트,만원 미만,9,,37.5469318,127.074404
45,메리앤마스,서울특별시 광진구 자양로32길 42  1F,카페 / 디저트,만원 미만,3,,37.5440822,127.0874269
46,안녕가비,서울특별시 광진구 능동로53길 41,카페 / 디저트,만원 미만,3,,37.5669426,127.0821934
47,커피마켓,서울특별시 광진구 아차산로33길 60,카페 / 디저트,만원 미만,7,,37.5428198,127.0711291
48,청주명문도너츠,서울특별시 광진구 자양로 112,카페 / 디저트,만원 미만,9,,37.5376448,127.0836627
49,최가커피,서울특별시 광진구 자양로13가길 18,카페 / 디저트,만원 미만,5,,37.5348708,127.0811474
50,카페호이,서울특별시 광진구 동일로20길 80 1F,카페 / 디저트,만원 미만,5,,37.5400898,127.0678283
51,꽃다방,서울특별시 광진구 뚝섬로31길 43,카페 / 디저트,만원 미만,5,,37.5374236,127.0681738
52,밀피,서울특별시 광진구 동일로22길 117-15,카페 / 디저트,만원 미만,5,,37.5413173,127.0707177
53,천계월,서울특별시 광진구 자양로42길 20 1F,카페 / 디저트,만원 미만,5,,37.5488517,127.0910728
54,브링미커피,서울특별시 광진구 자양번영로 19  1F,카페 / 디저트,만원 미만,4,,37.5313476,127.0749101
55,파오파오차,서울특별시 광진구 자양로 278,카페 / 디저트,만원 미만,3,,37.5505799,127.0914241
56,보드게임카페 키랩,서울특별시 광진구 동일로24길 96,카페 / 디저트,만원 미만,1,,37.5423344,127.0701303
57,엘리펀트,서울특별시 광진구 동일로 76,카페 / 디저트,만원 미만,3,,37.5394832,127.0626861
58,스위트레코드,서울특별시 광진구 아차산로21길 77,카페 / 디저트,만원 미만,2,,37.5452905,127.0665538
59,로프커피,서울특별시 광진구 동일로 304,카페 / 디저트,만원 미만,1,,37.55821359999999,127.0734632
60,레스트인무드,서울특별시 광진구 천호대로134길 31 1F,카페 / 디저트,만원 미만,4,,37.54801150000001,127.0897431
61,인투더크림,서울특별시 광진구 구의강변로 96 현대아파트6단지 상가 1F,카페 / 디저트,만원 미만,1,,37.5384531,127.0946536
62,오페떼,서울특별시 광진구 능동로 111,카페 / 디저트,만원 미만,8,,37.5409785,127.0708351
63,테이큰커피,서울특별시 광진구 능동로16길 51,카페 / 디저트,만원 미만,6,,37.5452852,127.0758457
64,봄희커피,서울특별시 광진구 면목로16길 4 1F,카페 / 디저트,만원 미만,3,,37.5693626,127.0833195
65,필라멘트,서울특별시 광진구 동일로22길 117-17,카페 / 디저트,만원 미만,3,,37.5414086,127.0707562
66,Ffanci,서울특별시 광진구 동일로 411,카페 / 디저트,만원 미만,3,,37.5672802,127.0778742
67,카페온더플랜,서울특별시 광진구 능동로 161,카페 / 디저트,만원 미만,6,,37.5451809,127.0727712
68,주민커피,서울특별시 광진구 자양로13길 27,카페 / 디저트,만원 미만,2,,37.53486360000001,127.0826637
69,더이퀼리브리엄커피,서울특별시 광진구 아차산로30길 7,카페 / 디저트,만원 미만,3,,37.54032309999999,127.0678208
70,카페구공,서울특별시 광진구 천호대로127길 24,카페 / 디저트,만원 미만,2,,37.5537083,127.0901446
71,헤르츠커피로스팅,서울특별시 광진구 능동로 334,카페 / 디저트,만원 미만,5,,37.5592936,127.0809155
72,골든라이언,서울특별시 광진구 능동로13길 74,카페 / 디저트,만원 미만,3,,37.5449062,127.0691217
73,리에주커피,서울특별시 광진구 군자로 162 1F,카페 / 디저트,만원 미만,1,,37.5552531,127.0769506
74,프롬커피로스터스,서울특별시 광진구 능동로13길 81,카페 / 디저트,만원 미만,1,,37.5450677,127.0686999
75,옥루몽,서울특별시 광진구 능동로 183,카페 / 디저트,만원 미만,3,,37.5469968,127.0736167
76,인택트커피,서울특별시 광진구 천호대로111길 28 1F,카페 / 디저트,만원 미만,2,,37.5575496,127.0827003
77,자양제일커피,서울특별시 광진구 아차산로39길 29,카페 / 디저트,만원 미만,2,,37.5388587,127.0760541
78,지니카페,서울특별시 광진구 자양로37길 12 1F,카페 / 디저트,만원 미만,2,,37.547998,127.0875251
79,라보리,서울특별시 광진구 동일로 26,카페 / 디저트,만원 미만,1,,37.5352712,127.0604714
80,슬로우토크,서울특별시 광진구 자양로39길 19,카페 / 디저트,만원 미만,1,,37.5489969,127.0881682
81,오프더레코드,서울특별시 광진구 광나루로26길 27,카페 / 디저트,만원 미만,5,,37.5454391,127.0773319
82,모츠커피,서울특별시 광진구 군자로3길 14 1F,카페 / 디저트,만원 미만,3,,37.5446263,127.0704288
83,차안유색,서울특별시 광진구 능동로16길 50,카페 / 디저트,만원 미만,2,,37.54504480000001,127.0758702
84,설빙,서울특별시 광진구 아차산로 230,카페 / 디저트,만원 미만,4,,37.5402176,127.0687229
85,하비 카페,서울특별시 광진구 아차산로36길 5 1F,카페 / 디저트,만원 미만,5,,37.5383015,127.0746261
86,커피트레인,서울특별시 광진구 자양로13가길 2,카페 / 디저트,만원 미만,2,,37.5347288,127.0811739
87,책방열음,서울특별시 광진구 광장로 59-1 1F,카페 / 디저트,만원 미만,3,,37.5473522,127.1035496
88,포레드뵈르,서울특별시 광진구 능동로3라길 4,카페 / 디저트,만원 미만,3,,37.5341029,127.0652812
89,Slof,서울특별시 광진구 능동로43길 12 1F,카페 / 디저트,만원 미만,2,,37.5613015,127.0808444
90,카페쉘위토크,서울특별시 광진구 군자로 162,카페 / 디저트,만원 미만,2,,37.5552531,127.0769506
91,파드,서울특별시 광진구 뚝섬로22가길 60,카페 / 디저트,만원 미만,2,,37.5347715,127.0644819
92,쏘리에스프레소바,서울특별시 광진구 능동로 90 2F,카페 / 디저트,만원 미만,2,,37.5387765,127.0710831
93,요미스라이스요거트,서울특별시 광진구 능동로 133-1,카페 / 디저트,만원 미만,1,,37.5428717,127.071761
94,597카페,서울특별시 광진구 동일로22길 117-19,카페 / 디저트,만원 미만,4,,37.5414881,127.0707937
95,푸쉬커피,서울특별시 광진구 자양로 45길 24-3 최우측위치,카페 / 디저트,만원 미만,3,,37.5522849,127.0912257
96,테라코타,서울특별시 광진구 능동로 169  1F,카페 / 디저트,만원 미만,2,,37.5458763,127.0732096
97,제니앤디쿠키,서울특별시 광진구 광장로 71,카페 / 디저트,만원 미만,1,,37.5476632,127.1049955
98,무궁화,서울특별시 광진구 동일로20길 8,카페 / 디저트,만원 미만,1,,37.5413019,127.0639884
99,카페레가토,서울특별시 광진구 능동로13길 115,카페 / 디저트,만원 미만,1,,37.5463294,127.0675842
100,로쿠커피,서울특별시 광진구 군자로15길 14 1F,카페 / 디저트,만원 미만,3,,37.5540193,127.0734743
101,트리안,서울특별시 광진구 아차산로29길 8 1F 104호,카페 / 디저트,만원 미만,3,,37.5412019,127.06831
102,카페 새온,서울특별시 광진구 뚝섬로 552 삼희빌딩 1F,카페 / 디저트,만원 미만,3,,37.5342626,127.0712947
103,히읗히읗,서울특별시 광진구 군자로10길 14-15 1F,카페 / 디저트,만원 미만,1,,37.5483378,127.071588
104,옐로우페탈 커피,서울특별시 광진구 동일로28길 9,카페 / 디저트,만원 미만,3,,37.5467604,127.0672801
105,화양과자,서울특별시 광진구 동일로26길 62 1F,카페 / 디저트,만원 미만,4,,37.5443552,127.0692938
106,카페율콩,서울특별시 광진구 동일로30길 38 1F,카페 / 디저트,만원 미만,1,,37.5473871,127.0693942
107,랑데자뷰,서울특별시 광진구 아차산로31길 3,카페 / 디저트,만원 미만,4,,37.5412836,127.0691883
108,클렌치커피,서울특별시 광진구 뚝섬로 655 1F,카페 / 디저트,만원 미만,2,,37.5315504,127.082306
109,사사이룸,서울특별시 광진구 광나루로 428 1F,카페 / 디저트,만원 미만,2,,37.5457356,127.0767545
110,라망카페,서울특별시 광진구 면목로 121-1,카페 / 디저트,만원 미만,1,,37.56447610000001,127.0801749
111,워커힐퍼스트,서울특별시 광진구 아차산로 639,카페 / 디저트,만원 미만,1,,37.5498349,127.1080003
112,ORP HOUSE,서울특별시 광진구 능동로13길 44 2F,카페 / 디저트,만원 미만,1,,37.5438679,127.0701135
113,이스트펜더스트릿,서울특별시 광진구 용마산로2길 6  102호,카페 / 디저트,만원 미만,1,,37.5548455,127.0888666
114,스타벅스,서울특별시 광진구 능동로 107,카페 / 디저트,만원 미만,4,,37.5406604,127.0707225
115,오늘도내일도,서울특별시 광진구 아차산로 403-6,카페 / 디저트,만원 미만,3,,37.5378386,127.0873887
116,블레이크커피,서울특별시 광진구 천호대로124길 20,카페 / 디저트,만원 미만,3,,37.55229509999999,127.0880997
117,에스프레소바시,서울특별시 광진구 아차산로 345 1F,카페 / 디저트,만원 미만,4,,37.5417175,127.0873849
118,안다미로팬케이크,서울특별시 광진구 군자로 19 1F,카페 / 디저트,만원 미만,3,,37.5449742,127.0710152
119,카페드노보,서울특별시 광진구 아차산로78길 157,카페 / 디저트,만원 미만,3,,37.548074,127.1091518
120,그리네,서울특별시 광진구 동일로22길 117-7 1-2F,카페 / 디저트,만원 미만,3,,37.5409564,127.0705502
121,키즈커피,서울특별시 광진구 아차산로 397,카페 / 디저트,만원 미만,1,,37.5375102,127.0867568
122,와플그란데,서울특별시 광진구 군자로 111,카페 / 디저트,만원 미만,1,,37.5529526,127.0721068
123,탭플레이,서울특별시 광진구 면목로 131 1F,카페 / 디저트,만원 미만,2,,37.565269,127.0807515
124,카페모든날,서울특별시 광진구 자양번영로11길 4-6,카페 / 디저트,만원 미만,2,,37.5371928,127.0766483
125,카페샛길,서울특별시 광진구 능동로 137-3 1F,카페 / 디저트,만원 미만,2,,37.54320939999999,127.0717365
126,카페구들,서울특별시 광진구 자양번영로3길 4 1F,카페 / 디저트,만원 미만,2,,37.5318621,127.0749026
127,카페폰스,서울특별시 광진구 아차산로 345 래미안프리미어팰리스 2F 222호,카페 / 디저트,만원 미만,1,,37.5417175,127.0873849
128,얌 커피로스터스,서울특별시 광진구 동일로 86,카페 / 디저트,만원 미만,1,,37.5401601,127.0631631
129,로스트체리,서울특별시 광진구 동일로20길 82 1F,카페 / 디저트,만원 미만,1,,37.54002699999999,127.0679852
130,소낙,서울특별시 광진구 자양번영로1길 24 1F,카페 / 디저트,만원 미만,1,,37.5308927,127.0734222
131,180커피로스터스,서울특별시 광진구 아차산로 200,카페 / 디저트,만원 미만,1,,37.5408693,127.0660137
132,카페시벳,서울특별시 광진구 능동로 95,카페 / 디저트,만원 미만,2,,37.5394898,127.0701339
133,빽다방,서울특별시 광진구 아차산로 220,카페 / 디저트,만원 미만,2,,37.5405784,127.0676377
134,림벅와플,서울특별시 광진구 아차산로30길 26 건대CGV 1F,카페 / 디저트,만원 미만,3,,37.5397767,127.0669122
135,스테이어와일,서울특별시 광진구 광나루로37길 24 1F,카페 / 디저트,만원 미만,2,,37.5458474,127.0882507
136,카페피아트,서울특별시 광진구 아차산로78길 7,카페 / 디저트,만원 미만,1,,37.5503402,127.1092787
137,스타벅스,서울특별시 광진구 구의강변로 64 구의아크로리버,카페 / 디저트,만원 미만,2,,37.5360961,127.0927925
138,파고커피,서울특별시 광진구 능동로16길 54,카페 / 디저트,만원 미만,2,,37.5451186,127.0759813
139,커피볶는2U,서울특별시 광진구 능동로 281-1,카페 / 디저트,만원 미만,1,,37.555178,127.0780754
140,Day Off,서울특별시 광진구 동일로4길 43,카페 / 디저트,만원 미만,1,,37.5359422,127.0633845
141,카페노어스,서울특별시 광진구 구의강변로 96 현대아파트 6단지상가 1F,카페 / 디저트,만원 미만,2,,37.5384531,127.0946536
142,공간책바람,서울특별시 광진구 광나루로56길 34 종합상가 404호,카페 / 디저트,만원 미만,1,,37.5381006,127.0966199
143,라푸르타,서울특별시 광진구 능동로13길 106 1F,카페 / 디저트,만원 미만,1,,37.5460648,127.0680832
144,수완카페베이커리,서울특별시 광진구 아차산로30길 39  1F,카페 / 디저트,만원 미만,1,,37.5388782,127.067419
145,펄스커피,서울특별시 광진구 아차산로73길 48  1F,카페 / 디저트,만원 미만,1,,37.5466931,127.1024213
146,킹스커피,서울특별시 광진구 동일로22길 119,카페 / 디저트,만원 미만,2,,37.5406386,127.0705825
147,투썸플레이스,서울특별시 광진구 능동로 92 더클래식500 1F,카페 / 디저트,만원 미만,3,,37.5384449,127.0710527
148,스타벅스,서울특별시 광진구 천호대로 548 1-2F,카페 / 디저트,만원 미만,3,,37.5566812,127.0789171
149,그리네,서울특별시 광진구 군자로 137,카페 / 디저트,만원 미만,3,,37.5541257,127.0743966
150,스타벅스,서울특별시 광진구 능동로 92 더 클래식500 1F C102-103호,카페 / 디저트,만원 미만,3,,37.5384449,127.0710527
151,메종드쁘띠푸르,서울특별시 광진구 아차산로 200,카페 / 디저트,만원 미만,3,,37.5408693,127.0660137
152,더파빌리온,서울특별시 광진구 워커힐로 177 그랜드 워커힐 본관 1F,카페 / 디저트,만원-2만원,13,3.7,37.5552126,127.1108905
153,줄리앤몰리,서울특별시 광진구 뚝섬로59길 67 1F,카페 / 디저트,만원-2만원,4,,37.53473109999999,127.0829968
154,케이크를부탁해,서울특별시 광진구 능동로 137,카페 / 디저트,만원-2만원,5,,37.5430648,127.0718005
155,팬더스윗,서울특별시 광진구 동일로22길 117-17,카페 / 디저트,만원-2만원,2,,37.5414086,127.0707562
156,포비 ,서울특별시 종로구 종로3길 17 디타워 1F 21호,카페 / 디저트,만원 미만,137,4.4,37.5716583,126.9798858
157,다만프레르,서울특별시 중구 세종대로 136 B1 107호,카페 / 디저트,만원 미만,76,4.4,37.5683731,126.9782699
158,커피원,서울특별시 종로구 새문안로3길 12 신문로빌딩,카페 / 디저트,만원 미만,9,4.4,37.5713397,126.9729421
159,포비브라이트,서울특별시 종로구 새문안로 76 콘코디언빌딩 1F,카페 / 디저트,만원 미만,38,4.3,37.5697569,126.973165
160,버터풀앤크리멀러스 쁘띠,서울특별시 종로구 종로3길 17 D타워 103호,카페 / 디저트,만원 미만,10,4.3,37.5716583,126.9798858
161,오뗄두스,서울특별시 중구 세종대로 136 서울파이낸스빌딩 B2,카페 / 디저트,만원 미만,167,4.2,37.568369,126.97779
162,세이지핀치,서울특별시 종로구 필운대로1길 8 1F,카페 / 디저트,만원 미만,10,4.2,37.5774276,126.9689455
163,마샹스,서울특별시 종로구 자하문로 36,카페 / 디저트,만원 미만,15,4.0,37.5792378,126.971743
164,벤스쿠키,서울특별시 종로구 종로3길 17 1F 104호,카페 / 디저트,만원 미만,17,4.0,37.5716583,126.9798858
165,커피투어,서울특별시 종로구 경희궁2길 12,카페 / 디저트,만원 미만,7,4.0,37.572816,126.9714079
166,비원떡집,서울특별시 종로구 율곡로 20,카페 / 디저트,만원 미만,6,4.0,37.5754505,126.9816929
167,커피스트,서울특별시 종로구 경희궁길 39,카페 / 디저트,만원 미만,87,3.9,37.5727552,126.969405
168,카페이마,서울특별시 종로구 세종대로 152,카페 / 디저트,만원 미만,52,3.9,37.5698318,126.9776433
169,Mauve,서울특별시 종로구 사직로8길 7,카페 / 디저트,만원 미만,28,3.9,37.5751975,126.9697733
170,펠트커피,서울특별시 종로구 종로3길 17 D타워  B2,카페 / 디저트,만원 미만,39,3.9,37.5716583,126.9798858
171,레더라,서울특별시 중구 세종대로 136 서울파이낸스빌딩 B1,카페 / 디저트,만원 미만,29,3.9,37.568369,126.97779
172,에이투지카페,서울특별시 중구 세종대로 136 서울파이낸스센터,카페 / 디저트,만원 미만,39,3.9,37.568369,126.97779
173,스태픽스,서울특별시 종로구 사직로9길 22,카페 / 디저트,만원 미만,27,3.9,37.5774304,126.9680273
174,커피기업,서울특별시 종로구 삼봉로 71 신라스테이 1F,카페 / 디저트,만원 미만,44,3.9,37.5721365,126.9811966
175,수수커피,서울특별시 종로구 종로3길 17 D타워,카페 / 디저트,만원 미만,33,3.9,37.5716583,126.9798858
176,쏘리에스프레소바,서울특별시 종로구 자하문로2길 12 1F,카페 / 디저트,만원 미만,12,3.9,37.576445,126.9733346
177,크리에잇쿠키,서울특별시 중구 세종대로 136,카페 / 디저트,만원 미만,13,3.9,37.5683731,126.9782699
178,우드앤브릭,서울특별시 종로구 종로1길 50 더케이트윈타워 B동 1F,카페 / 디저트,만원 미만,10,3.8,37.574708,126.979549
179,테라로사,서울특별시 종로구 종로1길 50 더케이트윈타워,카페 / 디저트,만원 미만,66,3.7,37.574638,126.979181
180,통인동커피공방,서울특별시 종로구 사직로 101,카페 / 디저트,만원 미만,23,3.7,37.5762852,126.969987
181,블루보틀,서울특별시 종로구 청계천로 11,카페 / 디저트,만원 미만,16,3.6,37.5694629,126.9788437
182,카페우디,서울특별시 종로구 새문안로5길 19,카페 / 디저트,만원 미만,25,3.6,37.5719994,126.9742775
183,스타벅스 리저브,서울특별시 종로구 세종대로 167,카페 / 디저트,만원 미만,12,3.6,37.5712293,126.9762872
184,폴바셋,서울특별시 종로구 종로1길 50 1F,카페 / 디저트,만원 미만,7,3.6,37.5745869,126.9792435
185,뉴오리진,서울특별시 종로구 새문안로 96,카페 / 디저트,만원 미만,6,3.5,37.5699027,126.9754213
186,루프트커피,서울특별시 종로구 종로 33 그랑서울 1F,카페 / 디저트,만원 미만,11,3.4,37.5706922,126.9815134
187,고디바,서울특별시 종로구 세종대로 159,카페 / 디저트,만원 미만,18,3.4,37.5705681,126.9763076
188,마호가니,서울특별시 중구 세종대로 136,카페 / 디저트,만원 미만,10,3.4,37.5683731,126.9782699
189,인덱스카라멜,서울특별시 종로구 종로3길 17 1F,카페 / 디저트,만원 미만,6,3.4,37.5716583,126.9798858
190,쁘띠몬스트리,서울특별시 중구 세종대로 136  B2 210호,카페 / 디저트,만원 미만,10,,37.5683731,126.9782699
191,커피투어,서울특별시 종로구 사직로10길 12 신우빌딩,카페 / 디저트,만원 미만,9,,37.5753391,126.97022
192,곰발커피,서울특별시 종로구 경희궁2길 9-1,카페 / 디저트,만원 미만,3,,37.5729042,126.9710943
193,스타벅스,서울특별시 종로구 새문안로5가길 28,카페 / 디저트,만원 미만,8,,37.5744107,126.9735709
194,카페자스,서울특별시 종로구 새문안로5가길 3-1 영진빌딩 1F,카페 / 디저트,만원 미만,3,,37.5724506,126.9742612
195,마이쥬스,서울특별시 종로구 종로3길 17 디타워 108호,카페 / 디저트,만원 미만,5,,37.5716583,126.9798858
196,하바나커피,서울특별시 종로구 종로3길 44,카페 / 디저트,만원 미만,4,,37.57229969999999,126.9794083
197,카페광화문,서울특별시 종로구 새문안로5가길 9,카페 / 디저트,만원 미만,2,,37.5729412,126.973891
198,랑데자뷰,서울특별시 종로구 종로3길 17 D타워 리플레이스 3F,카페 / 디저트,만원 미만,3,,37.5716583,126.9798858
199,매튜박,서울특별시 종로구 필운대로1길 12,카페 / 디저트,만원 미만,3,,37.5775309,126.9688048
200,스타벅스리저브,서울특별시 종로구 종로3길 17 디타워,카페 / 디저트,만원 미만,10,,37.5716583,126.9798858
201,카페 에무,서울특별시 종로구 경희궁1가길 7 B2,카페 / 디저트,만원 미만,3,,37.5720343,126.9689848
202,발로렘커피,서울특별시 종로구 새문안로5길 37 B1 43호,카페 / 디저트,만원 미만,1,,37.5736116,126.9742022
203,스타벅스,서울특별시 종로구 종로1길 42,카페 / 디저트,만원 미만,3,,37.5738637,126.9789715
204,곳온니플레이스,서울특별시 종로구 새문안로3길 12,카페 / 디저트,만원 미만,1,,37.5712794,126.9729312
205,커피스탑,서울특별시 종로구 사직로8길 34,카페 / 디저트,만원 미만,3,,37.5732644,126.9719961
206,스푼,서울특별시 종로구 새문안로5길 37 B1 31호,카페 / 디저트,만원 미만,4,,37.5736116,126.9742022
207,쌍쌍맥주전성시대,서울특별시 종로구 종로5길 19-10,카페 / 디저트,만원 미만,2,,37.5712765,126.9802872
208,스타벅스,서울특별시 중구 무교로 21,카페 / 디저트,만원 미만,1,,37.5677014,126.9788451
209,투썸플레이스,서울특별시 종로구 새문안로 85 1F,카페 / 디저트,만원 미만,5,,37.5703858,126.9740891
210,백미당,서울특별시 종로구 종로3길 17 디타워 3F,카페 / 디저트,만원 미만,7,,37.5716583,126.9798858
211,커피디엔에이,서울특별시 종로구 종로 33 그랑서울빌딩 1F,카페 / 디저트,만원 미만,4,,37.5706922,126.9815134
212,성북동커피,서울특별시 종로구 종로 14 B1,카페 / 디저트,만원 미만,3,,37.5697729,126.9788485
213,카페 Piu,서울특별시 종로구 자하문로7길 21,카페 / 디저트,만원 미만,4,,37.5787041,126.9705718
214,커피친구,서울특별시 종로구 삼봉로 81,카페 / 디저트,만원 미만,2,,37.5723555,126.9818018
215,우드앤브릭,서울특별시 종로구 종로5길 7,카페 / 디저트,만원 미만,5,,37.5727145,126.9802262
216,폴바셋,서울특별시 종로구 종로5길 7 112호,카페 / 디저트,만원 미만,4,,37.5727145,126.9802262
217,서울에서첫번째전통찻집,서울특별시 종로구 새문안로5길 19 로얄빌딩 B1,카페 / 디저트,만원 미만,4,,37.5719994,126.9742775
218,북촌유기농명인단팥빵,서울특별시 종로구 새문안로9길 19-1,카페 / 디저트,만원 미만,2,,37.5710711,126.9756
219,타이티,서울특별시 종로구 자하문로13길 4-6,카페 / 디저트,만원 미만,1,,37.5802762,126.9709577
220,브라운백,서울특별시 종로구 새문안로5길 19 로얄빌딩 B1,카페 / 디저트,만원 미만,3,,37.5719994,126.9742775
221,페이백커피,서울특별시 종로구 새문안로5길 37 도렴빌딩 B1 25호,카페 / 디저트,만원 미만,2,,37.5736116,126.9742022
222,지씨블랙하우스,서울특별시 종로구 율곡로 24,카페 / 디저트,만원 미만,2,,37.5753514,126.9819977
223,카페화두,서울특별시 종로구 사직로 127,카페 / 디저트,만원 미만,3,,37.5760127,126.9730474
224,빌리엔젤,서울특별시 종로구 새문안로 92 오피시아빌딩 1F,카페 / 디저트,만원 미만,2,,37.5696602,126.9748903
225,할리스커피,서울특별시 종로구 새문안로5길 31 센터포인트 광화문빌딩 1F,카페 / 디저트,만원 미만,1,,37.573135,126.9742155
226,히든커피,서울특별시 종로구 새문안로5길 11,카페 / 디저트,만원 미만,1,,37.5711525,126.9747091
227,조앤더주스,서울특별시 종로구 종로 1 교보생명빌딩,카페 / 디저트,만원 미만,3,,37.5711001,126.9778075
228,고요채,서울특별시 종로구 새문안로5가길 11 2F,카페 / 디저트,만원 미만,1,,37.5730549,126.9738125
229,광화문 내커피,서울특별시 종로구 새문안로5가길 28 B1,카페 / 디저트,만원 미만,1,,37.5744107,126.9735709
230,파스쿠찌,서울특별시 종로구 새문안로5길 31 센터포인트 광화문 1F,카페 / 디저트,만원 미만,3,,37.573135,126.9742155
231,커피빈,서울특별시 중구 세종대로 136 서울파이낸스빌딩 B1,카페 / 디저트,만원 미만,1,,37.568369,126.97779
232,커피빈,서울특별시 종로구 종로 14,카페 / 디저트,만원 미만,2,,37.5697729,126.9788485
233,휴식,서울특별시 종로구 무교로 37,카페 / 디저트,만원 미만,3,,37.56937130000001,126.9790883
234,드림라이크,서울특별시 종로구 무교로 39 1F,카페 / 디저트,만원 미만,2,,37.5694482,126.9791246
235,송현,서울특별시 종로구 율곡로 6  트윈트리타워B동 14F,카페 / 디저트,만원 미만,2,,37.5755279,126.9800596
236,베버리지랩,서울특별시 종로구 종로7길 29-4 1F,카페 / 디저트,만원 미만,1,,37.5717486,126.9816403
237,할리스커피,서울특별시 중구 세종대로21길 55,카페 / 디저트,만원 미만,3,,37.5689736,126.9759332
238,모노치즈,서울특별시 종로구 필운대로1길 16-1,카페 / 디저트,만원 미만,1,,37.5777256,126.9685033
239,구스띠모,서울특별시 종로구 종로5길 7 Tower8 B1 106호,카페 / 디저트,만원 미만,1,,37.5706059,126.9805337
240,차향이가득한정원,서울특별시 종로구 삼봉로 81 두산위브파빌리온 130-131호,카페 / 디저트,만원 미만,1,,37.5723555,126.9818018
241,코코커피,서울특별시 종로구 세종대로23길 5,카페 / 디저트,만원 미만,1,,37.5715204,126.9760908
242,시에라,서울특별시 종로구 새문안로5가길 32,카페 / 디저트,만원 미만,1,,37.5748717,126.9735317
243,홀드미커피,서울특별시 종로구 새문안로5길 37,카페 / 디저트,만원 미만,3,,37.5736116,126.9742022
244,커피빈,서울특별시 종로구 새문안로3길 23 경희궁의아침,카페 / 디저트,만원 미만,2,,37.5722444,126.9722071
245,글로보 커피팩토리,서울특별시 종로구 자하문로 8,카페 / 디저트,만원 미만,2,,37.5768116,126.9725994
246,북바이북,서울특별시 종로구 새문안로5길 19 로얄빌딩 1F,카페 / 디저트,만원 미만,1,,37.5719994,126.9742775
247,카페큐브,서울특별시 종로구 새문안로 68 흥국생명 빌딩 B2,카페 / 디저트,만원 미만,1,,37.569568,126.9721646
248,Velvet Moon,서울특별시 종로구 자하문로5길 39,카페 / 디저트,만원 미만,1,,37.5776663,126.9696555
249,커피앳웍스,서울특별시 종로구 종로1길 42,카페 / 디저트,만원 미만,1,,37.5738637,126.9789715
250,제네랄드링크샵,서울특별시 종로구 종로3길 17 4F,카페 / 디저트,만원 미만,1,,37.5716583,126.9798858
251,텐퍼센트커피,서울특별시 종로구 삼봉로 60,카페 / 디저트,만원 미만,1,,37.5722472,126.9804177
252,도깨비한과강정,서울특별시 종로구 자하문로15길 16 1F,카페 / 디저트,만원 미만,1,,37.5807414,126.9700535
253,커피맥스,서울특별시 종로구 새문안로5가길 5 1F,카페 / 디저트,만원 미만,1,,37.5725253,126.9741435
254,트윗젤,서울특별시 중구 세종대로 136 서울파이낸스센터 B2,카페 / 디저트,만원 미만,1,,37.568369,126.97779
255,할리스커피,서울특별시 종로구 세종대로 161,카페 / 디저트,만원 미만,2,,37.5706653,126.9762916
256,모란커피,서울특별시 종로구 새문안로5길 13 변호사회관 B1,카페 / 디저트,만원 미만,2,,37.5713301,126.974401
257,오월의소소함,서울특별시 종로구 종로5길 97,카페 / 디저트,만원 미만,1,,37.5741367,126.9790652
258,이원전통찻집,서울특별시 종로구 삼봉로 60 B1,카페 / 디저트,만원 미만,1,,37.5722472,126.9804177
259,한방차보감,서울특별시 종로구 새문안로5길 19,카페 / 디저트,만원 미만,1,,37.5719994,126.9742775
260,탐앤탐스블랙,서울특별시 중구 청계천로 14 1F,카페 / 디저트,만원 미만,1,,37.5687425,126.9787924
261,머랭카롱,서울특별시 종로구 새문안로5길 37 도렴빌딩 B1 32호,카페 / 디저트,만원 미만,1,,37.5736116,126.9742022
262,아재커피,서울특별시 종로구 삼봉로 40 1F,카페 / 디저트,만원 미만,1,,37.572353,126.9794257
263,플로리안커피,서울특별시 종로구 새문안로5길 7-1,카페 / 디저트,만원 미만,1,,37.5709251,126.9747756
264,커피방앗간,서울특별시 종로구 새문안로5길 37 B1,카페 / 디저트,만원 미만,1,,37.5736116,126.9742022
265,호키티,서울특별시 종로구 삼봉로 60,카페 / 디저트,만원 미만,1,,37.5722472,126.9804177
266,플러스커피앤코,서울특별시 종로구 새문안로5가길 11,카페 / 디저트,만원 미만,1,,37.5730549,126.9738125
267,컨펙션스바이포시즌스,서울특별시 종로구 새문안로 97 포시즌스호텔서울,카페 / 디저트,만원-2만원,43,4.3,37.5704525,126.975539
268,고궁뜨락,서울특별시 종로구 효자로 12 국립고궁박물관,카페 / 디저트,만원-2만원,2,,37.5766084,126.974951
269,경복궁생과방,서울특별시 종로구 삼청로 37 ,카페 / 디저트,만원-2만원,2,,37.5794588,126.9787219
270,당혹,서울특별시 노원구 동일로217가길 17 104호,카페 / 디저트,만원 미만,11,4.3,37.6532759,127.059373
271,달콤한순간,서울특별시 노원구 공릉로27길 10,카페 / 디저트,만원 미만,14,4.0,37.6214197,127.0784146
272,던모스,서울특별시 노원구 공릉로27길 8 1F,카페 / 디저트,만원 미만,20,3.9,37.6236045,127.0779443
273,디저트카페바미,서울특별시 노원구 상계로7길 22,카페 / 디저트,만원 미만,22,3.9,37.65792649999999,127.0650899
274,표준커피,서울특별시 노원구 공릉로 119-5 1F,카페 / 디저트,만원 미만,17,3.9,37.6210059,127.0781524
275,비스킷플로어,서울특별시 노원구 동일로180길 61-11,카페 / 디저트,만원 미만,13,3.9,37.6233447,127.0775435
276,이너모스트,서울특별시 노원구 동일로183길 12-14,카페 / 디저트,만원 미만,12,3.9,37.6237838,127.0729762
277,스윗레시피,서울특별시 노원구 한글비석로24길 24 2F,카페 / 디저트,만원 미만,10,3.9,37.6618194,127.0721067
278,오누이,서울특별시 노원구 동일로187길 12-47,카페 / 디저트,만원 미만,14,3.9,37.62459,127.0723759
279,브렉,서울특별시 노원구 동일로193길 14 1F,카페 / 디저트,만원 미만,34,3.8,37.6260239,127.0717305
280,마롱카롱,서울특별시 노원구 동일로186길 54-3 2F,카페 / 디저트,만원 미만,8,3.6,37.6249729,127.0759351
281,후아나,서울특별시 노원구 석계로1길 18,카페 / 디저트,만원 미만,6,3.6,37.6155031,127.0637115
282,무드쉐어,서울특별시 노원구 공릉로 119-23 더하우스 1F,카페 / 디저트,만원 미만,18,3.5,37.6214868,127.0778938
283,시드누아,서울특별시 노원구 상계로 84 큐비스트빌딩 1F,카페 / 디저트,만원 미만,34,3.4,37.6562709,127.0642402
284,메트로폴리스,서울특별시 노원구 동일로178길 11-9 1F,카페 / 디저트,만원 미만,5,3.0,37.621452,127.0750566
285,카페쉔,서울특별시 노원구 동일로184길 52,카페 / 디저트,만원 미만,5,,37.624379,127.076493
286,뽀스뜨레,서울특별시 노원구 공릉로35길 14-25,카페 / 디저트,만원 미만,8,,37.623257,127.0780815
287,플랫커피,서울특별시 노원구 공릉로39길 20,카페 / 디저트,만원 미만,4,,37.6238012,127.0783025
288,리프노즈드아쉬지,서울특별시 노원구 동일로178길 11-13,카페 / 디저트,만원 미만,4,,37.62176669999999,127.0748556
289,플로레스테이블,서울특별시 노원구 상계로5길 12 동양상가 3F,카페 / 디저트,만원 미만,2,,37.6575352,127.0639274
290,샛별제과,서울특별시 노원구 상계로9길 23,카페 / 디저트,만원 미만,6,,37.6582057,127.0660962
291,유니온커피로스터,서울특별시 노원구 동일로198길 72,카페 / 디저트,만원 미만,6,,37.6295863,127.0753648
292,금남커퓌,서울특별시 노원구 노원로30길 45,카페 / 디저트,만원 미만,4,,37.65519949999999,127.0697037
293,쿡앤밀107,서울특별시 노원구 중계로16가길 5,카페 / 디저트,만원 미만,2,,37.6511143,127.0815608
294,라페뜨,서울특별시 노원구 상계로1길 62-57 유성빌라,카페 / 디저트,만원 미만,2,,37.6589848,127.0624336
295,마이브라더스,서울특별시 노원구 공릉로46길 28,카페 / 디저트,만원 미만,4,,37.626823,127.0817341
296,향과울림 coffeecacao,서울특별시 노원구 동일로230다길 63 1F,카페 / 디저트,만원 미만,2,,37.6741007,127.0579448
297,샤오린,서울특별시 노원구 공릉로20길 28,카페 / 디저트,만원 미만,3,,37.6195815,127.0797808
298,감각,서울특별시 노원구 상계로 77,카페 / 디저트,만원 미만,6,,37.6567015,127.0634404
299,그루브커피로스터스,서울특별시 노원구 동일로186길 64,카페 / 디저트,만원 미만,3,,37.6252196,127.076486
300,Ddami Coffee,서울특별시 노원구 공릉로 120,카페 / 디저트,만원 미만,1,,37.6206095,127.0785096
301,라트커피,서울특별시 노원구 한글비석로 245 두타빌상가B동 1F 124호,카페 / 디저트,만원 미만,3,,37.649542,127.0763583
302,우리행성,서울특별시 노원구 노원로32길 42-22,카페 / 디저트,만원 미만,2,,37.655541,127.0694807
303,달달제과,서울특별시 노원구 노원로30길 44,카페 / 디저트,만원 미만,2,,37.65495960000001,127.0696784
304,그릭같은집,서울특별시 노원구 상계로12길 21,카페 / 디저트,만원 미만,2,,37.6569788,127.0688735
305,디저트뒤쥬르,서울특별시 노원구 동일로 1389,카페 / 디저트,만원 미만,3,,37.6523009,127.0606024
306,오피커피,서울특별시 노원구 노원로26나길 12,카페 / 디저트,만원 미만,2,,37.6535363,127.0705132
307,퀸즈베이글하우스,서울특별시 노원구 동일로 1414  롯데백화점 노원점 B1,카페 / 디저트,만원 미만,2,,37.6552207,127.0612826
308,구구커피 로스터스,서울특별시 노원구 노원로1길 109 1F 102호,카페 / 디저트,만원 미만,1,,37.6204213,127.0811762
309,메모아,서울특별시 노원구 동일로174길 37-16 1F,카페 / 디저트,만원 미만,3,,37.6198532,127.077428
310,다이브인브레드,서울특별시 노원구 한글비석로29길 31,카페 / 디저트,만원 미만,1,,37.6603537,127.0695113
311,BAEBAE COFFEE,서울특별시 노원구 노해로 517-9 2F,카페 / 디저트,만원 미만,1,,37.6558974,127.0657692
312,웁스어데이지,서울특별시 노원구 동일로 1414 롯데백화점 노원점 1F,카페 / 디저트,만원 미만,3,,37.6552207,127.0612826
313,스토어36 5,서울특별시 노원구 동일로 1414 롯데백화점노원점,카페 / 디저트,만원 미만,1,,37.6552207,127.0612826
314,모퉁이까페,서울특별시 노원구 공릉로38길 58,카페 / 디저트,만원 미만,1,,37.6224218,127.0824781
315,아티스트웨이,서울특별시 노원구 동일로192다길 55,카페 / 디저트,만원 미만,2,,37.628081,127.0752256
316,에슬로우,서울특별시 노원구 노원로 3 우토파크프라자,카페 / 디저트,만원 미만,2,,37.6218823,127.0865752
317,할리스커피,서울특별시 노원구 노해로81길 22-26,카페 / 디저트,만원 미만,3,,37.6558524,127.063961
318,스타벅스,서울특별시 노원구 동일로 1081,카페 / 디저트,만원 미만,1,,37.626337,127.0722523
319,Nirv Coffee,서울특별시 노원구 화랑로 425-43,카페 / 디저트,만원 미만,2,,37.617927,127.0745724
320,블루마일스,서울특별시 노원구 동일로190길 65 2F,카페 / 디저트,만원 미만,2,,37.6265164,127.0766229
321,커피니,서울특별시 노원구 동일로197길 11 공삼빌딩 107호,카페 / 디저트,만원 미만,2,,37.6284481,127.0706445
322,스타벅스,서울특별시 노원구 동일로 1015,카페 / 디저트,만원 미만,2,,37.6206884,127.0743116
323,호조커피,서울특별시 노원구 한글비석로 396  벽산상가 108동 224호,카페 / 디저트,만원 미만,1,,37.6612726,127.0726949
324,빽다방,서울특별시 노원구 동일로 1066 1F,카페 / 디저트,만원 미만,1,,37.6251984,127.0734333
325,시즌,서울특별시 노원구 상계로3길 38-2 2F,카페 / 디저트,만원 미만,2,,37.6578283,127.0627077
326,샹드마르스커피,서울특별시 노원구 공릉로37길 23 4-5F,카페 / 디저트,만원 미만,2,,37.6233679,127.0780824
327,와플스타,서울특별시 노원구 공릉로41길 29-2,카페 / 디저트,만원 미만,4,,37.624659,127.0778512
328,502세컨즈카페,서울특별시 노원구 섬밭로 232,카페 / 디저트,만원 미만,1,,37.6366317,127.066364
329,휘드카페,서울특별시 노원구 동일로198길 78,카페 / 디저트,만원 미만,2,,37.6296244,127.0757461
330,르다,서울특별시 노원구 상계로9길 28 1F,카페 / 디저트,만원 미만,3,,37.6582329,127.0665605
331,토끼별,서울특별시 노원구 화랑로51길 38 1F,카페 / 디저트,만원 미만,2,,37.6249129,127.0890701
332,마롱카롱,서울특별시 노원구 한글비석로 265 1F,카페 / 디저트,만원 미만,2,,37.6514194,127.0765413
333,케어프리,서울특별시 노원구 동일로242가길 14-6 1F,카페 / 디저트,만원 미만,2,,37.6763235,127.0560157
334,감나무아래,서울특별시 노원구 공릉로70길 8-4,카페 / 디저트,만원 미만,1,,37.6390577,127.0698393
335,아너카페,서울특별시 노원구 동일로192다길 9,카페 / 디저트,만원 미만,2,,37.62738119999999,127.0760299
336,영스테이,서울특별시 노원구 공릉로 107 1F,카페 / 디저트,만원 미만,3,,37.619916,127.0776278
337,커피파는술집,서울특별시 노원구 노해로85길 15-7 1F,카페 / 디저트,만원 미만,2,,37.6563377,127.0655076
338,스윗버터,서울특별시 노원구 공릉로46길 9,카페 / 디저트,만원 미만,1,,37.62727,127.0794413
339,카페무슨달,서울특별시 노원구 노원로38길 76 노원포레나 302호,카페 / 디저트,만원 미만,2,,37.6627439,127.0624252
340,레스빠스커피,서울특별시 노원구 화랑로51길 14 1F,카페 / 디저트,만원 미만,1,,37.6238231,127.0897178
341,푸욱젤라또,서울특별시 노원구 상계로9가길 23  1F,카페 / 디저트,만원 미만,1,,37.6589699,127.0671463
342,작지만카페,서울특별시 노원구 동일로237가길 56  101호,카페 / 디저트,만원 미만,1,,37.6762721,127.0544372
343,카페포유,서울특별시 노원구 동일로221길 22  대림아파트상가 102호,카페 / 디저트,만원 미만,1,,37.660363,127.058707
344,스타벅스,서울특별시 노원구 석계로 104,카페 / 디저트,만원 미만,2,,37.6231479,127.0607009
345,롤링스윗츠,서울특별시 노원구 동일로184길 63-16 1F,카페 / 디저트,만원 미만,2,,37.6253355,127.0770148
346,커피베스코,서울특별시 노원구 상계로 55 2F,카페 / 디저트,만원 미만,2,,37.6560102,127.0611427
347,마비노스커피,서울특별시 노원구 한글비석로 470 동서기업빌딩 1F,카페 / 디저트,만원 미만,2,,37.6646355,127.0659859
348,베리굿타임,서울특별시 노원구 동일로217가길 17,카페 / 디저트,만원 미만,1,,37.6532759,127.059373
349,박기철떡공방 연희,서울특별시 노원구 상계로23다길 13-8 노원아이파크 128호,카페 / 디저트,만원 미만,1,,37.6595599,127.0691688
350,위플랜트위커피,서울특별시 노원구 동일로178길 59-39 2F,카페 / 디저트,만원 미만,1,,37.6227597,127.0776255
351,카페모멘트,서울특별시 노원구 노원로 540,카페 / 디저트,만원 미만,1,,37.6613802,127.0593229
352,탐앤탐스,서울특별시 노원구 노해로 507 와우쇼핑몰 1F,카페 / 디저트,만원 미만,1,,37.6553676,127.0639688
353,카툰공감,서울특별시 노원구 상계로 65  현성빌딩 B1,카페 / 디저트,만원 미만,1,,37.6563031,127.0622365
354,펩톡커피,서울특별시 노원구 노원로1길 121 ,카페 / 디저트,만원 미만,1,,37.6203694,127.0807622
355,카페 우아즈,서울특별시 노원구 공릉로27길 72-3,카페 / 디저트,만원 미만,1,,37.6243028,127.0779191
356,카페일공구,서울특별시 노원구 덕릉로83길 6,카페 / 디저트,만원 미만,1,,37.659988,127.0750253
357,파브커피,서울특별시 노원구 동일로186길 76 1F,카페 / 디저트,만원 미만,3,,37.6253194,127.0771452
358,빔블커피,서울특별시 노원구 동일로184길 69-3,카페 / 디저트,만원 미만,3,,37.6247855,127.0773206
359,수이즈,서울특별시 노원구 동일로186길 76 1F,카페 / 디저트,만원 미만,1,,37.6253194,127.0771452
360,비엔나커피하우스,서울특별시 노원구 동일로 1417,카페 / 디저트,만원 미만,1,,37.6549923,127.0599384
361,모비딕,서울특별시 노원구 동일로 1083 2F,카페 / 디저트,만원 미만,1,,37.6265166,127.0721707
362,메종그리즈,서울특별시 노원구 노원로1라길 5 1F,카페 / 디저트,만원 미만,1,,37.6206556,127.0816491
363,1일1잔,서울특별시 노원구 광운로2길 6,카페 / 디저트,만원 미만,2,,37.6180605,127.0574109
364,아헨1995,서울특별시 노원구 한글비석로 242 삼부프라자 103호,카페 / 디저트,만원 미만,2,,37.6492209,127.0769575
365,미르,서울특별시 노원구 동일로184길 63-15 1F,카페 / 디저트,만원 미만,2,,37.6252881,127.0768352
366,4분의1,서울특별시 노원구 상계로 91  101호,카페 / 디저트,만원 미만,2,,37.6568468,127.064947
367,갸띠또젤라또,서울특별시 노원구 한글비석로 264 그랜드프라자 104호,카페 / 디저트,만원 미만,2,,37.6508596,127.0770963
368,놀숲,서울특별시 노원구 상계로 59 2F,카페 / 디저트,만원 미만,1,,37.6561445,127.061489
369,보타닉커피,서울특별시 노원구 상계로3길 38-8,카페 / 디저트,만원 미만,1,,37.657879,127.0630776
370,꼼카페,서울특별시 노원구 공릉로32길 5,카페 / 디저트,만원 미만,1,,37.6220074,127.0795911
371,몽실디저트,서울특별시 노원구 상계로 51,카페 / 디저트,만원 미만,1,,37.6559454,127.0608172
372,제로포인트제로,서울특별시 노원구 공릉로62길 19 1F,카페 / 디저트,만원 미만,1,,37.6362158,127.0720673
373,커피니,서울특별시 노원구 공릉로 231,카페 / 디저트,만원 미만,1,,37.6297228,127.0761199
374,제3공간,서울특별시 노원구 덕릉로122길 25,카페 / 디저트,만원 미만,1,,37.6685767,127.0816177
375,카페세마,서울특별시 노원구 동일로204길 13 1F,카페 / 디저트,만원 미만,1,,37.6393259,127.067631
376,라운드테이블커피,서울특별시 노원구 한글비석로48길 28 1F,카페 / 디저트,만원 미만,1,,37.6653818,127.0673914
377,카페달미,서울특별시 노원구 화랑로 349-8,카페 / 디저트,만원 미만,1,,37.6155587,127.0665245
378,카페언덕길,서울특별시 노원구 월계로44가길 40  1F,카페 / 디저트,만원 미만,1,,37.6238984,127.0542638
379,원주율,서울특별시 노원구 동일로178길 59-25  2호,카페 / 디저트,만원 미만,1,,37.6221663,127.0776691
380,기차가있는풍경,서울특별시 노원구 화랑로 608,카페 / 디저트,만원 미만,1,,37.6245739,127.0830557
381,꾸까,서울특별시 노원구 마들로3길 13 이마트 월계점 1F,카페 / 디저트,만원 미만,1,,37.6265118,127.0619079
382,쿠방플러스,서울특별시 노원구 노원로26길 39  덕산빌딩 1F,카페 / 디저트,만원 미만,3,,37.6522231,127.0698984
383,와플대학,서울특별시 노원구 상계로1길 8,카페 / 디저트,만원 미만,2,,37.6563304,127.0617496
384,카페드미셸,서울특별시 노원구 화랑로 441 미라쉘 1-2F,카페 / 디저트,만원 미만,2,,37.6182324,127.0763006
385,오피셜커피,서울특별시 노원구 동일로184길 69-7 1F,카페 / 디저트,만원 미만,1,,37.624986,127.0772627
386,커피하우스,서울특별시 노원구 한글비석로1길 69 1F,카페 / 디저트,만원 미만,2,,37.6406843,127.0702032
387,에그에그커피,서울특별시 노원구 노원로1길 78-2 1F,카페 / 디저트,만원 미만,2,,37.6209133,127.0829146
388,공릉동마카롱,서울특별시 노원구 동일로184길 52 1F,카페 / 디저트,만원 미만,1,,37.624379,127.076493
389,카페어썸,서울특별시 노원구 동일로175길 12-1,카페 / 디저트,만원 미만,1,,37.6196938,127.0739796
390,스윗블룸,서울특별시 노원구 동일로176길 27,카페 / 디저트,만원 미만,1,,37.6202453,127.0765238
391,카페거실,서울특별시 노원구 화랑로47길 9 1F,카페 / 디저트,만원 미만,1,,37.6157063,127.0666166
392,카페아임,서울특별시 노원구 화랑로51가길 3-20,카페 / 디저트,만원 미만,1,,37.624375,127.0896612
393,슬슬커피,서울특별시 노원구 석계로11길 35,카페 / 디저트,만원 미만,1,,37.6168277,127.0630436
394,물레,서울특별시 노원구 노해로81길 12-20 B1,카페 / 디저트,만원 미만,1,,37.6555504,127.0639444
395,카페 더모먼트,서울특별시 노원구 동일로184길 61 1F,카페 / 디저트,만원 미만,1,,37.6246157,127.0769127
396,리아트커피바,서울특별시 노원구 동일로192길 62 3F,카페 / 디저트,만원 미만,1,,37.62673059999999,127.0763597
397,Cactus Coffee,서울특별시 노원구 동일로 1380,카페 / 디저트,만원 미만,1,,37.6516848,127.0616516
398,아마스빈버블티,서울특별시 노원구 상계로3길 15 현우빌딩 1F,카페 / 디저트,만원 미만,1,,37.6568337,127.0621535
399,펭귄드링스커피,서울특별시 노원구 노해로 495 1-2F,카페 / 디저트,만원 미만,1,,37.6550741,127.0630834
400,라비다커피,서울특별시 노원구 화랑로51길 34,카페 / 디저트,만원 미만,1,,37.6246058,127.0892166
401,백미당,서울특별시 노원구 동일로 1414 롯데백화점 노원점 B1,카페 / 디저트,만원 미만,1,,37.6552207,127.0612826
402,팬도로시,서울특별시 노원구 화랑로 621,카페 / 디저트,만원 미만,1,,37.6292222,127.0905514
403,커피는기억에끌림,서울특별시 노원구 석계로 98-1,카페 / 디저트,만원 미만,1,,37.6233626,127.06108
404,마리웨일237,서울특별시 노원구 상계로3길 16 동원빌딩,카페 / 디저트,만원 미만,1,,37.6569543,127.0624784
405,카페다온,서울특별시 노원구 공릉로65길 20,카페 / 디저트,만원 미만,1,,37.6351772,127.069984
406,눈가루,서울특별시 노원구 노해로 494 고려빌딩 108호,카페 / 디저트,만원 미만,1,,37.65452560000001,127.0629865
407,커피베이,서울특별시 노원구 동일로243길 33,카페 / 디저트,만원 미만,1,,37.6783832,127.0530908
408,홀리몰리베이글리,서울특별시 노원구 화랑로51가길 21-19,카페 / 디저트,만원 미만,1,,37.6249073,127.0902211
409,Cafe 나랑,서울특별시 노원구 동일로184길 61,카페 / 디저트,만원 미만,1,,37.6246157,127.0769127
410,크로플각,서울특별시 노원구 동일로242길 51 대산빌딩 2F,카페 / 디저트,만원 미만,1,,37.6749733,127.0582183
411,오초록,서울특별시 노원구 노해로 502 KT전화국 본관 1F,카페 / 디저트,만원 미만,1,,37.654798,127.063628
412,탐앤탐스커피,서울특별시 노원구 섬밭로 258,카페 / 디저트,만원 미만,1,,37.6389443,127.0647295
413,달달한카페,서울특별시 노원구 화랑로55길 7,카페 / 디저트,만원 미만,1,,37.6264412,127.0943601
414,코타브레드,서울특별시 노원구 공릉로 165,카페 / 디저트,만원 미만,1,,37.6246975,127.0795398
415,포숑,서울특별시 노원구 동일로 1414 롯데백화점노원점 2F,카페 / 디저트,만원 미만,1,,37.6552207,127.0612826
416,배스킨라빈스,서울특별시 노원구 상계로 65 현성빌딩 1F,카페 / 디저트,만원 미만,1,,37.6563031,127.0622365
417,라트로스터스,서울특별시 노원구 중계로14바길 9,카페 / 디저트,만원 미만,1,,37.6500109,127.0828765
418,라라브레드,서울특별시 노원구 공릉로41길 32,카페 / 디저트,만원-2만원,17,3.6,37.6248229,127.0778368
419,제뉴어리퍼스트,서울특별시 노원구 동일로241가길 18,카페 / 디저트,만원-2만원,2,,37.6765558,127.053971
420,라뚜셩트,서울특별시 종로구 동숭4길 30-3 1F,카페 / 디저트,만원 미만,51,4.2,37.5837988,127.0051757
421,어쩌다산책,서울특별시 종로구 동숭길 101 B1,카페 / 디저트,만원 미만,42,4.2,37.5824204,127.0040143
422,Mrd,서울특별시 종로구 성균관로7길 32 1F,카페 / 디저트,만원 미만,12,4.2,37.58781159999999,126.9958682
423,카페키이로,서울특별시 종로구 창경궁로26길 41-3 2F,카페 / 디저트,만원 미만,91,4.1,37.582067,126.9997257
424,드엠,서울특별시 종로구 동순라길 126-3 5F,카페 / 디저트,만원 미만,16,4.1,37.575789,126.9962787
425,커피한약방,서울특별시 종로구 동숭2길 9,카페 / 디저트,만원 미만,9,4.1,37.5808502,127.0048028
426,해마티룸,서울특별시 종로구 창경궁로 283-1,카페 / 디저트,만원 미만,25,4.0,37.5863518,127.001591
427,보통의,서울특별시 종로구 동숭길 51 1F,카페 / 디저트,만원 미만,21,4.0,37.5805179,127.0041777
428,학림커피,서울특별시 종로구 대학로9길 23,카페 / 디저트,만원 미만,13,4.0,37.58145,127.0006069
429,동숭동커피,서울특별시 종로구 동숭3길 6-4 1F,카페 / 디저트,만원 미만,12,4.0,37.5810909,127.0047034
430,학림다방,서울특별시 종로구 대학로 119 2F,카페 / 디저트,만원 미만,104,3.9,37.5818924,127.0016664
431,블루룸,서울특별시 종로구 대명1길 16-7 1F,카페 / 디저트,만원 미만,61,3.9,37.5828312,127.0002759
432,개뿔,서울특별시 종로구 낙산성곽서1길 18-2,카페 / 디저트,만원 미만,29,3.9,37.5777563,127.0081475
433,하이제씨,서울특별시 종로구 동숭1길 12,카페 / 디저트,만원 미만,36,3.9,37.5798745,127.005032
434,아뻬 서울,서울특별시 종로구 창경궁로35나길 1,카페 / 디저트,만원 미만,17,3.9,37.5872838,127.0012003
435,서화커피,서울특별시 종로구 대학로9가길 8 1F,카페 / 디저트,만원 미만,12,3.9,37.5815198,127.0000127
436,마띠에르,서울특별시 종로구 대학로11길 41-6 1F,카페 / 디저트,만원 미만,13,3.9,37.5822785,126.9992768
437,메리그린,서울특별시 종로구 대학로11길 49 2F,카페 / 디저트,만원 미만,10,3.9,37.5825651,126.9990703
438,첫만남,서울특별시 종로구 대학로9길 12,카페 / 디저트,만원 미만,16,3.9,37.581773,127.0010837
439,러셔스 스쿱스,서울특별시 종로구 대학로 128 1F,카페 / 디저트,만원 미만,10,3.8,37.58266589999999,127.0021429
440,스노브,서울특별시 종로구 대학로11길 12,카페 / 디저트,만원 미만,65,3.7,37.5824206,127.0010558
441,도밍고팩토리,서울특별시 종로구 성균관로 15 2F,카페 / 디저트,만원 미만,34,3.7,37.5840666,126.9974153
442,카페 205도씨,서울특별시 종로구 성균관로4길 5,카페 / 디저트,만원 미만,42,3.7,37.5845802,126.9977424
443,비투프로젝트,서울특별시 종로구 동숭3길 6-6 1F,카페 / 디저트,만원 미만,12,3.7,37.5810846,127.0048133
444,오후홍콩,서울특별시 종로구 대학로9길 31-3,카페 / 디저트,만원 미만,6,3.7,37.5816877,127.0001599
445,라콜롬브,서울특별시 종로구 대학로12길 83 아트원씨어터,카페 / 디저트,만원 미만,38,3.6,37.5802316,127.0040004
446,브알라 Cafe ,서울특별시 종로구 대학로12길 21 DCF대명문화공장,카페 / 디저트,만원 미만,10,3.6,37.5827158,127.0032484
447,카페혜화동,서울특별시 종로구 창경궁로26길 40 2F,카페 / 디저트,만원 미만,20,3.5,37.5818638,126.9998926
448,카페다오,서울특별시 종로구 대학로14길 19,카페 / 디저트,만원 미만,11,3.5,37.5841754,127.0024918
449,헤이줄리,서울특별시 종로구 동순라길 108,카페 / 디저트,만원 미만,7,3.4,37.57540729999999,126.9958933
450,낫컴플리트,서울특별시 종로구 성균관로 12-5 2F,카페 / 디저트,만원 미만,15,3.4,37.584176,126.9980977
451,타셴,서울특별시 종로구 동숭길 113 1F,카페 / 디저트,만원 미만,14,3.4,37.582932,127.0035636
452,Chillin,서울특별시 종로구 대학로11길 41-8,카페 / 디저트,만원 미만,14,3.4,37.5821313,126.9993433
453,가비아노,서울특별시 종로구 대학로 122 흥사단 2F,카페 / 디저트,만원 미만,9,3.3,37.5821086,127.0022592
454,조스바스켓,서울특별시 종로구 동숭길 86 2F,카페 / 디저트,만원 미만,14,3.2,37.5820433,127.0042774
455,빌리엔젤,서울특별시 종로구 대학로10길 24 스타리움빌딩,카페 / 디저트,만원 미만,10,3.0,37.5815685,127.0035399
456,릴리마를린,서울특별시 종로구 대학로9길 17,카페 / 디저트,만원 미만,10,2.9,37.5815801,127.0008667
457,정주카페,서울특별시 종로구 이화장1길 3 1F,카페 / 디저트,만원 미만,6,,37.5771539,127.0046675
458,별달밤,서울특별시 종로구 성균관로 38,카페 / 디저트,만원 미만,7,,37.5859866,126.9968778
459,프루스트,서울특별시 종로구 창경궁로26길 38-3,카페 / 디저트,만원 미만,14,,37.5817589,126.9998385
460,A Perfect Day 찡쪽바,서울특별시 종로구 성균관로 7-1,카페 / 디저트,만원 미만,3,,37.5835466,126.9980416
461,사흘,서울특별시 종로구 혜화로 16-1,카페 / 디저트,만원 미만,3,,37.58701629999999,127.0001498
462,삼원샏,서울특별시 종로구 대학로11길 9-3,카페 / 디저트,만원 미만,3,,37.5821645,127.0012393
463,타르트앤,서울특별시 종로구 동숭4길 7,카페 / 디저트,만원 미만,2,,37.5832552,127.0040734
464,모베터블루스,서울특별시 종로구 동숭4길 4,카페 / 디저트,만원 미만,7,,37.5830221,127.0039983
465,혜화동콩집,서울특별시 종로구 창경궁로 283,카페 / 디저트,만원 미만,3,,37.5862928,127.0015351
466,브라운에비뉴,서울특별시 종로구 혜화로3길 5 301동 112호,카페 / 디저트,만원 미만,5,,37.5855655,127.0002337
467,리드아트,서울특별시 종로구 율곡로 185 2F,카페 / 디저트,만원 미만,2,,37.5760376,126.9993479
468,설빙,서울특별시 종로구 대학로12길 21 1F,카페 / 디저트,만원 미만,8,,37.5827158,127.0032484
469,오드투디저트,서울특별시 종로구 동숭길 94 2F,카페 / 디저트,만원 미만,7,,37.5824158,127.004328
470,모리셔스브라운,서울특별시 종로구 대학로 112 1F,카페 / 디저트,만원 미만,2,,37.5811397,127.0023829
471,타스카페,서울특별시 종로구 동숭길 117 2F,카페 / 디저트,만원 미만,8,,37.5831419,127.0034601
472,카페트레블,서울특별시 종로구 낙산3길 19-8,카페 / 디저트,만원 미만,4,,37.5799692,127.0064358
473,오리올,서울특별시 종로구 창경궁로33길 12,카페 / 디저트,만원 미만,5,,37.5842539,126.9992141
474,워너커피,서울특별시 종로구 동숭2길 2 1F,카페 / 디저트,만원 미만,3,,37.5806386,127.0043912
475,굽기,서울특별시 종로구 동숭3길 21,카페 / 디저트,만원 미만,3,,37.5818792,127.0045853
476,카페 마피,서울특별시 종로구 창경궁로26길 31 1F,카페 / 디저트,만원 미만,2,,37.5817789,126.9993356
477,팔공티,서울특별시 종로구 성균관로5길 9 1F,카페 / 디저트,만원 미만,1,,37.5842376,126.9968695
478,슬로스텝,서울특별시 종로구 대학로8가길 89,카페 / 디저트,만원 미만,3,,37.5820342,127.0035235
479,닮,서울특별시 종로구 율곡로 199,카페 / 디저트,만원 미만,2,,37.57616489999999,127.0007545
480,라쿤카페꾸꾸네,서울특별시 종로구 대명길 26 기영빌딩,카페 / 디저트,만원 미만,1,,37.5833783,127.0000795
481,랑데자뷰,서울특별시 종로구 창경궁로34길 18-5,카페 / 디저트,만원 미만,4,,37.5840826,127.000797
482,엘빈,서울특별시 종로구 창경궁로 271-1,카페 / 디저트,만원 미만,3,,37.5855243,127.0005841
483,오가다,서울특별시 종로구 대학로12길 15 1-2F,카페 / 디저트,만원 미만,3,,37.58269689999999,127.0028308
484,티랩제이,서울특별시 종로구 대학로9길 23-6  1F,카페 / 디저트,만원 미만,1,,37.58131789999999,127.0005475
485,인터미션,서울특별시 종로구 낙산2길 4-2  2F,카페 / 디저트,만원 미만,1,,37.5805717,127.0056522
486,일월일일,서울특별시 종로구 창경궁로 231 2F,카페 / 디저트,만원 미만,4,,37.58271,126.9980947
487,아마스빈,서울특별시 종로구 대명길 37 1F,카페 / 디저트,만원 미만,2,,37.5828658,126.9995712
488,할리스커피,서울특별시 종로구 대명길 6,카페 / 디저트,만원 미만,1,,37.5837402,127.0011129
489,초교수카페,서울특별시 종로구 혜화로 6,카페 / 디저트,만원 미만,2,,37.5863432,127.0005698
490,코피발리,서울특별시 종로구 이화장1길 3,카페 / 디저트,만원 미만,1,,37.5771539,127.0046675
491,째즈스토리2,서울특별시 종로구 낙산길 42-8,카페 / 디저트,만원 미만,6,,37.5799617,127.0065049
492,위치스커피,서울특별시 종로구 혜화로3길 5 명륜주상복합아남,카페 / 디저트,만원 미만,2,,37.5855655,127.0002337
493,베네딕션,서울특별시 종로구 성균관로 73  1F,카페 / 디저트,만원 미만,2,,37.5892731,126.9971405
494,스트렝스커피,서울특별시 종로구 대학로 52,카페 / 디저트,만원 미만,1,,37.5757108,127.0023614
495,공차,서울특별시 종로구 대명길 4 1F,카페 / 디저트,만원 미만,5,,37.5837402,127.0011129
496,와플대학,서울특별시 종로구 대학로10길 11 1F,카페 / 디저트,만원 미만,3,,37.5818127,127.0027906
497,디커피,서울특별시 종로구 성균관로 3,카페 / 디저트,만원 미만,2,,37.5832957,126.9983087
498,무던,서울특별시 종로구 성균관로4길 3,카페 / 디저트,만원 미만,2,,37.584512,126.9975644
499,카페일점오,서울특별시 종로구 명륜길 45-5,카페 / 디저트,만원 미만,2,,37.5889941,126.9944267
500,카페더블린,서울특별시 종로구 동숭4나길 5,카페 / 디저트,만원 미만,2,,37.5831325,127.0044792
501,코나헤이븐,서울특별시 종로구 성균관로 82 도광루미네스트 1F,카페 / 디저트,만원 미만,1,,37.58936500000001,126.9978764
502,카페달달,서울특별시 종로구 대학로11길 18,카페 / 디저트,만원 미만,1,,37.5822784,127.0006502
503,띵똥와플,서울특별시 종로구 성균관로 9-1,카페 / 디저트,만원 미만,2,,37.5836794,126.9978756
504,헤이커피,서울특별시 종로구 대학로11길 19-4,카페 / 디저트,만원 미만,2,,37.581986,127.0005929
505,낙산길20,서울특별시 종로구 낙산길 20 1F,카페 / 디저트,만원 미만,2,,37.58035460000001,127.0055498
506,63도씨 와우앤크림,서울특별시 종로구 대학로12길 61,카페 / 디저트,만원 미만,1,,37.5813877,127.0040077
507,노모,서울특별시 종로구 이화장2길 22-3,카페 / 디저트,만원 미만,1,,37.5778627,127.0056939
508,베스킨라빈스,서울특별시 종로구 대학로 142,카페 / 디저트,만원 미만,1,,37.5836991,127.0019038
509,에스프레소바오덕새,서울특별시 종로구 율곡로19길 57 1F,카페 / 디저트,만원 미만,1,,37.5767473,127.0075235
510,에그마카슈,서울특별시 종로구 대학로12길 13 청민빌딩 1F,카페 / 디저트,만원 미만,3,,37.5827277,127.0026056
511,카페랑솜,서울특별시 종로구 대학로11길 22,카페 / 디저트,만원 미만,3,,37.5822945,127.0004269
512,우지커피,서울특별시 종로구 대학로 85,카페 / 디저트,만원 미만,2,,37.578711,127.0018968
513,일리카페,서울특별시 종로구 창경궁로 285,카페 / 디저트,만원 미만,1,,37.5864181,127.0016523
514,어웨이크커피바,서울특별시 종로구 대학로14길 26-1,카페 / 디저트,만원 미만,2,,37.5844914,127.0026801
515,카페선선혜화,서울특별시 종로구 대학로11길 40 3F,카페 / 디저트,만원 미만,2,,37.58239080000001,126.9996659
516,유메미루,서울특별시 종로구 이화장길 26 대학로 예술마당,카페 / 디저트,만원 미만,1,,37.5764367,127.0039219
517,그림의맛,서울특별시 종로구 성균관로3길 9,카페 / 디저트,만원 미만,1,,37.5834851,126.9975895
518,아이엠아르띠스타,서울특별시 종로구 대학로8가길 129,카페 / 디저트,만원 미만,1,,37.5802717,127.0035119
519,CIRCA1950,서울특별시 종로구 창경궁로33길 15,카페 / 디저트,만원 미만,1,,37.5843764,126.9987789
520,대학로샵55,서울특별시 종로구 대학로5길 43,카페 / 디저트,만원 미만,1,,37.5792,127.0009177
521,바람이살랑,서울특별시 종로구 창경궁로29길 35,카페 / 디저트,만원 미만,3,,37.5840929,126.997227
522,로벨리아듀 카페와인,서울특별시 종로구 동숭3길 6-2,카페 / 디저트,만원 미만,2,,37.5810792,127.0046005
523,로젤,서울특별시 종로구 창경궁로26길 33 1F,카페 / 디저트,만원 미만,2,,37.5818187,126.9994596
524,밀크공방,서울특별시 종로구 낙산4길 57,카페 / 디저트,만원 미만,1,,37.5775725,127.0070812
525,스타벅스,서울특별시 종로구 동숭길 110,카페 / 디저트,만원 미만,1,,37.5829419,127.0038862
526,프롬하츠커피,서울특별시 종로구 대학로 127 1F,카페 / 디저트,만원 미만,1,,37.5825432,127.0014901
527,카페 미뇽,서울특별시 종로구 대명길 17 1F,카페 / 디저트,만원 미만,1,,37.5832564,127.0005861
528,더스키앤커피,서울특별시 종로구 동숭길 55,카페 / 디저트,만원 미만,3,,37.5807178,127.004166
529,탐앤탐스,서울특별시 종로구 동숭길 117,카페 / 디저트,만원 미만,1,,37.5831419,127.0034601
530,카퍼커피,서울특별시 종로구 혜화로9길 7,카페 / 디저트,만원 미만,1,,37.5876677,126.9993926
531,카페김쌤,서울특별시 종로구 성균관로 28,카페 / 디저트,만원 미만,1,,37.5851582,126.997258
532,델라,서울특별시 종로구 성균관로 32,카페 / 디저트,만원 미만,1,,37.5854541,126.9970944
533,브루클린커피,서울특별시 종로구 대학로8가길 85 티오엠문화공간 1F,카페 / 디저트,만원 미만,1,,37.5822556,127.0034944
534,모노커피,서울특별시 종로구 대학로11길 32 1F,카페 / 디저트,만원 미만,1,,37.5822213,126.9999693
535,다비앙코,서울특별시 종로구 동숭길 123 드림아트센터 1F,카페 / 디저트,만원 미만,2,,37.5832627,127.0032788
536,빽다방,서울특별시 종로구 대학로 79-1,카페 / 디저트,만원 미만,1,,37.5783119,127.0019146
537,이화동,서울특별시 종로구 율곡로 212,카페 / 디저트,만원 미만,2,,37.5758952,127.0023159
538,대학로찐와플,서울특별시 종로구 대명길 32,카페 / 디저트,만원 미만,1,,37.5832033,126.9997377
539,소풍,서울특별시 종로구 명륜길 42,카페 / 디저트,만원 미만,1,,37.5889893,126.9949194
540,요거프레소,서울특별시 종로구 대학로 75,카페 / 디저트,만원 미만,1,,37.5779977,127.0018361
541,캔디와앨리스,서울특별시 종로구 명륜길 45,카페 / 디저트,만원 미만,1,,37.5889738,126.994684
542,랭스터디카페,서울특별시 종로구 대학로10길 15-11 3F,카페 / 디저트,만원 미만,1,,37.5822206,127.0027636
543,카페테라피,서울특별시 종로구 낙산길 14 2F,카페 / 디저트,2만원-3만원,1,,37.5802937,127.0052653
544,슈퍼내추럴,서울특별시 동대문구 전농로23길 78  1F,카페 / 디저트,만원 미만,7,4.4,37.57803790000001,127.0526399
545,커피그라운즈,서울특별시 동대문구 답십리로48길 57,카페 / 디저트,만원 미만,23,4.2,37.5701251,127.0578274
546,이문동커피집,서울특별시 동대문구 이문로25길 39 1F,카페 / 디저트,만원 미만,35,4.2,37.595433,127.0573148
547,알로하올라,서울특별시 동대문구 회기로 133-1 1F,카페 / 디저트,만원 미만,6,4.2,37.5914902,127.0514877
548,씨위드커피,서울특별시 동대문구 회기로25길 59 1F,카페 / 디저트,만원 미만,5,4.1,37.5923829,127.0567372
549,그릭데이,서울특별시 동대문구 회기로23가길 22 1F,카페 / 디저트,만원 미만,8,4.1,37.5921806,127.0543143
550,컴플리트커피,서울특별시 동대문구 천장산로7길 19,카페 / 디저트,만원 미만,74,4.0,37.5982598,127.0567899
551,양자호떡,서울특별시 동대문구 회기로 161 1F,카페 / 디저트,만원 미만,17,4.0,37.5907754,127.054032
552,Mods Place,서울특별시 동대문구 경희대로3길 11,카페 / 디저트,만원 미만,7,4.0,37.5925879,127.0518508
553,Coffee Methodz,서울특별시 동대문구 회기로21길 34,카페 / 디저트,만원 미만,26,3.9,37.5928673,127.0530985
554,카페 대즐링,서울특별시 동대문구 제기로2길 29,카페 / 디저트,만원 미만,23,3.9,37.5856281,127.0341572
555,아임파이,서울특별시 동대문구 휘경로2길 35,카페 / 디저트,만원 미만,18,3.9,37.5946415,127.0602078
556,카페파인,서울특별시 동대문구 안암로22길 15 1F,카페 / 디저트,만원 미만,10,3.9,37.5879995,127.0356812
557,베이크어데이,서울특별시 동대문구 휘경로 3-13 윤산빌딩 1F,카페 / 디저트,만원 미만,10,3.9,37.596824,127.0609074
558,와요,서울특별시 동대문구 경희대로4길 7,카페 / 디저트,만원 미만,22,3.8,37.5925167,127.0530826
559,커피디엔에이로스팅컴퍼니,서울특별시 동대문구 천장산로4길 48 1F,카페 / 디저트,만원 미만,19,3.8,37.59898,127.0578362
560,카페브레송,서울특별시 동대문구 안암로22길 6,카페 / 디저트,만원 미만,15,3.8,37.5880996,127.0350367
561,망우로30,서울특별시 동대문구 망우로 30-1,카페 / 디저트,만원 미만,16,3.7,37.5881592,127.0566705
562,키라쿠,서울특별시 동대문구 약령시로 5-1 1F,카페 / 디저트,만원 미만,11,3.7,37.5827554,127.0302882
563,언차일드,서울특별시 동대문구 회기로 194,카페 / 디저트,만원 미만,8,3.7,37.589808,127.0573393
564,카페양귀비,서울특별시 동대문구 이문로9길 8,카페 / 디저트,만원 미만,28,3.6,37.592929,127.0574268
565,비하인드미,서울특별시 동대문구 회기로 125,카페 / 디저트,만원 미만,16,3.6,37.591587,127.0505228
566,고소운,서울특별시 동대문구 휘경로2길 4 B1,카페 / 디저트,만원 미만,19,3.6,37.5957969,127.0609203
567,컴투레스트,서울특별시 동대문구 회기로 161-11,카페 / 디저트,만원 미만,19,3.6,37.59117579999999,127.0541878
568,8 Street,서울특별시 동대문구 경희대로3길 8,카페 / 디저트,만원 미만,15,3.6,37.5927753,127.0519685
569,알로카시아인더테라스,서울특별시 동대문구 회기로 111,카페 / 디저트,만원 미만,7,3.5,37.5916245,127.048919
570,카페몰로,서울특별시 동대문구 회기로 163 1F,카페 / 디저트,만원 미만,7,3.5,37.590835,127.0543868
571,OTR,서울특별시 동대문구 이문로9가길 35,카페 / 디저트,만원 미만,3,,37.5981988,127.0560263
572,루데카,서울특별시 동대문구 경희대로4길 79 학산빌딩 1F,카페 / 디저트,만원 미만,1,,37.5913943,127.0564889
573,프리카페,서울특별시 동대문구 답십리로48길 76 1F,카페 / 디저트,만원 미만,3,,37.5693362,127.0575442
574,커피디셈버,서울특별시 동대문구 왕산로 72 한양아이클래스 102호,카페 / 디저트,만원 미만,1,,37.5777429,127.0313846
575,아워웨이브,서울특별시 동대문구 서울시립대로 70-1 B1,카페 / 디저트,만원 미만,4,,37.5771814,127.0487676
576,커피나인,서울특별시 동대문구 답십리로 68 1F,카페 / 디저트,만원 미만,11,,37.57533129999999,127.0483904
577,빈칸,서울특별시 동대문구 망우로21길 63,카페 / 디저트,만원 미만,3,,37.5899521,127.059473
578,베러댄,서울특별시 동대문구 망우로 34,카페 / 디저트,만원 미만,6,,37.58832719999999,127.0570613
579,카페림,서울특별시 동대문구 천호대로27길 8-2,카페 / 디저트,만원 미만,4,,37.5744441,127.0374364
580,비바라비다,서울특별시 동대문구 천호대로81길 32 1F,카페 / 디저트,만원 미만,3,,37.5636722,127.0645576
581,더크림,서울특별시 동대문구 장한로28길 18 1F,카페 / 디저트,만원 미만,4,,37.5728131,127.072997
582,꽃갈피,서울특별시 동대문구 망우로18가길 36,카페 / 디저트,만원 미만,9,,37.5886541,127.060779
583,튠업,서울특별시 동대문구 이문로9길 46,카페 / 디저트,만원 미만,4,,37.5942077,127.0565432
584,원더월커피로스터스,서울특별시 동대문구 답십리로 80 1F,카페 / 디저트,만원 미만,2,,37.574695,127.0494943
585,포컵스,서울특별시 동대문구 이문로30길 10,카페 / 디저트,만원 미만,4,,37.596858,127.0611051
586,카페반창고,서울특별시 동대문구 경희대로1가길 18 B1,카페 / 디저트,만원 미만,13,,37.5925313,127.0516477
587,카페 비반트,서울특별시 동대문구 회기로21길 33,카페 / 디저트,만원 미만,9,,37.5927688,127.052948
588,40년전통그시절그맛,서울특별시 동대문구 고산자로38길 25,카페 / 디저트,만원 미만,4,,37.5801269,127.0398608
589,베브릿지,서울특별시 동대문구 휘경로 4-10,카페 / 디저트,만원 미만,4,,37.5961637,127.060482
590,파운틴,서울특별시 동대문구 한천로26길 48-12,카페 / 디저트,만원 미만,5,,37.5705779,127.0678763
591,헤이피,서울특별시 동대문구 제기로2길 11 2F,카페 / 디저트,만원 미만,5,,37.5858834,127.0333228
592,미바드래프트,서울특별시 동대문구 천장산로7길 8 완후빌딩 2F,카페 / 디저트,만원 미만,3,,37.5986156,127.0573775
593,카페온,서울특별시 동대문구 왕산로 276-1,카페 / 디저트,만원 미만,4,,37.5851342,127.0513657
594,카페드넬,서울특별시 동대문구 회기로19길 23 유경빌딩 1F,카페 / 디저트,만원 미만,3,,37.592645,127.0529043
595,매트팩토리,서울특별시 동대문구 무학로 133-2 유일빌딩 1F,카페 / 디저트,만원 미만,1,,37.576238,127.0301565
596,배트콩,서울특별시 동대문구 경희대로4길 50,카페 / 디저트,만원 미만,6,,37.5915609,127.0550163
597,모서리,서울특별시 동대문구 이문로 45 1F,카페 / 디저트,만원 미만,4,,37.5914889,127.0567168
598,파랑,서울특별시 동대문구 전농로34길 3 1F,카페 / 디저트,만원 미만,3,,37.5847787,127.0529938
599,스윗오브유,서울특별시 동대문구 답십리로 292-3 101호,카페 / 디저트,만원 미만,1,,37.5753938,127.0548231
600,더크림디저트쇼룸,서울특별시 동대문구 천호대로79길 55 ,카페 / 디저트,만원 미만,1,,37.5648098,127.0639434
601,카페김랩,서울특별시 동대문구 천장산로7길 29,카페 / 디저트,만원 미만,4,,37.5981949,127.0562132
602,설빙,서울특별시 동대문구 회기로 193,카페 / 디저트,만원 미만,3,,37.5901447,127.0574211
603,아일랜드비,서울특별시 동대문구 휘경로 4-7 수정유니텔,카페 / 디저트,만원 미만,1,,37.5958538,127.060487
604,인더베이글,서울특별시 동대문구 회기로13길 19 1F,카페 / 디저트,만원 미만,3,,37.5922673,127.0508618
605,투썸플레이스,서울특별시 동대문구 고미술로 81,카페 / 디저트,만원 미만,6,,37.5655704,127.0556967
606,커피프로젝트,서울특별시 동대문구 약령시로 12-1 1F,카페 / 디저트,만원 미만,3,,37.5825234,127.0312298
607,곰탱이커피,서울특별시 동대문구 답십리로23길 129,카페 / 디저트,만원 미만,2,,37.5807178,127.0519821
608,톤톤,서울특별시 동대문구 답십리로63길 11,카페 / 디저트,만원 미만,2,,37.5732121,127.0679363
609,빌리엔젤,서울특별시 동대문구 왕산로 214 지하 2F,카페 / 디저트,만원 미만,3,,37.5792928,127.0479007
610,쉴만한물가,서울특별시 동대문구 이문로 59,카페 / 디저트,만원 미만,2,,37.5926739,127.0575262
611,래디컬브루잉클럽,서울특별시 동대문구 안암로20길 7-12 1F,카페 / 디저트,만원 미만,3,,37.5880306,127.0349765
612,블랑슈가,서울특별시 동대문구 제기로 40 1F,카페 / 디저트,만원 미만,1,,37.5863469,127.0374462
613,스타벅스,서울특별시 동대문구 장한로 10,카페 / 디저트,만원 미만,5,,37.5622228,127.0655129
614,오앤디,서울특별시 동대문구 망우로12가길 17,카페 / 디저트,만원 미만,3,,37.5887467,127.0601132
615,레드인,서울특별시 동대문구 장한로27가길 32-1,카페 / 디저트,만원 미만,1,,37.5744297,127.0712868
616,마이미스로즈,서울특별시 동대문구 왕산로 210 롯데백화점 청량리점 3F,카페 / 디저트,만원 미만,1,,37.5803953,127.0379534
617,카페슬로우봉봉,서울특별시 동대문구 전농로 164 1F,카페 / 디저트,만원 미만,1,,37.5793291,127.0567955
618,눈타이드,서울특별시 동대문구 왕산로43가길 2,카페 / 디저트,만원 미만,1,,37.5838018,127.0481478
619,셉,서울특별시 동대문구 서울시립대로 82,카페 / 디저트,만원 미만,1,,37.5780196,127.0494622
620,엘가커피,서울특별시 동대문구 천장산로7길 10-1 2F,카페 / 디저트,만원 미만,4,,37.5984905,127.0571324
621,스타벅스,서울특별시 동대문구 이문로 37 ,카페 / 디저트,만원 미만,8,,37.5907694,127.0561043
622,스타벅스,서울특별시 동대문구 휘경로 12-1,카페 / 디저트,만원 미만,2,,37.595688,127.0613927
623,역시커피,서울특별시 동대문구 회기로 28,카페 / 디저트,만원 미만,4,,37.59101709999999,127.0395589
624,카페 노마드,서울특별시 동대문구 휘경로 10 2F,카페 / 디저트,만원 미만,1,,37.5959219,127.0610025
625,아티제,서울특별시 동대문구 이문로 107 한국외국어대학교,카페 / 디저트,만원 미만,3,,37.597108,127.0588498
626,카페엔드롱,서울특별시 동대문구 하정로 43 1F,카페 / 디저트,만원 미만,3,,37.5750882,127.0265363
627,플로랄카페,서울특별시 동대문구 망우로16길 32 1F,카페 / 디저트,만원 미만,2,,37.58864,127.0611574
628,그대쉴꽃,서울특별시 동대문구 회기로19길 6,카페 / 디저트,만원 미만,1,,37.5917805,127.052853
629,까페이레,서울특별시 동대문구 천호대로 247 메트로팰리스,카페 / 디저트,만원 미만,1,,37.5694524,127.0498791
630,카리스,서울특별시 동대문구 제기로 148,카페 / 디저트,만원 미만,1,,37.5859651,127.0493691
631,백씨네콩다방,서울특별시 동대문구 회기로21길 3 2F,카페 / 디저트,만원 미만,5,,37.5916783,127.0529188
632,신설동사람들,서울특별시 동대문구 한빛로 33-2 1F,카페 / 디저트,만원 미만,1,,37.5784061,127.0264648
633,구십이문,서울특별시 동대문구 이문로16길 30,카페 / 디저트,만원 미만,2,,37.5940363,127.0607263
634,보스코젤라또,서울특별시 동대문구 천호대로 317 하늘병원 1F,카페 / 디저트,만원 미만,2,,37.565205,127.055535
635,오메이,서울특별시 동대문구 경희대로4길 38,카페 / 디저트,만원 미만,2,,37.5918488,127.0544057
636,청량리역3번출구 붕어빵,서울특별시 동대문구 왕산로 209-1 청량리역 3번출구,카페 / 디저트,만원 미만,1,,37.5809354,127.0457841
637,카페 가성비,서울특별시 동대문구 이문로 96-1,카페 / 디저트,만원 미만,1,,37.5953992,127.0597453
638,이문일공칠,서울특별시 동대문구 이문로 107,카페 / 디저트,만원 미만,1,,37.5976171,127.0582192
639,쏘리낫쏘리,서울특별시 동대문구 왕산로 22,카페 / 디저트,만원 미만,1,,37.576616,127.0330864
640,핸섬로스팅커피,서울특별시 동대문구 고산자로56길 17 1F,카페 / 디저트,만원 미만,1,,37.5884503,127.0379354
641,해빙커피로스터스,서울특별시 동대문구 외대역동로12길 13 1F,카페 / 디저트,만원 미만,1,,37.5949783,127.0655156
642,해머커피로스터즈,서울특별시 동대문구 안암로 148-1,카페 / 디저트,만원 미만,7,,37.5879873,127.0346328
643,너디블루,서울특별시 동대문구 전농로36길 9 너디블루 1F,카페 / 디저트,만원 미만,3,,37.5854577,127.0529456
644,카페끄망,서울특별시 동대문구 제기로5길 46,카페 / 디저트,만원 미만,2,,37.5882222,127.03559
645,그림제과,서울특별시 동대문구 사가정로25가길 15 1F,카페 / 디저트,만원 미만,2,,37.581052,127.0718159
646,오늘도앙,서울특별시 동대문구 서울시립대로4길 35 1F,카페 / 디저트,만원 미만,1,,37.5741186,127.0485179
647,멜팅폼,서울특별시 동대문구 천장산로7길 10-3,카페 / 디저트,만원 미만,3,,37.5986553,127.0571144
648,리드스트리트커피,서울특별시 동대문구 회기로 166 KB빌딩,카페 / 디저트,만원 미만,3,,37.5903516,127.0544428
649,문뒤엔,서울특별시 동대문구 안암로 146,카페 / 디저트,만원 미만,1,,37.587735,127.0345206
650,카페볼드,서울특별시 동대문구 답십리로 68,카페 / 디저트,만원 미만,1,,37.57533129999999,127.0483904
651,해피니스디저트,서울특별시 동대문구 경희대로 9-1 1F,카페 / 디저트,만원 미만,1,,37.5924758,127.0522542
652,신설동역10번출구 계란빵,서울특별시 동대문구 천호대로 4 신설동역10번출구앞,카페 / 디저트,만원 미만,2,,37.5733739,127.0253661
653,그리기요거트,서울특별시 동대문구 경희대로4길 8  1F,카페 / 디저트,만원 미만,2,,37.5923936,127.053134
654,비비카롱,서울특별시 동대문구 회기로 163  1F,카페 / 디저트,만원 미만,2,,37.590835,127.0543868
655,온니당,서울특별시 동대문구 답십리로63길 125 1F,카페 / 디저트,만원 미만,1,,37.5781413,127.0692606
656,크레이저커피,서울특별시 동대문구 경희대로4길 44,카페 / 디저트,만원 미만,1,,37.5916639,127.054716
657,오슬로우,서울특별시 동대문구 전농로 96 1F,카페 / 디저트,만원 미만,1,,37.5735294,127.0577449
658,크레이저커피,서울특별시 동대문구 천장산로 32-2,카페 / 디저트,만원 미만,2,,37.5986662,127.0579217
659,오르앤지드,서울특별시 동대문구 답십리로30길 44,카페 / 디저트,만원 미만,2,,37.57369,127.0474365
660,메가커피,서울특별시 동대문구 장한로 116,카페 / 디저트,만원 미만,2,,37.5707046,127.0710387
661,프롬하츠커피,서울특별시 동대문구 난계로 242 지웰홈스 1F,카페 / 디저트,만원 미만,1,,37.5731258,127.0236006
662,롬카페,서울특별시 동대문구 답십리로 140 세기프라자 1F,카페 / 디저트,만원 미만,1,,37.5753938,127.0548231
663,카페리코,서울특별시 동대문구 무학로37길 42,카페 / 디저트,만원 미만,1,,37.5777569,127.0279303
664,녹원,서울특별시 동대문구 경희대로 14,카페 / 디저트,만원 미만,3,,37.5927345,127.052722
665,페이지2726,서울특별시 동대문구 고산자로30길 13 1F,카페 / 디저트,만원 미만,4,,37.5760187,127.0390361
666,붐바,서울특별시 동대문구 이문로 88-26,카페 / 디저트,만원 미만,3,,37.594728,127.0598625
667,배스킨라빈스,서울특별시 동대문구 장한로 27,카페 / 디저트,만원 미만,3,,37.5638657,127.0658987
668,올유니드,서울특별시 동대문구 휘경로2길 16 2F,카페 / 디저트,만원 미만,2,,37.5953476,127.0606236
669,카페 시카고,서울특별시 동대문구 망우로18가길 3,카페 / 디저트,만원 미만,1,,37.5892782,127.0624334
670,머랭,서울특별시 동대문구 답십리로 311,카페 / 디저트,만원 미만,1,,37.57225280000001,127.0752002
671,요띠드,서울특별시 동대문구 천장산로7길 26-2 2F,카페 / 디저트,만원 미만,1,,37.5984237,127.0565432
672,아인스카페,서울특별시 동대문구 경희대로 5 가동 3F,카페 / 디저트,만원 미만,1,,37.592037,127.0521477
673,엘마르조,서울특별시 동대문구 회기로23길 59,카페 / 디저트,만원 미만,1,,37.5926653,127.0557757
674,헤이즐넛버터,서울특별시 동대문구 경희대로3길 27  1F,카페 / 디저트,만원 미만,1,,37.5927295,127.0509726
675,달콤커피,서울특별시 동대문구 경희대로 24 경희의료원 2F,카페 / 디저트,만원 미만,1,,37.593884,127.0513235
676,고산377베이커리,서울특별시 동대문구 고산자로 377,카페 / 디저트,만원 미만,1,,37.5733288,127.0376726
677,커피홀니스,서울특별시 동대문구 정릉천동로 58,카페 / 디저트,만원 미만,1,,37.5769394,127.0357027
678,노엘,서울특별시 동대문구 천장산로7길 56,카페 / 디저트,만원 미만,3,,37.5982421,127.0546883
679,설빙,서울특별시 동대문구 휘경로 9,카페 / 디저트,만원 미만,4,,37.596117,127.0615221
680,빙고,서울특별시 동대문구 경희대로4길 73 1F,카페 / 디저트,만원 미만,3,,37.5913654,127.0562677
681,이츠이츠,서울특별시 동대문구 회기로21길 25 2F,카페 / 디저트,만원 미만,3,,37.592569,127.0532031
682,세컨스텝,서울특별시 동대문구 난계로30길 36-8,카페 / 디저트,만원 미만,1,,37.5736745,127.0249064
683,공차,서울특별시 동대문구 회기로 188,카페 / 디저트,만원 미만,2,,37.5896514,127.0568
684,탐앤탐스,서울특별시 동대문구 장한로 20 1F,카페 / 디저트,만원 미만,1,,37.5629607,127.0659734
685,커피베이,서울특별시 동대문구 천장산로7길 16,카페 / 디저트,만원 미만,1,,37.5984631,127.0569663
686,카페 플래닛,서울특별시 동대문구 휘경로2길 39,카페 / 디저트,만원 미만,1,,37.5944244,127.0602173
687,카페브레멘,서울특별시 동대문구 왕산로 293,카페 / 디저트,만원 미만,2,,37.5867045,127.0520149
688,유월의마들렌,서울특별시 동대문구 정릉천동로 112,카페 / 디저트,만원 미만,2,,37.5823475,127.0361526
689,젠틀마담,서울특별시 동대문구 장안벚꽃로 107 장안현대홈타운 상가 126호,카페 / 디저트,만원 미만,1,,37.571202,127.07432
690,달리는커피,서울특별시 동대문구 경희대로4길 74,카페 / 디저트,만원 미만,1,,37.5911552,127.0563406
691,제제커피,서울특별시 동대문구 이문로9길 105-8,카페 / 디저트,만원 미만,1,,37.5965804,127.0562426
692,볼랫,서울특별시 동대문구 황물로 168  118호,카페 / 디저트,만원 미만,1,,37.5651933,127.0562018
693,러블티,서울특별시 동대문구 망우로18가길 70 1F,카페 / 디저트,만원 미만,4,,37.5871893,127.0602472
694,커피빈,서울특별시 동대문구 이문로 106,카페 / 디저트,만원 미만,1,,37.5960309,127.0602028
695,이디야커피,서울특별시 동대문구 휘경로 12,카페 / 디저트,만원 미만,1,,37.59582040000001,127.0612654
696,딜리커피,서울특별시 동대문구 사가정로 39 1F,카페 / 디저트,만원 미만,3,,37.5727634,127.0513166
697,브라운팰리스커피,서울특별시 동대문구 한천로14길 22,카페 / 디저트,만원 미만,3,,37.5670316,127.0638047
698,프롬하츠커피앤베이커리,서울특별시 동대문구 왕산로 71 바인르미에르,카페 / 디저트,만원 미만,2,,37.5781401,127.0310353
699,시그널커피로스터스,서울특별시 동대문구 왕산로32길 99 관일빌딩 1F,카페 / 디저트,만원 미만,2,,37.5750684,127.0399642
700,동빙고,서울특별시 용산구 이촌로 319,카페 / 디저트,만원 미만,79,4.0,37.5186483,126.9823443
701,헬카페 스피리터스,서울특별시 용산구 이촌로 248 한강맨션 31동 208호,카페 / 디저트,만원 미만,37,3.9,37.5186517,126.9738602
702,동빙고,서울특별시 용산구 이촌로 182,카페 / 디저트,만원 미만,12,3.6,37.5209735,126.9673472
703,뉴오리진,서울특별시 용산구 이촌로 208,카페 / 디저트,만원 미만,10,3.5,37.5208675,126.9701644
704,카페모스,서울특별시 용산구 이촌로 248 한강맨션11동상가 1F,카페 / 디저트,만원 미만,11,3.2,37.5186517,126.9738602
705,아티제,서울특별시 용산구 이촌로64길 6 1F,카페 / 디저트,만원 미만,5,,37.5206879,126.9700311
706,카모메,서울특별시 용산구 이촌로65가길 78,카페 / 디저트,만원 미만,7,,37.5207447,126.975216
707,미스랄라,서울특별시 용산구 이촌로65가길 72,카페 / 디저트,만원 미만,10,,37.5208118,126.9749493
708,베이커스필드,서울특별시 용산구 이촌로 303,카페 / 디저트,만원 미만,4,,37.5185268,126.9806796
709,배재란커피클래스,서울특별시 용산구 이촌로65가길 78,카페 / 디저트,만원 미만,7,,37.5207447,126.975216
710,커피앳웍스,서울특별시 용산구 이촌로 224 1F,카페 / 디저트,만원 미만,3,,37.5201398,126.9718634
711,바캉스온아일랜드카페,서울특별시 용산구 양녕로 446 노들섬 복합문화공간 1F,카페 / 디저트,만원 미만,4,,37.520805,126.9611825
712,카페 붘,서울특별시 용산구 양녕로 446 2F,카페 / 디저트,만원 미만,4,,37.520805,126.9611825
713,마린커피,서울특별시 용산구 이촌로88길 3 점보상가 1F 7호,카페 / 디저트,만원 미만,3,,37.5180908,126.9787161
714,커피공장103,서울특별시 용산구 이촌로18길 16,카페 / 디저트,만원 미만,3,,37.5262558,126.954893
715,스노우볼,서울특별시 용산구 이촌로65가길 72 동인상가 107호,카페 / 디저트,만원 미만,4,,37.5208118,126.9749493
716,스타벅스,서울특별시 용산구 이촌로 198,카페 / 디저트,만원 미만,2,,37.5210945,126.9690312
717,코펜바인,서울특별시 용산구 이촌로 300 렉스상가 103호,카페 / 디저트,만원 미만,2,,37.5174785,126.9805401
718,한스,서울특별시 용산구 이촌로 303,카페 / 디저트,만원 미만,1,,37.5185268,126.9806796
719,정감,서울특별시 용산구 이촌로 264,카페 / 디저트,만원 미만,1,,37.5185208,126.9760327
720,비파티세리,서울특별시 마포구 마포대로14길 4 1F,카페 / 디저트,만원 미만,44,4.6,37.5485923,126.9550701
721,리밀커피&밀리,서울특별시 마포구 동교로22길 21,카페 / 디저트,만원 미만,7,4.4,37.5545333,126.9186982
722,프릳츠커피컴퍼니,서울특별시 마포구 새창로2길 17,카페 / 디저트,만원 미만,217,4.3,37.5409755,126.9490468
723,녹기전에,서울특별시 마포구 백범로 127-24,카페 / 디저트,만원 미만,76,4.3,37.5466354,126.9455554
724,후엘고,서울특별시 마포구 마포대로11길 118,카페 / 디저트,만원 미만,19,4.3,37.54901030000001,126.9478623
725,비로소커피,서울특별시 마포구 광성로6길 42,카페 / 디저트,만원 미만,53,4.1,37.5480803,126.939183
726,브로일링커피컴퍼니,서울특별시 마포구 광성로 37-8,카페 / 디저트,만원 미만,22,4.1,37.5501831,126.9369497
727,아이엠베이글,서울특별시 마포구 백범로 152 101동 1F,카페 / 디저트,만원 미만,28,4.1,37.5495268,126.9414508
728,요유베이커리,서울특별시 마포구 삼개로 7-2,카페 / 디저트,만원 미만,11,4.1,37.5395413,126.9477543
729,영앤도터스,서울특별시 마포구 마포대로 156 푸르지오시티 107호,카페 / 디저트,만원 미만,14,4.1,37.5458958,126.9515058
730,해피베어데이,서울특별시 마포구 양화로12길 16-6,카페 / 디저트,만원 미만,4,4.1,37.5516415,126.9181594
731,피크니크,서울특별시 마포구 서강로13길 24,카페 / 디저트,만원 미만,11,4.0,37.5539345,126.9325981
732,사심가득,서울특별시 마포구 백범로24길 11-3,카페 / 디저트,만원 미만,14,4.0,37.5458315,126.9450337
733,컨택트,서울특별시 마포구 양화로10길 45,카페 / 디저트,만원 미만,7,4.0,37.5503017,126.9188556
734,세이트커피,서울특별시 마포구 월드컵북로42가길 28,카페 / 디저트,만원 미만,9,4.0,37.57537300000001,126.8967607
735,퍼블리크,서울특별시 마포구 토정로 195,카페 / 디저트,만원 미만,20,3.9,37.5455116,126.9327023
736,그로토,서울특별시 마포구 새창로4길 9,카페 / 디저트,만원 미만,14,3.9,37.5416458,126.9517667
737,립하버,서울특별시 마포구 백범로24길 11-4 1F,카페 / 디저트,만원 미만,11,3.9,37.5459134,126.9449228
738,알디프티바라운지,서울특별시 마포구 와우산로35길 19 B1-1F,카페 / 디저트,만원 미만,6,3.9,37.5558235,126.9293648
739,기호,서울특별시 마포구 서강로16길 72,카페 / 디저트,만원 미만,11,3.9,37.5511408,126.9373447
740,포멜로빈,서울특별시 마포구 백범로 170 더샵아파트 102동 상가 7-1호,카페 / 디저트,만원 미만,5,3.9,37.5443889,126.9489717
741,이스트덜위치 (휴업중),서울특별시 마포구 와우산로29라길 11,카페 / 디저트,만원 미만,51,3.8,37.5551468,126.9271765
742,누아네,서울특별시 마포구 백범로 152,카페 / 디저트,만원 미만,23,3.8,37.5451763,126.9475472
743,드링크맨션,서울특별시 마포구 성암로13길 16  2F,카페 / 디저트,만원 미만,6,3.7,37.5772143,126.8965207
744,오펠레,서울특별시 마포구 독막로 291-5,카페 / 디저트,만원 미만,20,3.6,37.5450521,126.9457395
745,채그로,서울특별시 마포구 마포대로4다길 31 옵티마빌딩 신관 8F,카페 / 디저트,만원 미만,10,3.6,37.5359028,126.9444264
746,오톤커피,서울특별시 마포구 삼개로3길 9 1F,카페 / 디저트,만원 미만,12,3.5,37.5387988,126.9480499
747,캘리포니아 도넛 클럽 & 비라티오,서울특별시 마포구 잔다리로 28 1-2F,카페 / 디저트,만원 미만,6,3.5,37.5511476,126.920215
748,요거트맨,서울특별시 마포구 백범로 152 공덕파크자이 202동 1F 10호,카페 / 디저트,만원 미만,5,3.5,37.5451763,126.9475472
749,도화아파트먼트,서울특별시 마포구 도화2길 27,카페 / 디저트,만원 미만,7,3.4,37.5394935,126.949476
750,카페리카르도,서울특별시 마포구 서강로 78 1F,카페 / 디저트,만원 미만,10,3.3,37.5492914,126.9321631
751,콩도리카페,서울특별시 마포구 마포대로 63-8 삼창프라자빌딩,카페 / 디저트,만원 미만,1,,37.542204,126.947862
752,산리오러버스클럽,서울특별시 마포구 와우산로19길 18 ,카페 / 디저트,만원 미만,7,,37.5513687,126.9220316
753,살구다방,서울특별시 마포구 광성로6길 56,카페 / 디저트,만원 미만,5,,37.5475279,126.9397793
754,당인리책발전소,서울특별시 마포구 월드컵로 14길 10-8 1F,카페 / 디저트,만원 미만,7,,37.5556393,126.9111004
755,스테이웰카페,서울특별시 마포구 백범로 152 공덕파크자이 101동 1F 12호,카페 / 디저트,만원 미만,5,,37.5451763,126.9475472
756,필로커피,서울특별시 마포구 마포대로12길 36 소담빌딩 1F,카페 / 디저트,만원 미만,5,,37.5472593,126.954618
757,마카롱롱롱,서울특별시 마포구 백범로 152 공덕파크자이 201동 10호,카페 / 디저트,만원 미만,10,,37.5451763,126.9475472
758,수수원,서울특별시 마포구 광성로6길 54,카페 / 디저트,만원 미만,5,,37.5476862,126.939648
759,쿠앙플,서울특별시 마포구 와우산로25길 19 1F,카페 / 디저트,만원 미만,6,,37.5541633,126.925837
760,아케이드커피,서울특별시 마포구 홍익로 23 4F,카페 / 디저트,만원 미만,4,,37.55424,126.9221939
761,카페누보,서울특별시 마포구 와우산로29마길 16,카페 / 디저트,만원 미만,3,,37.5554676,126.9263944
762,커피앤스쿱,서울특별시 마포구 월드컵로34길 14,카페 / 디저트,만원 미만,10,,37.5651479,126.9036013
763,아트라우드하우스,서울특별시 마포구 와우산로29가길 54-6 ,카페 / 디저트,만원 미만,6,,37.5540047,126.9266338
764,퍼머넌트해비탯,서울특별시 마포구 백범로15길 17,카페 / 디저트,만원 미만,4,,37.5482495,126.9430747
765,다과상사,서울특별시 마포구 대흥로 94 크로바빌딩,카페 / 디저트,만원 미만,7,,37.5480642,126.9423902
766,맥캔지커피,서울특별시 마포구 토정로37길 47-6,카페 / 디저트,만원 미만,4,,37.543265,126.9470106
767,디어모먼트,서울특별시 마포구 대흥로 80-34 2F,카페 / 디저트,만원 미만,2,,37.5468008,126.941994
768,밀크팩토리,서울특별시 마포구 어울마당로 144 1F,카페 / 디저트,만원 미만,1,,37.556102,126.9260073
769,파크사이드,서울특별시 마포구 백범로16안길 31 ,카페 / 디저트,만원 미만,3,,37.5462808,126.9437905
770,카페포포크,서울특별시 마포구 마포대로16길 7-14,카페 / 디저트,만원 미만,4,,37.5510965,126.9567282
771,일야에스프레소,서울특별시 마포구 독막로 312,카페 / 디저트,만원 미만,3,,37.5434168,126.9472642
772,크라우드커피,서울특별시 마포구 백범로 71,카페 / 디저트,만원 미만,3,,37.5490235,126.9397615
773,카페리틀포레스트,서울특별시 마포구 모래내로1길 17,카페 / 디저트,만원 미만,1,,37.5649684,126.9034345
774,후니지니마카롱쿠키,서울특별시 마포구 월드컵북로27길 19,카페 / 디저트,만원 미만,2,,37.5666114,126.9089768
775,커스텀커피,서울특별시 마포구 월드컵로8길 40,카페 / 디저트,만원 미만,1,,37.5532358,126.9143779
776,라헬의부엌,서울특별시 마포구 와우산로29길 47 1-2F,카페 / 디저트,만원 미만,5,,37.5471001,126.9227788
777,이팡,서울특별시 마포구 와우산로35길 71 1F,카페 / 디저트,만원 미만,4,,37.5564032,126.9268269
778,시루모락,서울특별시 마포구 양화로10길 20 1F,카페 / 디저트,만원 미만,2,,37.5506521,126.9173736
779,오디프커피,서울특별시 마포구 백범로31길 8 202동 104호,카페 / 디저트,만원 미만,1,,37.5451058,126.9492355
780,카페삼,서울특별시 마포구 와우산로21길 19-11 B1,카페 / 디저트,만원 미만,4,,37.5519601,126.9229533
781,에이스타카페,서울특별시 마포구 광성로4길 11 1F,카페 / 디저트,만원 미만,2,,37.5493627,126.9375012
782,커피브레이크,서울특별시 마포구 백범로 29,카페 / 디저트,만원 미만,3,,37.5520811,126.9376969
783,커피앤,서울특별시 마포구 월드컵북로 224 청화상가 1F,카페 / 디저트,만원 미만,2,,37.5697553,126.9043933
784,보스포러스,서울특별시 마포구 마포대로 115-12 상가동 1F 103-104호,카페 / 디저트,만원 미만,1,,37.5467117,126.9509874
785,커피향깊은그한옥,서울특별시 마포구 백범로24길 1-10,카페 / 디저트,만원 미만,5,,37.5457463,126.9453835
786,술탄커피,서울특별시 마포구 백범로 89-4,카페 / 디저트,만원 미만,5,,37.548277,126.9417219
787,와플칸,서울특별시 마포구 백범로 115 1F 중앙,카페 / 디저트,만원 미만,1,,37.5471333,126.9441078
788,테이스티,서울특별시 마포구 마포대로4다길 31,카페 / 디저트,만원 미만,1,,37.5359028,126.9444264
789,카페고마워,서울특별시 마포구 마포대로14길 18,카페 / 디저트,만원 미만,3,,37.5481881,126.956539
790,파도,서울특별시 마포구 양화로6길 57-14,카페 / 디저트,만원 미만,3,,37.5490567,126.9179987
791,라드,서울특별시 마포구 잔다리로3안길 23,카페 / 디저트,만원 미만,3,,37.5506645,126.9198077
792,마플리,서울특별시 마포구 월드컵북로44길 50 1F,카페 / 디저트,만원 미만,2,,37.5768557,126.8948867
793,골든스푼,서울특별시 마포구 마포대로4길 12 2F,카페 / 디저트,만원 미만,2,,37.5387401,126.9462188
794,퍼프,서울특별시 마포구 와우산로29다길 10,카페 / 디저트,만원 미만,2,,37.5550833,126.9276302
795,더빈마켓,서울특별시 마포구 성미산로 21-1 제일빌딩 1F,카페 / 디저트,만원 미만,1,,37.5586315,126.9105974
796,스필더빈스,서울특별시 마포구 성미산로 11  1F,카페 / 디저트,만원 미만,1,,37.55838079999999,126.9093968
797,파이앤브라우니,서울특별시 마포구 창전로 45 서강한화오벨리스크 101동 109호,카페 / 디저트,만원 미만,1,,37.5465423,126.9317948
798,런이트,서울특별시 마포구 매봉산로2안길 12-9 2F,카페 / 디저트,만원 미만,1,,37.5779863,126.8941907
799,트래머,서울특별시 마포구 백범로16안길 9 B1,카페 / 디저트,만원 미만,1,,37.5465822,126.9426286
800,튤립제과,서울특별시 마포구 서강로11길 15 1F,카페 / 디저트,만원 미만,1,,37.5533782,126.9325618
801,멧라운지,서울특별시 마포구 어울마당로5길 42 1F,카페 / 디저트,만원 미만,3,,37.5498392,126.9184333
802,치키차카초코,서울특별시 마포구 잔다리로 40 1F,카페 / 디저트,만원 미만,3,,37.5519122,126.9192884
803,벨라쿠키,서울특별시 마포구 독막로7길 57  1F,카페 / 디저트,만원 미만,2,,37.5503215,126.9199349
804,나팔꽃,서울특별시 마포구 독막로 147-14,카페 / 디저트,만원 미만,2,,37.54812039999999,126.9304403
805,하바나인디클럽,서울특별시 마포구 백범로16안길 29,카페 / 디저트,만원 미만,1,,37.5462754,126.9436932
806,팬케이크샵커피,서울특별시 마포구 월드컵북로42라길 3 1F,카페 / 디저트,만원 미만,1,,37.5755086,126.8968107
807,달쏘,서울특별시 마포구 서강대길 40 마포자이2차아파트 상가동 104호,카페 / 디저트,만원 미만,1,,37.548931,126.942663
808,미지엄,서울특별시 마포구 성암로 205,카페 / 디저트,만원 미만,4,,37.5777812,126.8967285
809,스타벅스리저브,서울특별시 마포구 양화로 125,카페 / 디저트,만원 미만,3,,37.5546884,126.9202895
810,와플샵,서울특별시 마포구 마포대로 68,카페 / 디저트,만원 미만,2,,37.5412413,126.9489446
811,Slit,서울특별시 마포구 와우산로21길 21-12 1F,카페 / 디저트,만원 미만,1,,37.5519061,126.922274
812,마이파리,서울특별시 마포구 월드컵북로 396 누리꿈스퀘어 B1058호,카페 / 디저트,만원 미만,2,,37.579396,126.8897942
813,디저트생각,서울특별시 마포구 성암로 219-3 1F,카페 / 디저트,만원 미만,1,,37.5786369,126.8953494
814,마리웨일237,서울특별시 마포구 월드컵로 240,카페 / 디저트,만원 미만,2,,37.5677584,126.8981147
815,머씨커피,서울특별시 마포구 양화로8길 32-10,카페 / 디저트,만원 미만,2,,37.5494697,126.9159659
816,79파운야드,서울특별시 마포구 광성로6길 10  1F,카페 / 디저트,만원 미만,2,,37.5492692,126.938125
817,너구리베이글,서울특별시 마포구 양화로6길 49,카페 / 디저트,만원 미만,2,,37.54886339999999,126.9169581
818,썹커피,서울특별시 마포구 양화로10길 55 B1,카페 / 디저트,만원 미만,1,,37.5499638,126.9192441
819,준바이누아네,서울특별시 마포구 광성로 27 1F,카페 / 디저트,만원 미만,1,,37.5499683,126.9362104
820,대가호떡,서울특별시 마포구 매봉산로2안길 12-9 ,카페 / 디저트,만원 미만,1,,37.5779863,126.8941907
821,아지트리,서울특별시 마포구 양화로15길 12,카페 / 디저트,만원 미만,1,,37.5545396,126.919384
822,구대회커피,서울특별시 마포구 창전로2길 9 1F,카페 / 디저트,만원 미만,1,,37.5485513,126.9334568
823,뜨랑블랑,서울특별시 마포구 마포대로4나길 42,카페 / 디저트,만원 미만,1,,37.53738269999999,126.9452682
824,행복커피,서울특별시 마포구 월드컵북로54길 25 상암DMC푸르지오시티 오피스텔동 217호,카페 / 디저트,만원 미만,1,,37.5815202,126.8891184
825,카페쁘띠가든,서울특별시 마포구 와우산로29길 20,카페 / 디저트,만원 미만,2,,37.5550954,126.9288647
826,커피는여기,서울특별시 마포구 백범로 152 공덕파크자이,카페 / 디저트,만원 미만,1,,37.5451763,126.9475472
827,홍콩다방,서울특별시 마포구 백범로 152 1F,카페 / 디저트,만원 미만,2,,37.5451763,126.9475472
828,숭례문떡명가,서울특별시 마포구 만리재옛길 14  1F,카페 / 디저트,만원 미만,2,,37.54534880000001,126.9549932
829,토란주인,서울특별시 마포구 홍익로2길 43,카페 / 디저트,만원 미만,1,,37.55542,126.9245299
830,래핑포레스트,서울특별시 마포구 잔다리로6길 40-8 2F,카페 / 디저트,만원 미만,1,,37.5519655,126.9212715
831,어송포유,서울특별시 마포구 만리재로 85  2F,카페 / 디저트,만원 미만,1,,37.5482629,126.9587889
832,카페오디디오,서울특별시 마포구 마포대로11길 94  1F,카페 / 디저트,만원 미만,1,,37.5489042,126.9490984
833,카페모아나,서울특별시 마포구 마포대로 173 현대하이엘 오피스텔 1F,카페 / 디저트,만원 미만,1,,37.5498579,126.9544187
834,와이즈 세븐,서울특별시 마포구 백범로 205 마포펜트라우스 102동 B1 233호,카페 / 디저트,만원 미만,2,,37.5433361,126.954004
835,홈스타일,서울특별시 마포구 광성로 27,카페 / 디저트,만원 미만,2,,37.5499827,126.9361151
836,홍콩다방,서울특별시 마포구 와우산로21길 14,카페 / 디저트,만원 미만,2,,37.5524438,126.9231365
837,만리커피,서울특별시 마포구 만리재옛길 47-1,카페 / 디저트,만원 미만,1,,37.5478595,126.9566715
838,라운지엑스,서울특별시 마포구 마포대로 122 1F,카페 / 디저트,만원 미만,1,,37.5453577,126.9525465
839,인더시티,서울특별시 마포구 도화2길 28 1F,카페 / 디저트,만원 미만,1,,37.5393638,126.9493783
840,파우스 디멘션,서울특별시 마포구 양화로12길 16-12 1F,카페 / 디저트,만원 미만,1,,37.5514027,126.9184526
841,쿠도스 커피로스터즈,서울특별시 마포구 마포대로14길 4,카페 / 디저트,만원 미만,1,,37.5485923,126.9550701
842,카페달토끼,서울특별시 마포구 월드컵북로44길 35-8,카페 / 디저트,만원 미만,2,,37.5760346,126.895149
843,거북이다방,서울특별시 마포구 마포대로12길 22,카페 / 디저트,만원 미만,2,,37.547916,126.954705
844,마롱케이크,서울특별시 마포구 월드컵북로30길 13 1F,카페 / 디저트,만원 미만,2,,37.5694501,126.9080502
845,로스팅마스터즈,서울특별시 마포구 양화로7길 53 1F,카페 / 디저트,만원 미만,2,,37.5528646,126.913694
846,컴포즈커피,서울특별시 마포구 백범로 133 1F,카페 / 디저트,만원 미만,1,,37.5462821,126.9459553
847,그레이허니로스터리,서울특별시 마포구 삼개로1길 7,카페 / 디저트,만원 미만,1,,37.5392387,126.9479735
848,디어라이프,서울특별시 마포구 양화로12길 16-9 B1,카페 / 디저트,만원 미만,1,,37.5516384,126.9186088
849,구름속에커피집,서울특별시 마포구 와우산로29가길 15,카페 / 디저트,만원 미만,1,,37.5541544,126.9285285
850,토리라운지,서울특별시 마포구 와우산로29길 31 2F,카페 / 디저트,만원 미만,1,,37.5551466,126.9281476
851,호이차,서울특별시 마포구 홍익로3길 39 2F,카페 / 디저트,만원 미만,1,,37.5526218,126.9216038
852,콩그레이츠,서울특별시 마포구 성미산로1길 15 1F,카페 / 디저트,만원 미만,1,,37.558707,126.9082342
853,물결한강,서울특별시 마포구 마포나루길 296,카페 / 디저트,만원 미만,1,,37.5605891,126.8859375
854,빵쌀롱,서울특별시 마포구 백범로 131 1F,카페 / 디저트,만원 미만,1,,37.5463535,126.945771
855,컵사이즈,서울특별시 마포구 서강로11길 35 1F,카페 / 디저트,만원 미만,1,,37.5538734,126.9318237
856,행복한베이커리&카페,서울특별시 마포구 월드컵북로 494  푸르메재단넥슨어린이재활병원,카페 / 디저트,만원 미만,1,,37.5697271,126.9029931
857,스트레토,서울특별시 마포구 마포대로12길 29-1,카페 / 디저트,만원 미만,3,,37.5474652,126.954881
858,더메리어,서울특별시 마포구 양화로8길 17-25 1F,카페 / 디저트,만원 미만,2,,37.5505706,126.9172265
859,캡커피,서울특별시 마포구 백범로 152 공덕파크자이 102동 22호,카페 / 디저트,만원 미만,2,,37.5451763,126.9475472
860,더앨리,서울특별시 마포구 어울마당로 88,카페 / 디저트,만원 미만,2,,37.5528305,126.9218713
861,스타벅스,서울특별시 마포구 월드컵북로 375 DMC 이안상암1단지 102-202호,카페 / 디저트,만원 미만,2,,37.5773051,126.8906358
862,너프,서울특별시 마포구 어울마당로5길 50 1F 201호,카페 / 디저트,만원 미만,2,,37.54998459999999,126.9180793
863,평범한카페 마음,서울특별시 마포구 상암산로1길 69 105호,카페 / 디저트,만원 미만,2,,37.5801052,126.8834413
864,카페보이드,서울특별시 마포구 월드컵북로12안길 35,카페 / 디저트,만원 미만,1,,37.563136,126.914241
865,퀸카롱,서울특별시 마포구 월드컵북로 434 상암 IT Tower 109호,카페 / 디저트,만원 미만,1,,37.5813924,126.885617
866,스타벅스,서울특별시 마포구 백범로 212 대우 월드마크마포,카페 / 디저트,만원 미만,1,,37.5424268,126.9533694
867,썸머브리즈,서울특별시 마포구 백범로24길 9 1F,카페 / 디저트,만원 미만,1,,37.54592239999999,126.9452225
868,스타벅스,서울특별시 마포구 백범로 35 서강대학교 B1 104-105호,카페 / 디저트,만원 미만,1,,37.5513353,126.9407371
869,포니테일,서울특별시 마포구 광성로6길 36 1F,카페 / 디저트,만원 미만,1,,37.5482583,126.9390367
870,카페 대흥,서울특별시 마포구 백범로16길 16 1F,카페 / 디저트,만원 미만,1,,37.5469295,126.9420759
871,핑크스크레페팬케익,서울특별시 마포구 어울마당로 136-1 1F,카페 / 디저트,만원 미만,1,,37.5559997,126.9251622
872,버티컬커피,서울특별시 마포구 어울마당로 134 3F,카페 / 디저트,만원 미만,1,,37.5558645,126.9248574
873,블루블루엣,서울특별시 마포구 백범로31길 7 공덕sk리더스뷰 B103,카페 / 디저트,만원 미만,1,,37.544777,126.9495535
874,베니케이크,서울특별시 마포구 와우산로29다길 11,카페 / 디저트,만원 미만,2,,37.5549477,126.9277838
875,비안빈,서울특별시 마포구 상암산로 76 YTN 뉴스퀘어,카페 / 디저트,만원 미만,2,,37.5791989,126.892349
876,로뎀나무밑,서울특별시 마포구 독막로 176 B1,카페 / 디저트,만원 미만,2,,37.5472096,126.9330448
877,만랩커피,서울특별시 마포구 마포대로 지하 33 113-1호,카페 / 디저트,만원 미만,2,,37.5458958,126.9515058
878,스튜디오123,서울특별시 마포구 마포대로16길 7-14,카페 / 디저트,만원 미만,2,,37.5510965,126.9567282
879,아이스클라우드,서울특별시 마포구 와우산로29바길 9,카페 / 디저트,만원 미만,2,,37.5558998,126.9262603
880,빈스앤와플,서울특별시 마포구 마포대로 109,카페 / 디저트,만원-2만원,1,,37.5448909,126.9506066
881,베티케이크,서울특별시 마포구 성암로 209 1F,카페 / 디저트,만원-2만원,2,,37.57807469999999,126.8964163
882,미스터힐링,서울특별시 마포구 도화길 24 3F,카페 / 디저트,만원-2만원,2,,37.5404016,126.9487436
883,디니케이크,서울특별시 마포구 만리재로 74  상가2동 214호,카페 / 디저트,3만원-4만원,1,,37.5464743,126.9581687
884,에딕티,서울특별시 중구 명동4길 15 1F,카페 / 디저트,만원 미만,8,4.3,37.5629173,126.9838081
885,코인,서울특별시 중구 명동6길 10,카페 / 디저트,만원 미만,57,4.0,37.5628272,126.9841229
886,언톨드스위츠,서울특별시 중구 남대문로 68-1,카페 / 디저트,만원 미만,26,4.0,37.5631995,126.9822547
887,가배도,서울특별시 중구 퇴계로18길 10,카페 / 디저트,만원 미만,7,4.0,37.5603823,126.9850163
888,헤베커피,서울특별시 중구 필동로 32 낙원빌딩 1F,카페 / 디저트,만원 미만,10,3.9,37.558729,126.9959847
889,베이크,서울특별시 중구 남대문로 81 롯데백화점 본점 B1,카페 / 디저트,만원 미만,34,3.9,37.5647202,126.9817016
890,홍만당,서울특별시 중구 명동8길 11-6 1F,카페 / 디저트,만원 미만,12,3.9,37.5631219,126.9849622
891,오르소에스프레소바,서울특별시 용산구 두텁바위로1길 107 105호,카페 / 디저트,만원 미만,4,3.9,37.5488139,126.9759443
892,태극당,서울특별시 중구 동호로24길 7,카페 / 디저트,만원 미만,94,3.8,37.55950929999999,127.0050347
893,에쎄레젤라또,서울특별시 중구 명동길 74-3 명동성당 B1,카페 / 디저트,만원 미만,28,3.8,37.563177,126.9873604
894,플러피클라우드,서울특별시 용산구 두텁바위로 59-1 2F,카페 / 디저트,만원 미만,8,3.8,37.5460922,126.9788876
895,리사르커피,서울특별시 중구 명동8가길 58 ,카페 / 디저트,만원 미만,4,3.8,37.5617414,126.9882011
896,위고에빅토르,서울특별시 중구 남대문로 81 롯데백화점 본점 B1,카페 / 디저트,만원 미만,36,3.7,37.5647202,126.9817016
897,더스팟패뷸러스,서울특별시 중구 명동2길 26 2F,카페 / 디저트,만원 미만,11,3.7,37.5621715,126.9824736
898,크레마디몬타냐,서울특별시 중구 퇴계로 77 신세계백화점 본점 B1,카페 / 디저트,만원 미만,21,3.7,37.5603075,126.9808306
899,After Jerk Off,서울특별시 중구 수표로 42-21 4F,카페 / 디저트,만원 미만,17,3.6,37.5650016,126.9904423
900,티라펠리체,서울특별시 중구 남대문로 81 롯데백화점 본점 B1,카페 / 디저트,만원 미만,16,3.6,37.5647202,126.9817016
901,무니,서울특별시 용산구 신흥로20길 37,카페 / 디저트,만원 미만,7,3.6,37.5471673,126.9839213
902,MWM,서울특별시 중구 수표로 35-1 4F,카페 / 디저트,만원 미만,9,3.5,37.5643895,126.9898824
903,크림시크,서울특별시 중구 명동7길 13,카페 / 디저트,만원 미만,7,3.5,37.5642997,126.9839286
904,몰또이탈리안에스프레소바,서울특별시 중구 명동길 73,카페 / 디저트,만원 미만,27,3.4,37.5642938,126.9861857
905,10 꼬르소꼬모,서울특별시 중구 남대문로 73 5F,카페 / 디저트,만원 미만,8,3.4,37.56415200000001,126.981643
906,파운즈,서울특별시 용산구 두텁바위로38길 29-17 1F,카페 / 디저트,만원 미만,6,3.4,37.5473817,126.9839217
907,루프트커피,서울특별시 중구 삼일대로 308 조양빌딩 1F,카페 / 디저트,만원 미만,14,3.2,37.5620722,126.9892674
908,마뫼,서울특별시 중구 소파로 41,카페 / 디저트,만원 미만,8,3.2,37.5551372,126.9813401
909,딸깍발이,서울특별시 중구 서애로 18-9,카페 / 디저트,만원 미만,9,,37.5609054,126.9970908
910,가무,서울특별시 중구 명동4길 16,카페 / 디저트,만원 미만,7,,37.5629552,126.9836027
911,핑크풀카페,서울특별시 중구 명동8길 37-8 스타일난다핑크호텔,카페 / 디저트,만원 미만,2,,37.5619608,126.9852632
912,원스쿠키즈,서울특별시 용산구 신흥로36길 7 B1,카페 / 디저트,만원 미만,4,,37.5463747,126.9820818
913,행복이가득한집,서울특별시 용산구 후암로 21-2 1F,카페 / 디저트,만원 미만,4,,37.5476882,126.9777806
914,케이코쇼텐,서울특별시 중구 퇴계로24길 12-1,카페 / 디저트,만원 미만,6,,37.5603385,126.9872568
915,빈스빈스,서울특별시 중구 명동8나길 10,카페 / 디저트,만원 미만,3,,37.5616553,126.9842622
916,오이스터,서울특별시 용산구 두텁바위로 108,카페 / 디저트,만원 미만,3,,37.5485881,126.982338
917,카페드파리,서울특별시 중구 명동10길 40 2-3F,카페 / 디저트,만원 미만,2,,37.56201,126.985593
918,허니버터아몬드 앤 프렌즈,서울특별시 중구 퇴계로 123,카페 / 디저트,만원 미만,3,,37.5612169,126.9853536
919,바켄,서울특별시 중구 삼일대로 343 2F,카페 / 디저트,만원 미만,3,,37.56525329999999,126.9873193
920,로이터,서울특별시 중구 필동로5길 7,카페 / 디저트,만원 미만,4,,37.55665800000001,126.9963633
921,스타벅스,서울특별시 중구 퇴계로 100 스테이트타워 남산,카페 / 디저트,만원 미만,2,,37.5602013,126.9829327
922,선데이사운즈,서울특별시 용산구 두텁바위로37길 6 1F,카페 / 디저트,만원 미만,2,,37.5473908,126.981527
923,폴바셋,서울특별시 중구 남대문로 81 롯데백화점 본점 B1,카페 / 디저트,만원 미만,3,,37.5647202,126.9817016
924,커피리브레,서울특별시 중구 명동길 74 102호,카페 / 디저트,만원 미만,4,,37.5632533,126.9868325
925,Cup Of Tea,서울특별시 중구 퇴계로 159-6 하얀빌딩 5F,카페 / 디저트,만원 미만,2,,37.5616107,126.9898792
926,카페 남산아래,서울특별시 중구 소파로 129,카페 / 디저트,만원 미만,3,,37.5588341,126.9869818
927,뵈르 누아제트,서울특별시 중구 퇴계로36가길 83 1F,카페 / 디저트,만원 미만,1,,37.5565404,126.9953508
928,홍철책빵,서울특별시 용산구 한강대로102길 57,카페 / 디저트,만원 미만,5,,37.5493888,126.9752201
929,케이키 (휴업중),서울특별시 용산구 후암로48길 17,카페 / 디저트,만원 미만,1,,37.5528011,126.9768925
930,해피레몬플러스,서울특별시 중구 명동9길 20,카페 / 디저트,만원 미만,4,,37.5647253,126.9848046
931,누시,서울특별시 용산구 소월로2길 17 1F,카페 / 디저트,만원 미만,3,,37.5542194,126.9766875
932,몽슈슈,서울특별시 중구 퇴계로 77 신세계백화점 본점 B1,카페 / 디저트,만원 미만,2,,37.5603075,126.9808306
933,루아르커피바,서울특별시 중구 소공로 96,카페 / 디저트,만원 미만,1,,37.5635078,126.9800818
934,전광수커피하우스,서울특별시 중구 명동길 74,카페 / 디저트,만원 미만,3,,37.5632533,126.9868325
935,아티제,서울특별시 중구 삼일대로 343 대신파이낸스센터 1F,카페 / 디저트,만원 미만,2,,37.5650766,126.9869552
936,커피광,서울특별시 중구 삼일대로 330 ,카페 / 디저트,만원 미만,1,,37.5642734,126.988314
937,공차,서울특별시 중구 명동7길 12-1,카페 / 디저트,만원 미만,6,,37.5643042,126.9844537
938,빌리엔젤,서울특별시 중구 명동7길 16,카페 / 디저트,만원 미만,2,,37.564433,126.9844486
939,샵도노커피,서울특별시 용산구 두텁바위로 81-2,카페 / 디저트,만원 미만,3,,37.5467726,126.9808825
940,스타벅스,서울특별시 중구 소공로 112,카페 / 디저트,만원 미만,2,,37.5636754,126.9794536
941,서향가비,서울특별시 중구 남대문로 52-1,카페 / 디저트,만원 미만,2,,37.5620525,126.9816353
942,유월커피,서울특별시 중구 소공로 96 로컬스티치,카페 / 디저트,만원 미만,2,,37.5635078,126.9800818
943,만랩나미브,서울특별시 중구 마른내로 18 1F,카페 / 디저트,만원 미만,2,,37.5645989,126.9897098
944,후암연립,서울특별시 용산구 두텁바위로1길 104,카페 / 디저트,만원 미만,1,,37.5483725,126.976059
945,어스돔,서울특별시 중구 퇴계로36가길 46  1F,카페 / 디저트,만원 미만,1,,37.5582547,126.9954195
946,카페오랑쥬,서울특별시 중구 퇴계로36길 32,카페 / 디저트,만원 미만,3,,37.5603132,126.99505
947,스타벅스,서울특별시 중구 명동길 60,카페 / 디저트,만원 미만,2,,37.56369919999999,126.9857659
948,카페와플온,서울특별시 중구 명동10길 7-3,카페 / 디저트,만원 미만,1,,37.5634894,126.9854677
949,로투스,서울특별시 중구 삼일대로9길 6 101호,카페 / 디저트,만원 미만,1,,37.5636202,126.9877953
950,유아히어,서울특별시 중구 명동9길 23 한양빌딩,카페 / 디저트,만원 미만,1,,37.5648596,126.9844949
951,몽샹82,서울특별시 중구 남대문로 81 롯데백화점 본점 B1,카페 / 디저트,만원 미만,2,,37.5647202,126.9817016
952,할리스커피,서울특별시 중구 퇴계로36길 2,카페 / 디저트,만원 미만,1,,37.5602838,126.9936084
953,나리꼬모,서울특별시 중구 을지로 30,카페 / 디저트,만원 미만,1,,37.5649903,126.981369
954,토츠오츠,서울특별시 중구 퇴계로 100,카페 / 디저트,만원 미만,3,,37.5602013,126.9829327
955,레드리프커피팩토리,서울특별시 용산구 후암로28길 27 코오롱빌라,카페 / 디저트,만원 미만,1,,37.5497919,126.9788937
956,카페루체,서울특별시 중구 퇴계로20나길 10 4F,카페 / 디저트,만원 미만,1,,37.5586928,126.9855293
957,고양이놀이터,서울특별시 중구 명동8길 37-14,카페 / 디저트,만원 미만,1,,37.5619369,126.9854729
958,공사공삼,서울특별시 중구 퇴계로44길 28,카페 / 디저트,만원 미만,1,,37.56079330000001,126.9966271
959,더컵,서울특별시 중구 명동3길 17,카페 / 디저트,만원 미만,2,,37.5644861,126.9833997
960,크리스피크림도넛,서울특별시 중구 남대문로 81 롯데백화점 본점 B1,카페 / 디저트,만원 미만,2,,37.5647202,126.9817016
961,레드망고,서울특별시 중구 남대문로 73 롯데백화점,카페 / 디저트,만원 미만,1,,37.56415200000001,126.981643
962,쩐주단,서울특별시 중구 명동7길 14,카페 / 디저트,만원 미만,1,,37.5643512,126.9844667
963,레드애플,서울특별시 중구 을지로 30 롯데백화점 본점 B1,카페 / 디저트,만원 미만,2,,37.5649903,126.981369
964,경기떡집,서울특별시 중구 남대문로 81,카페 / 디저트,만원 미만,2,,37.5647202,126.9817016
965,고디바초콜릿,서울특별시 중구 남대문로 81 롯데백화점 본점 B1,카페 / 디저트,만원 미만,1,,37.5647202,126.9817016
966,폴바셋,서울특별시 중구 퇴계로 77 신세계백화점 본점 B1,카페 / 디저트,만원 미만,1,,37.5603075,126.9808306
967,카페 오아시아,서울특별시 중구 소파로 143-1,카페 / 디저트,만원 미만,1,,37.5598803,126.9880463
968,비스테까,서울특별시 중구 남대문로 81 롯데백화점 본점 B1,카페 / 디저트,만원 미만,1,,37.5647202,126.9817016
969,52LAB,서울특별시 중구 퇴계로14길 19,카페 / 디저트,만원 미만,1,,37.5596498,126.9837688
970,투썸플레이스,서울특별시 중구 퇴계로 137 1F,카페 / 디저트,만원 미만,1,,37.5609724,126.9945971
971,파스퇴르밀크바,서울특별시 중구 남대문로 81 롯데백화점 본점 B1,카페 / 디저트,만원 미만,3,,37.5647202,126.9817016
972,투썸플레이스,서울특별시 중구 퇴계로18길 13,카페 / 디저트,만원 미만,2,,37.5601669,126.9856372
973,스타벅스,서울특별시 중구 퇴계로 101,카페 / 디저트,만원 미만,2,,37.5608244,126.9830929
974,스타벅스,서울특별시 중구 을지로 50,카페 / 디저트,만원 미만,1,,37.5655809,126.9832977
975,백미당,서울특별시 중구 남대문로 81 롯데백화점 본점 B1,카페 / 디저트,만원 미만,2,,37.5647202,126.9817016
976,그레인즈쿠키,서울특별시 중구 남대문로 81 롯데백화점 본점 B1,카페 / 디저트,만원 미만,1,,37.5647202,126.9817016
977,슈퍼커피,서울특별시 중구 을지로 54-1,카페 / 디저트,만원 미만,1,,37.565872,126.9838269
978,아리스타커피,서울특별시 중구 수표로 15-1,카페 / 디저트,만원 미만,1,,37.5626397,126.9901946
979,심플리주스,서울특별시 중구 퇴계로 77 신세계백화점 본점 B1,카페 / 디저트,만원 미만,1,,37.5603075,126.9808306
980,폴바셋,서울특별시 중구 남대문로 81 롯데백화점 본점 2F,카페 / 디저트,만원 미만,1,,37.5647202,126.9817016
981,학화호도과자,서울특별시 중구 남대문로 52-13,카페 / 디저트,만원 미만,1,,37.5621715,126.9824736
982,주케이크,서울특별시 중구 삼일대로 304 황실빌딩 5F,카페 / 디저트,만원 미만,1,,37.5617958,126.989193
983,힐탑 카페,서울특별시 중구 퇴계로20나길 42,카페 / 디저트,만원 미만,1,,37.5570868,126.985173
984,미니멀 커피,서울특별시 용산구 두텁바위로1길 61 1F,카페 / 디저트,만원 미만,1,,37.5466859,126.975239
985,이도아뜰리에,서울특별시 중구 을지로 30 롯데백화점 명동 8F,카페 / 디저트,만원 미만,1,,37.5649903,126.981369
986,카페 동심,서울특별시 중구 퇴계로20길 24 4F,카페 / 디저트,만원 미만,1,,37.5591979,126.9855892
987,히코코커피,서울특별시 중구 남대문로 73 롯데백화점 본점 에비뉴엘 6F,카페 / 디저트,만원 미만,1,,37.5641754,126.9817718
988,루시카토,서울특별시 중구 남대문로 81 롯데백화점 본점 B1,카페 / 디저트,만원 미만,1,,37.5647202,126.9817016
989,튤립커피,서울특별시 중구 명동3길 23 3F,카페 / 디저트,만원 미만,1,,37.5647196,126.9834056
990,에맥앤볼리오스,서울특별시 중구 명동8가길 22,카페 / 디저트,만원 미만,1,,37.5615529,126.9861911
991,이디야커피,서울특별시 중구 수표로 45,카페 / 디저트,만원 미만,1,,37.5652959,126.9895634
992,맨인커피,서울특별시 중구 세종대로18길 36,카페 / 디저트,만원 미만,1,,37.5637103,126.9791192
993,흑화당,서울특별시 중구 명동10길 40,카페 / 디저트,만원 미만,1,,37.56201,126.985593
994,센터커피 빅파일럿바,서울특별시 중구 을지로 30 5F,카페 / 디저트,만원 미만,1,,37.5649903,126.981369
995,소금다방,서울특별시 중구 을지로 30  B1,카페 / 디저트,만원 미만,1,,37.5649903,126.981369
996,모나미커피,서울특별시 중구 남대문로 52-5,카페 / 디저트,만원 미만,1,,37.5620722,126.9818207
997,도슨트,서울특별시 용산구 소월로2길 37-2,카페 / 디저트,만원 미만,2,,37.5533064,126.976657
998,아멜라떼,서울특별시 중구 퇴계로44길 28,카페 / 디저트,만원 미만,1,,37.56079330000001,126.9966271
999,남산커피집,서울특별시 중구 퇴계로20길 57,카페 / 디저트,만원 미만,1,,37.5577327,126.9867296
1000,명동커피,서울특별시 중구 명동길 81,카페 / 디저트,만원 미만,1,,37.5644309,126.9866151
1001,던킨도너츠,서울특별시 중구 삼일대로 340,카페 / 디저트,만원 미만,1,,37.5650049,126.9882022
1002,베키아에누보,서울특별시 중구 퇴계로 77 신세계백화점 본점 신관 B1,카페 / 디저트,만원-2만원,18,3.3,37.56025260000001,126.9807639
1003,홍밀밀,서울특별시 중구 명동길 74,카페 / 디저트,만원-2만원,4,,37.5632533,126.9868325
1004,더라이브러리,서울특별시 중구 동호로 249 서울신라호텔 1F,카페 / 디저트,2만원-3만원,106,4.3,37.5562855,127.0052953
1005,한상훈쉐프,서울특별시 중구 소공로 29,카페 / 디저트,2만원-3만원,7,,37.5579223,126.9827985
1006,아티제,서울특별시 중구 동호로 249 신라면세점 3F,카페 / 디저트,4만원 이상,2,,37.5571469,127.0076191
1007,도트블랭킷,서울특별시 종로구 윤보선길 22,카페 / 디저트,만원 미만,34,4.4,37.5769858,126.9840823
1008,톤티커피,서울특별시 종로구 북촌로 6-8,카페 / 디저트,만원 미만,14,4.3,37.5776031,126.9862917
1009,금옥당,서울특별시 종로구 인사동길 49,카페 / 디저트,만원 미만,11,4.3,37.5745213,126.9838508
1010,세루리안,서울특별시 종로구 인사동12길 17,카페 / 디저트,만원 미만,22,4.2,37.5747069,126.9849045
1011,반짝반짝빛나는,서울특별시 종로구 인사동길 28-1 2F,카페 / 디저트,만원 미만,50,4.1,37.5732431,126.9860961
1012,서울서둘째로잘하는집,서울특별시 종로구 삼청로 122-1,카페 / 디저트,만원 미만,68,4.1,37.5862055,126.9818215
1013,전통다원,서울특별시 종로구 인사동10길 11-4 경인미술관 내부,카페 / 디저트,만원 미만,20,4.1,37.5745581,126.9856232
1014,무에,서울특별시 종로구 북촌로8길 28 1F,카페 / 디저트,만원 미만,5,4.1,37.5808236,126.9866409
1015,런던베이글뮤지엄,서울특별시 종로구 북촌로4길 20,카페 / 디저트,만원 미만,44,4.0,37.5791432,126.9862176
1016,아름다운차박물관,서울특별시 종로구 인사동길 19-11,카페 / 디저트,만원 미만,10,4.0,37.5723329,126.9858696
1017,피케이엠가든카페,서울특별시 종로구 삼청로7길 40 Pkm 갤러리 2F,카페 / 디저트,만원 미만,17,4.0,37.5843611,126.9799411
1018,Lake 삼청,서울특별시 종로구 삼청로 22-9,카페 / 디저트,만원 미만,12,4.0,37.5778545,126.9802269
1019,솔트24,서울특별시 종로구 율곡로3길 75,카페 / 디저트,만원 미만,14,4.0,37.5789379,126.9820473
1020,카페 레이어드,서울특별시 종로구 북촌로2길 2-3,카페 / 디저트,만원 미만,125,3.9,37.5776998,126.9859145
1021,어니언,서울특별시 종로구 계동길 5,카페 / 디저트,만원 미만,76,3.9,37.5773379,126.9863689
1022,차마시는뜰,서울특별시 종로구 북촌로11나길 26,카페 / 디저트,만원 미만,36,3.9,37.5821492,126.9822617
1023,삼청동호떡,서울특별시 종로구 율곡로3길 82-6,카페 / 디저트,만원 미만,34,3.9,37.57916230000001,126.9824733
1024,그린마일커피,서울특별시 종로구 북촌로 64 1-2F,카페 / 디저트,만원 미만,25,3.9,37.5823513,126.9852219
1025,델픽,서울특별시 종로구 계동길 84-3,카페 / 디저트,만원 미만,17,3.9,37.5812096,126.986887
1026,블루보틀,서울특별시 종로구 삼청로2길 40-3,카페 / 디저트,만원 미만,9,3.9,37.580071,126.9809609
1027,땡스오트,서울특별시 종로구 북촌로 21-10,카페 / 디저트,만원 미만,17,3.9,37.5787535,126.9845892
1028,갤러리더스퀘어,서울특별시 종로구 계동길 128 2F 201호,카페 / 디저트,만원 미만,8,3.9,37.5829342,126.9869972
1029,와이엔,서울특별시 종로구 윤보선길 71,카페 / 디저트,만원 미만,11,3.9,37.5779108,126.9835156
1030,정애쿠키,서울특별시 종로구 계동길 76 1F,카페 / 디저트,만원 미만,8,3.9,37.5806423,126.9868245
1031,월영당,서울특별시 종로구 북촌로5길 62 ,카페 / 디저트,만원 미만,4,3.9,37.57989930000001,126.9816244
1032,로아상 서울,서울특별시 종로구 인사동3길 17-1,카페 / 디저트,만원 미만,4,3.9,37.5716131,126.9857786
1033,쏘리에스프레소바,서울특별시 종로구 계동길 63 1F,카페 / 디저트,만원 미만,4,3.9,37.5801317,126.9866423
1034,이채카페,서울특별시 종로구 북촌로 20-21,카페 / 디저트,만원 미만,4,3.9,37.5786358,126.9858894
1035,랜디스도넛,서울특별시 종로구 북촌로 3 1F,카페 / 디저트,만원 미만,5,3.9,37.5771154,126.9856451
1036,테라스꾸까,서울특별시 종로구 율곡로 1 2F,카페 / 디저트,만원 미만,14,3.8,37.5761912,126.9798183
1037,리틀버틀러,서울특별시 종로구 북촌로 8,카페 / 디저트,만원 미만,19,3.8,37.5775604,126.9859436
1038,토오베,서울특별시 종로구 인사동길 62-4,카페 / 디저트,만원 미만,7,3.8,37.5753002,126.9836942
1039,로우루프,서울특별시 종로구 북촌로 46-1 1F,카페 / 디저트,만원 미만,10,3.8,37.5808575,126.9852309
1040,부빙,서울특별시 종로구 북촌로7길 3-4,카페 / 디저트,만원 미만,6,3.8,37.5800601,126.9846111
1041,카페노티드,서울특별시 종로구 북촌로 6-3 1F,카페 / 디저트,만원 미만,37,3.7,37.5774613,126.9860468
1042,삼청빙수,서울특별시 종로구 삼청로 84-1 1F,카페 / 디저트,만원 미만,19,3.7,37.5829153,126.981975
1043,부쿠,서울특별시 종로구 인사동길 49,카페 / 디저트,만원 미만,16,3.7,37.5745213,126.9838508
1044,지유가오카핫초메,서울특별시 종로구 윤보선길 46,카페 / 디저트,만원 미만,9,3.7,37.57805980000001,126.983668
1045,카페트루어스,서울특별시 종로구 인사동길 11,카페 / 디저트,만원 미만,11,3.7,37.5717928,126.9867746
1046,담장옆에국화꽃,서울특별시 종로구 인사동길 49 2F 206호,카페 / 디저트,만원 미만,6,3.7,37.5745213,126.9838508
1047,하프커피,서울특별시 종로구 계동길 82,카페 / 디저트,만원 미만,7,3.7,37.5809396,126.9868205
1048,블루보틀,서울특별시 종로구 북촌로5길 76,카페 / 디저트,만원 미만,45,3.6,37.58011510000001,126.9808482
1049,커피방앗간,서울특별시 종로구 북촌로5가길 8-11,카페 / 디저트,만원 미만,24,3.6,37.5802805,126.9824672
1050,슬로우포레스트,서울특별시 종로구 삼청로5길 20,카페 / 디저트,만원 미만,9,3.6,37.5827787,126.9807621
1051,소진담,서울특별시 종로구 인사동길 49 5F,카페 / 디저트,만원 미만,12,3.6,37.5745213,126.9838508
1052,웅녀의신전 (휴업중) ,서울특별시 종로구 인사동길 17-1,카페 / 디저트,만원 미만,7,3.6,37.5723676,126.9864555
1053,한옥찻집,서울특별시 종로구 인사동12길 9,카페 / 디저트,만원 미만,10,3.5,37.5745701,126.9848192
1054,오설록티하우스,서울특별시 종로구 인사동길 45-1,카페 / 디저트,만원 미만,20,3.4,37.5741962,126.9842968
1055,자작나무이야기,서울특별시 종로구 율곡로1길 74-15,카페 / 디저트,만원 미만,14,3.4,37.5786342,126.9818307
1056,가배도,서울특별시 종로구 북촌로5길 56-8,카페 / 디저트,만원 미만,26,3.3,37.5798884,126.9821431
1057,씨플라밍고,서울특별시 종로구 북촌로5길 64,카페 / 디저트,만원 미만,13,3.3,37.5798978,126.9814512
1058,호아드 카페갤러리,서울특별시 종로구 율곡로1길 54-3,카페 / 디저트,만원 미만,9,3.2,37.5782503,126.9809913
1059,골목숲,서울특별시 종로구 삼청로 86-3,카페 / 디저트,만원 미만,6,3.2,37.5831656,126.9820543
1060,라디오M,서울특별시 종로구 삼청로2길 37-2,카페 / 디저트,만원 미만,9,3.0,37.5799159,126.9812607
1061,파티세리희원,서울특별시 종로구 북촌로6길 30,카페 / 디저트,만원 미만,9,,37.5802305,126.9864033
1062,슬로우파크,서울특별시 종로구 삼청로 141,카페 / 디저트,만원 미만,10,,37.5878712,126.9814762
1063,커피팩토리,서울특별시 종로구 북촌로5가길 17,카페 / 디저트,만원 미만,6,,37.5802699,126.9818752
1064,르프랑루프탑,서울특별시 종로구 인사동길 34-1 인사아트프라자 5-6F,카페 / 디저트,만원 미만,3,,37.5737858,126.9856087
1065,카페로쏘,서울특별시 종로구 삼청로 81-12,카페 / 디저트,만원 미만,5,,37.582836,126.9812357
1066,별다방미스리,서울특별시 종로구 인사동길 59 2F,카페 / 디저트,만원 미만,10,,37.5751012,126.9833935
1067,미러룸,서울특별시 종로구 삼청로2길 40,카페 / 디저트,만원 미만,7,,37.5800325,126.9810927
1068,달카페,서울특별시 종로구 삼청로 94-1,카페 / 디저트,만원 미만,7,,37.5837555,126.9820236
1069,카페죠꽁드,서울특별시 종로구 삼청로 90-3,카페 / 디저트,만원 미만,5,,37.58340099999999,126.9820805
1070,월하보이,서울특별시 종로구 북촌로5길 26,카페 / 디저트,만원 미만,3,,37.5794797,126.983548
1071,귀천,서울특별시 종로구 인사동14길 14,카페 / 디저트,만원 미만,3,,37.57474819999999,126.9848813
1072,도채비도반한찻집,서울특별시 종로구 인사동길 45,카페 / 디저트,만원 미만,4,,37.5741576,126.9844173
1073,오설록티하우스,서울특별시 종로구 삼청로 30,카페 / 디저트,만원 미만,6,,37.5829548,126.9810261
1074,47번가찻집,서울특별시 종로구 인사동길 47-9,카페 / 디저트,만원 미만,3,,37.5741524,126.9840245
1075,비밀정원,서울특별시 종로구 인사동길 30-1 2F,카페 / 디저트,만원 미만,6,,37.5733848,126.9859142
1076,한경헌,서울특별시 종로구 창덕궁길 170,카페 / 디저트,만원 미만,3,,37.5831332,126.9865575
1077,호중정원,서울특별시 종로구 삼청로2길 3-8 2F,카페 / 디저트,만원 미만,1,,37.5811875,126.9811811
1078,밀키요,서울특별시 종로구 팔판길 33,카페 / 디저트,만원 미만,2,,37.5832516,126.9811564
1079,카페 D_55,서울특별시 종로구 삼청로5길 5,카페 / 디저트,만원 미만,2,,37.5828725,126.9806183
1080,관훈카페,서울특별시 종로구 인사동9길 10-1,카페 / 디저트,만원 미만,3,,37.5738428,126.984374
1081,티테라피,서울특별시 종로구 윤보선길 74,카페 / 디저트,만원 미만,5,,37.5791336,126.9835289
1082,비담,서울특별시 종로구 북촌로8길 5,카페 / 디저트,만원 미만,5,,37.5810008,126.9854497
1083,카페수요일,서울특별시 종로구 인사동길 36,카페 / 디저트,만원 미만,8,,37.5736832,126.9854098
1084,카페포엠,서울특별시 종로구 북촌로5길 19-4,카페 / 디저트,만원 미만,6,,37.57920670000001,126.9838641
1085,또옹카페,서울특별시 종로구 인사동길 44,카페 / 디저트,만원 미만,2,,37.5741603,126.9848384
1086,카페브리진,서울특별시 종로구 삼청로 90-2 1F,카페 / 디저트,만원 미만,5,,37.5832701,126.981951
1087,옛찻집,서울특별시 종로구 인사동길 33-1,카페 / 디저트,만원 미만,3,,37.57346580000001,126.9853821
1088,연,서울특별시 종로구 삼청로 84-3,카페 / 디저트,만원 미만,3,,37.5829585,126.9820684
1089,카페이드라,서울특별시 종로구 윤보선길 18,카페 / 디저트,만원 미만,4,,37.5768919,126.9841673
1090,테라로사,서울특별시 종로구 삼청로 30 국립현대미술관 서울관 1F,카페 / 디저트,만원 미만,4,,37.5794383,126.9803584
1091,인사동찻집,서울특별시 종로구 인사동길 33-1,카페 / 디저트,만원 미만,1,,37.57346580000001,126.9853821
1092,카페진선,서울특별시 종로구 삼청로 59,카페 / 디저트,만원 미만,4,,37.5813606,126.9804599
1093,꽃담,서울특별시 종로구 인사동길 19-2 와담빌딩 2F,카페 / 디저트,만원 미만,1,,37.5723415,126.9863449
1094,카페헐리우드,서울특별시 종로구 인사동9길 16,카페 / 디저트,만원 미만,1,,37.5735938,126.9841363
1095,청호다원,서울특별시 종로구 우정국로 42,카페 / 디저트,만원 미만,1,,37.5726942,126.9832542
1096,고디바,서울특별시 종로구 삼청로 112,카페 / 디저트,만원 미만,5,,37.5853481,126.982182
1097,커피인뜨락,서울특별시 종로구 삼청로 75-9,카페 / 디저트,만원 미만,3,,37.5824069,126.9812087
1098,스몰하우스카페,서울특별시 종로구 율곡로1길 48,카페 / 디저트,만원 미만,2,,37.5779192,126.9809449
1099,슬로우스테디클럽,서울특별시 종로구 삼청로5길 17,카페 / 디저트,만원 미만,2,,37.5826087,126.9807916
1100,2134아멜리에,서울특별시 종로구 계동길 73-1,카페 / 디저트,만원 미만,2,,37.5805184,126.9866699
1101,열시꽃,서울특별시 종로구 인사동길 42-8,카페 / 디저트,만원 미만,1,,37.5741867,126.9852863
1102,고이커피,서울특별시 종로구 북촌로 64-2,카페 / 디저트,만원 미만,3,,37.5824351,126.9852219
1103,카페엘엔,서울특별시 종로구 북촌로5나길 5,카페 / 디저트,만원 미만,3,,37.5810952,126.9818674
1104,쿠키스,서울특별시 종로구 창덕궁1길 32 1F 1호,카페 / 디저트,만원 미만,2,,37.579436,126.9874703
1105,브랏트,서울특별시 종로구 북촌로5가길 28,카페 / 디저트,만원 미만,2,,37.5807422,126.9817816
1106,사람과나무,서울특별시 종로구 인사동길 50,카페 / 디저트,만원 미만,1,,37.5744848,126.9843291
1107,지대방,서울특별시 종로구 인사동길 33 2F,카페 / 디저트,만원 미만,6,,37.5734434,126.985499
1108,삼청동쿠크,서울특별시 종로구 윤보선길 35,카페 / 디저트,만원 미만,5,,37.5775227,126.983655
1109,신옛찻집,서울특별시 종로구 인사동길 47-8,카페 / 디저트,만원 미만,3,,37.5742179,126.9838901
1110,라운드오프,서울특별시 종로구 인사동5길 26,카페 / 디저트,만원 미만,4,,37.5725546,126.9848341
1111,카페두루,서울특별시 종로구 계동길 60,카페 / 디저트,만원 미만,2,,37.5799089,126.9868333
1112,앙시엔,서울특별시 종로구 계동길 5,카페 / 디저트,만원 미만,2,,37.5773379,126.9863689
1113,카페 수달,서울특별시 종로구 율곡로 49-14,카페 / 디저트,만원 미만,3,,37.5766275,126.9844313
1114,웰스커피,서울특별시 종로구 율곡로 36-1,카페 / 디저트,만원 미만,2,,37.5755236,126.9836923
1115,아이사구아,서울특별시 종로구 북촌로12길 6,카페 / 디저트,만원 미만,2,,37.5816793,126.9853397
1116,네마,서울특별시 종로구 삼청로 86-4 1F,카페 / 디저트,만원 미만,1,,37.5830602,126.982058
1117,커피펙토리글로보,서울특별시 종로구 삼청로2길 29-4,카페 / 디저트,만원 미만,1,,37.5803705,126.9817301
1118,포지티브,서울특별시 종로구 인사동길 49 안녕인사동 1F,카페 / 디저트,만원 미만,1,,37.5745329,126.9834556
1119,더블컵커피,서울특별시 종로구 창덕궁1길 35,카페 / 디저트,만원 미만,3,,37.5792292,126.9872127
1120,Floor for fiction,서울특별시 종로구 북촌로5가길 3 아원공방 3F,카페 / 디저트,만원 미만,3,,37.5797076,126.9821806
1121,카페레이서,서울특별시 종로구 북촌로 53,카페 / 디저트,만원 미만,2,,37.5817391,126.9846494
1122,모노치즈,서울특별시 종로구 창덕궁1길 29,카페 / 디저트,만원 미만,2,,37.5792298,126.9875909
1123,벨라쿠키,서울특별시 종로구 율곡로 61 1F,카페 / 디저트,만원 미만,1,,37.5768925,126.9859096
1124,Life Positive Studio,서울특별시 종로구 북촌로5길 74,카페 / 디저트,만원 미만,1,,37.5799666,126.9809714
1125,스타벅스,서울특별시 종로구 북촌로 5-1,카페 / 디저트,만원 미만,4,,37.5773379,126.9856353
1126,배스킨라빈스,서울특별시 종로구 북촌로 1,카페 / 디저트,만원 미만,1,,37.5769968,126.9857859
1127,카페지밥,서울특별시 종로구 북촌로 137-19,카페 / 디저트,만원 미만,1,,37.5869389,126.9823358
1128,소격동60,서울특별시 종로구 삼청로 54-16,카페 / 디저트,만원 미만,1,,37.5805614,126.9809825
1129,츄로101,서울특별시 종로구 삼청로 99,카페 / 디저트,만원 미만,3,,37.5842803,126.9818546
1130,오가다,서울특별시 종로구 인사동길 60,카페 / 디저트,만원 미만,1,,37.5752491,126.9836145
1131,매스커피,서울특별시 종로구 계동길 17,카페 / 디저트,만원 미만,1,,37.5780632,126.9865775
1132,레아,서울특별시 종로구 인사동길 51,카페 / 디저트,만원 미만,1,,37.5746815,126.9838385
1133,베르트,서울특별시 종로구 북촌로5길 15 1F,카페 / 디저트,만원 미만,1,,37.5792621,126.9840128
1134,빅스트로우,서울특별시 종로구 북촌로5길 6,카페 / 디저트,만원 미만,1,,37.5794518,126.9845888
1135,아꼬떼,서울특별시 종로구 계동길 5,카페 / 디저트,만원 미만,3,,37.5773379,126.9863689
1136,소소하게,서울특별시 종로구 율곡로1길 40-59,카페 / 디저트,만원 미만,2,,37.5780671,126.9813754
1137,담쟁이집,서울특별시 종로구 인사동11길 20,카페 / 디저트,만원 미만,1,,37.5738706,126.9836333
1138,카페얼티밋,서울특별시 종로구 계동길 57 1F,카페 / 디저트,만원 미만,1,,37.5798411,126.9865931
1139,카페호미,서울특별시 종로구 삼청로 22,카페 / 디저트,만원 미만,2,,37.5778747,126.9798564
1140,계동107,서울특별시 종로구 창덕궁1길 41,카페 / 디저트,만원 미만,1,,37.57922960000001,126.986838
1141,배스킨라빈스,서울특별시 종로구 율곡로3길 74-1,카페 / 디저트,만원 미만,1,,37.5789225,126.9822445
1142,꽃보담 플라워보자기아트,서울특별시 종로구 북촌로5길 19-15 1F,카페 / 디저트,만원 미만,1,,37.5790093,126.9842665
1143,즐거운찻집,서울특별시 종로구 인사동길 55-2 2F,카페 / 디저트,만원 미만,1,,37.574909,126.9835671
1144,브람스,서울특별시 종로구 율곡로 61,카페 / 디저트,만원 미만,3,,37.5768925,126.9859096
1145,커피빈,서울특별시 종로구 삼청로 109,카페 / 디저트,만원 미만,2,,37.5851049,126.9817731
1146,쿠크봉,서울특별시 종로구 인사동길 49 2F 13호,카페 / 디저트,만원 미만,2,,37.5745213,126.9838508
1147,감동칩스,서울특별시 종로구 율곡로3길 83,카페 / 디저트,만원 미만,2,,37.5793029,126.9820605
1148,자후커피,서울특별시 종로구 삼봉로 81 두산위브파빌리온 1F,카페 / 디저트,만원 미만,1,,37.5723555,126.9818018
1149,크렘브,서울특별시 종로구 계동길 62 1F,카페 / 디저트,만원 미만,2,,37.5801011,126.9868601
1150,아마스빈버블티,서울특별시 종로구 북촌로 2,카페 / 디저트,만원 미만,1,,37.5772154,126.9861656
1151,꽃이피움,서울특별시 종로구 우정국로 68 동덕빌딩 1F,카페 / 디저트,만원 미만,1,,37.5749469,126.9832643
1152,book&press,서울특별시 종로구 인사동길 7,카페 / 디저트,만원 미만,1,,37.5714435,126.9867046
1153,카페아이엠티,서울특별시 종로구 계동길 19,카페 / 디저트,만원 미만,2,,37.578227,126.9865538
1154,코런트,서울특별시 종로구 계동길 128 2F 202호,카페 / 디저트,만원 미만,1,,37.5829342,126.9869972
1155,자미당,서울특별시 종로구 북촌로 14,카페 / 디저트,만원 미만,1,,37.5779891,126.9857102
1156,흑화당,서울특별시 종로구 율곡로1길 74-13 1F,카페 / 디저트,만원 미만,1,,37.5786892,126.9818322
1157,아트마,서울특별시 종로구 율곡로 49-16  1F,카페 / 디저트,만원 미만,1,,37.5767519,126.9843379
1158,ten8,서울특별시 종로구 율곡로 65 ,카페 / 디저트,만원 미만,1,,37.5771346,126.9864067
1159,와플샵,서울특별시 종로구 계동길 5 ,카페 / 디저트,만원 미만,1,,37.5773379,126.9863689
1160,낙원떡집,서울특별시 종로구 인사동길 25,카페 / 디저트,만원 미만,1,,37.5729877,126.9860509
1161,데일리브라운,서울특별시 종로구 삼청로7길 37,카페 / 디저트,만원 미만,2,,37.5837135,126.9797632
1162,더베이크,서울특별시 종로구 인사동5길 38,카페 / 디저트,만원 미만,1,,37.5725465,126.9842003
1163,화동커피,서울특별시 종로구 율곡로3길 82,카페 / 디저트,만원 미만,1,,37.5792721,126.9822511
1164,널담은공간,서울특별시 종로구 삼청로 24 ,카페 / 디저트,만원 미만,1,,37.5780095,126.9798138
1165,스타벅스,서울특별시 종로구 인사동길 14,카페 / 디저트,만원 미만,0,,37.5721293,126.9870349
1166,로코랩,서울특별시 종로구 율곡로4길 51,카페 / 디저트,만원-2만원,11,3.4,37.5733179,126.9812906
1167,가화당,서울특별시 종로구 삼청로4길 16-1,카페 / 디저트,만원-2만원,1,,37.5822088,126.9820685
1168,파툼,서울특별시 종로구 삼청로 86-5,카페 / 디저트,만원-2만원,1,,37.5831673,126.9821471
1169,이분의일라운드,서울특별시 종로구 팔판길 40-20,카페 / 디저트,만원-2만원,1,,37.58323590000001,126.9815314
1170,나가사키카스테라,서울특별시 종로구 팔판길 36,카페 / 디저트,만원-2만원,1,,37.5833251,126.9813241
1171,망고랑,서울특별시 종로구 계동길 112,카페 / 디저트,만원-2만원,2,,37.582321,126.9869365
1172,카페 88번가,서울특별시 종로구 팔판길 12,카페 / 디저트,만원-2만원,1,,37.5823432,126.9809299
1173,가배랑솜,서울특별시 종로구 인사동길 37 2F,카페 / 디저트,만원-2만원,1,,37.5736334,126.9851704
1174,푸드떼,서울특별시 종로구 율곡로1길 40-37 ,카페 / 디저트,2만원-3만원,2,,37.5779471,126.9813521
1175,훈고링고브레드,서울특별시 마포구 잔다리로 130 2F,카페 / 디저트,만원 미만,64,4.0,37.5583489,126.9131741
1176,사월의물고기,서울특별시 마포구 성미산로 89 1F,카페 / 디저트,만원 미만,42,4.0,37.5615164,126.9194136
1177,토스티 서울 x horizon16,서울특별시 마포구 성미산로13길 107,카페 / 디저트,만원 미만,22,4.0,37.5656173,126.9159855
1178,칼라스커피 로스터스,서울특별시 마포구 월드컵북로16길 16 1F,카페 / 디저트,만원 미만,8,4.0,37.562788,126.9152942
1179,카페톤,서울특별시 마포구 성미산로1길 26 1F,카페 / 디저트,만원 미만,26,3.8,37.5591732,126.9080802
1180,보헤미안박이추커피,서울특별시 마포구 성암로 267,카페 / 디저트,만원 미만,7,3.5,37.5740931,126.9035854
1181,카페모임,서울특별시 마포구 매봉산로 72,카페 / 디저트,만원 미만,14,3.5,37.57500290000001,126.8907786
1182,홍콩다방,서울특별시 마포구 월드컵북로 132,카페 / 디저트,만원 미만,5,,37.5647103,126.9125961
1183,커피아람빈스,서울특별시 마포구 월드컵북로48길 57,카페 / 디저트,만원 미만,1,,37.5779769,126.8964675
1184,쇼콜라윰,서울특별시 마포구 월드컵북로7길 76-14,카페 / 디저트,만원 미만,8,,37.5583554,126.9134853
1185,레이브에스프레소바,서울특별시 마포구 성미산로1길 67,카페 / 디저트,만원 미만,4,,37.5606515,126.9064854
1186,엔타이스,서울특별시 마포구 성미산로 58 1F 101호,카페 / 디저트,만원 미만,6,,37.5592011,126.9147237
1187,너도 안녕,서울특별시 마포구 성암로15길 45,카페 / 디저트,만원 미만,2,,37.5768253,126.896549
1188,고디바,서울특별시 마포구 성암로 267 MBC Mall Park 1F,카페 / 디저트,만원 미만,1,,37.5805658,126.8907093
1189,도깨비커피집,서울특별시 마포구 동교로27길 80,카페 / 디저트,만원 미만,4,,37.5611195,126.9203348
1190,커피코트,서울특별시 마포구 월드컵북로 396 누리꿈스퀘어 1F,카페 / 디저트,만원 미만,3,,37.579396,126.8897942
1191,카마르,서울특별시 마포구 성미산로 34 덕산빌딩,카페 / 디저트,만원 미만,1,,37.5586304,126.9120382
1192,브래드비,서울특별시 마포구 월드컵북로 402,카페 / 디저트,만원 미만,6,,37.5801248,126.8889591
1193,투썸플레이스,서울특별시 마포구 월드컵로36길 14,카페 / 디저트,만원 미만,2,,37.5676047,126.9045677
1194,먼스 스컬프쳐,서울특별시 마포구 성산로2길 21-31,카페 / 디저트,만원 미만,2,,37.5632202,126.906372
1195,츄카롱,서울특별시 마포구 성암로13길 30-2,카페 / 디저트,만원 미만,1,,37.5766408,126.8967612
1196,폴바셋,서울특별시 마포구 성암로 267 MBC몰파크 103호,카페 / 디저트,만원 미만,2,,37.5740931,126.9035854
1197,카페무띠,서울특별시 마포구 매봉산로 45 KBS미디어센터,카페 / 디저트,만원 미만,1,,37.5763934,126.8909115
1198,모카리아,서울특별시 마포구 월드컵북로44길 76-12,카페 / 디저트,만원 미만,1,,37.5780177,126.8940781
1199,배스킨라빈스,서울특별시 마포구 월드컵로 150,카페 / 디저트,만원 미만,1,,37.5613343,126.9055971
1200,삼삼오오,서울특별시 마포구 월드컵북로12길 20 1F,카페 / 디저트,만원-2만원,2,,37.5617825,126.9157966
1201,빌리엔젤,서울특별시 마포구 매봉산로 75,카페 / 디저트,만원-2만원,2,,37.57500290000001,126.8907786
1202,올레무스,서울특별시 서대문구 연희로5길 58,카페 / 디저트,만원 미만,60,4.5,37.5652411,126.9266544
1203,디폴트벨류,서울특별시 서대문구 성산로 333 2F,카페 / 디저트,만원 미만,22,4.3,37.5661525,126.9273379
1204,아이덴티티커피랩,서울특별시 서대문구 모래내로 390 1F,카페 / 디저트,만원 미만,7,4.3,37.583523,126.938841
1205,커피가게동경,서울특별시 서대문구 연희맛로 23,카페 / 디저트,만원 미만,8,4.3,37.5671033,126.9296369
1206,에브리띵베이글,서울특별시 서대문구 연희로11길 29 1F,카페 / 디저트,만원 미만,35,4.2,37.567758,126.9295981
1207,비하인드리메인,서울특별시 서대문구 연희로11라길 10-6 101호,카페 / 디저트,만원 미만,27,4.2,37.568358,126.9302902
1208,프로토콜,서울특별시 서대문구 연희로 109 2F,카페 / 디저트,만원 미만,14,4.2,37.56775409999999,126.9313583
1209,매뉴팩트커피,서울특별시 서대문구 연희로11길 29,카페 / 디저트,만원 미만,94,4.1,37.567758,126.9295981
1210,오디너리핏,서울특별시 서대문구 연희로11가길 48-23 3F,카페 / 디저트,만원 미만,16,4.1,37.5670752,126.9269455
1211,행복감,서울특별시 서대문구 연희로11가길 51,카페 / 디저트,만원 미만,16,4.1,37.5663048,126.9275361
1212,카페위검,서울특별시 서대문구 연희로11가길 8 2F,카페 / 디저트,만원 미만,5,4.1,37.5678955,126.9291648
1213,컨시어지 커피,서울특별시 서대문구 증가로 1,카페 / 디저트,만원 미만,34,4.0,37.5686274,126.9318779
1214,스웨이커피스테이션,서울특별시 서대문구 연희로11길 61,카페 / 디저트,만원 미만,23,4.0,37.568952,126.9285226
1215,콜드레시피,서울특별시 서대문구 연희로11라길 2,카페 / 디저트,만원 미만,50,3.9,37.5679911,126.9296649
1216,금옥당,서울특별시 서대문구 연희로11라길 2,카페 / 디저트,만원 미만,34,3.9,37.5679911,126.9296649
1217,앤트러사이트,서울특별시 서대문구 연희로 135,카페 / 디저트,만원 미만,37,3.9,37.5696478,126.9328198
1218,노아스로스팅,서울특별시 서대문구 연희로 160 1F,카페 / 디저트,만원 미만,25,3.9,37.5713968,126.9349321
1219,ANNIV,서울특별시 서대문구 연희로11가길 8-8,카페 / 디저트,만원 미만,4,3.9,37.56809399999999,126.9289956
1220,낟더쌔임,서울특별시 서대문구 서소문로 61 1F,카페 / 디저트,만원 미만,8,3.9,37.5618749,126.9681265
1221,컬러드빈,서울특별시 서대문구 연희로11가길 8-8,카페 / 디저트,만원 미만,11,3.9,37.56809399999999,126.9289956
1222,푸어링아웃,서울특별시 서대문구 연희로11나길 7-7,카페 / 디저트,만원 미만,27,3.8,37.5672517,126.9281179
1223,카페129-11,서울특별시 서대문구 연희로11가길 20,카페 / 디저트,만원 미만,17,3.8,37.5674716,126.9286185
1224,오월의 이유,서울특별시 서대문구 증가로10길 36-41 1F,카페 / 디저트,만원 미만,4,3.8,37.5785932,126.9241865
1225,시간이머무는홍차가게,서울특별시 서대문구 연희로16길 7-15,카페 / 디저트,만원 미만,15,3.7,37.5683103,126.9325842
1226,연희양과점,서울특별시 서대문구 연희로11가길 56,카페 / 디저트,만원 미만,10,3.7,37.5662864,126.92719
1227,하이드미플리즈,서울특별시 서대문구 통일로39나길 5,카페 / 디저트,만원 미만,19,3.7,37.5884239,126.9430865
1228,쇼콜라티끄,서울특별시 서대문구 연희맛로 17-18,카페 / 디저트,만원 미만,8,3.7,37.5673433,126.9288852
1229,달인꽈배기,서울특별시 서대문구 통일로 205-3,카페 / 디저트,만원 미만,13,3.7,37.5712096,126.9607313
1230,아워온즈,서울특별시 서대문구 연희맛로 45,카페 / 디저트,만원 미만,4,3.7,37.5688266,126.9311834
1231,커피콘하스,서울특별시 서대문구 연희로27길 99,카페 / 디저트,만원 미만,29,3.6,37.5702835,126.9321757
1232,로덴드론,서울특별시 서대문구 연희로25길 82,카페 / 디저트,만원 미만,15,3.6,37.5701002,126.9322327
1233,연희커피,서울특별시 서대문구 연희맛로 17-21,카페 / 디저트,만원 미만,12,3.5,37.5665983,126.9287997
1234,발카롱,서울특별시 서대문구 통일로39길 43 1F,카페 / 디저트,만원 미만,15,3.5,37.5871253,126.9424606
1235,떡의미학,서울특별시 서대문구 연희로25길 95,카페 / 디저트,만원 미만,9,,37.5694956,126.9322345
1236,롯지190,서울특별시 서대문구 홍제천로 190,카페 / 디저트,만원 미만,4,,37.5786731,126.9338866
1237,소설원,서울특별시 서대문구 통일로 419-1,카페 / 디저트,만원 미만,2,,37.5867399,126.9460112
1238,연희예술극장,서울특별시 서대문구 연희맛로 2-3,카페 / 디저트,만원 미만,1,,37.5656012,126.9285411
1239,티아레나,서울특별시 서대문구 연희맛로 43-2 2F,카페 / 디저트,만원 미만,1,,37.5687481,126.9310781
1240,보틀팩토리,서울특별시 서대문구 홍연길 26 1F,카페 / 디저트,만원 미만,4,,37.5751488,126.9284689
1241,카페몰리,서울특별시 서대문구 통일로 139,카페 / 디저트,만원 미만,1,,37.5667122,126.965308
1242,우드사이드커피,서울특별시 서대문구 불광천길 274,카페 / 디저트,만원 미만,6,,37.586217,126.913282
1243,카시코이,서울특별시 서대문구 성산로 253-4 금송빌딩,카페 / 디저트,만원 미만,5,,37.567789,126.9185655
1244,로네펠트티하우스,서울특별시 서대문구 충정로 71-5,카페 / 디저트,만원 미만,6,,37.5651589,126.9654212
1245,소빈커피,서울특별시 서대문구 연희로10길 40,카페 / 디저트,만원 미만,8,,37.5652907,126.9323591
1246,베네쉬커피,서울특별시 서대문구 증가로32길 23-7,카페 / 디저트,만원 미만,5,,37.5846329,126.9118048
1247,tuuli,서울특별시 서대문구 홍제천로 198,카페 / 디저트,만원 미만,2,,37.5790086,126.9349109
1248,버드스틱 ,서울특별시 서대문구 증가로 49,카페 / 디저트,만원 미만,6,,37.5722223,126.9288674
1249,더니커피,서울특별시 서대문구 연희로11길 41 1F,카페 / 디저트,만원 미만,3,,37.5682399,126.9291825
1250,맥널티커피팩토리,서울특별시 서대문구 연희로 152,카페 / 디저트,만원 미만,7,,37.5706638,126.9342758
1251,제이슨95,서울특별시 서대문구 연희로11길 57 1F,카페 / 디저트,만원 미만,2,,37.5688231,126.9287191
1252,제니스커피하우스,서울특별시 서대문구 연희로11가길 30,카페 / 디저트,만원 미만,4,,37.5671518,126.9282325
1253,비나리,서울특별시 서대문구 연희로 160 1F,카페 / 디저트,만원 미만,3,,37.5713968,126.9349321
1254,컴바인스,서울특별시 서대문구 송죽길 30 1F,카페 / 디저트,만원 미만,2,,37.5845756,126.9391669
1255,서호파이,서울특별시 서대문구 수색로10길 8,카페 / 디저트,만원 미만,5,,37.5754126,126.9054635
1256,온고 파티세리,서울특별시 서대문구 연희로11길 71 ,카페 / 디저트,만원 미만,3,,37.5693754,126.9282177
1257,페르마타,서울특별시 서대문구 충정로6길 37,카페 / 디저트,만원 미만,2,,37.5625016,126.9667403
1258,폴센,서울특별시 서대문구 명지대3길 9 1F,카페 / 디저트,만원 미만,2,,37.5820784,126.9231932
1259,띵스체인지,서울특별시 서대문구 경기대로 38,카페 / 디저트,만원 미만,7,,37.5627989,126.9621136
1260,마리아칼라스,서울특별시 서대문구 성산로17길 26,카페 / 디저트,만원 미만,3,,37.563419,126.9325239
1261,오늘,서울특별시 서대문구 연희로 119,카페 / 디저트,만원 미만,3,,37.5683925,126.9319107
1262,투티거스,서울특별시 서대문구 연희로26길 28,카페 / 디저트,만원 미만,1,,37.5726599,126.9370107
1263,카페가가,서울특별시 서대문구 충정로 67-1 1F,카페 / 디저트,만원 미만,3,,37.5646077,126.9654514
1264,연희동오븐,서울특별시 서대문구 연희로11나길 7-5,카페 / 디저트,만원 미만,3,,37.5673331,126.9282549
1265,공드린,서울특별시 서대문구 연희로 38-14,카페 / 디저트,만원 미만,3,,37.5618075,126.9281982
1266,스페이스독,서울특별시 서대문구 연희로8길 18,카페 / 디저트,만원 미만,2,,37.5651376,126.9308739
1267,카페드에덴,서울특별시 서대문구 포방터길 23 1F,카페 / 디저트,만원 미만,2,,37.5977707,126.9486776
1268,꼰대꽈배기,서울특별시 서대문구 포방터길 31,카페 / 디저트,만원 미만,3,,37.5981469,126.9488354
1269,바늘이야기,서울특별시 서대문구 연희로11가길 15,카페 / 디저트,만원 미만,3,,37.5674075,126.9291039
1270,라우터커피,서울특별시 서대문구 연희로11마길 12,카페 / 디저트,만원 미만,3,,37.5689642,126.9279757
1271,다레젤라또,서울특별시 서대문구 가재울미래로 2 DMC파크뷰자이 101호,카페 / 디저트,만원 미만,1,,37.573616,126.916407
1272,마냐나,서울특별시 서대문구 가재울미래로 2 205동 103-2호,카페 / 디저트,만원 미만,4,,37.5791158,126.9367789
1273,런드리즈,서울특별시 서대문구 명지대길 29 1F,카페 / 디저트,만원 미만,3,,37.5815852,126.9244401
1274,무무대베이크,서울특별시 서대문구 연희로12길 10-4  101호,카페 / 디저트,만원 미만,3,,37.56653379999999,126.9315286
1275,공간커피,서울특별시 서대문구 연희로25길 68 1F,카페 / 디저트,만원 미만,2,,37.5706551,126.9327183
1276,에스페란자로스터즈,서울특별시 서대문구 증가로4길 58-15,카페 / 디저트,만원 미만,1,,37.5774566,126.9287007
1277,알키미스타,서울특별시 서대문구 거북골로24길 27-8,카페 / 디저트,만원 미만,2,,37.5808579,126.9078394
1278,위더스,서울특별시 서대문구 명지대길 18,카페 / 디저트,만원 미만,3,,37.5811807,126.9250414
1279,카페그레이지,서울특별시 서대문구 거북골로 12-15 2F,카페 / 디저트,만원 미만,2,,37.5809135,126.9253838
1280,더그커피바,서울특별시 서대문구 세검정로 52-10,카페 / 디저트,만원 미만,3,,37.5919658,126.9465059
1281,빈플루,서울특별시 서대문구 응암로 118 1F,카페 / 디저트,만원 미만,1,,37.5828856,126.9138365
1282,하우디,서울특별시 서대문구 명지대길 10 2F,카페 / 디저트,만원 미만,1,,37.5807533,126.9251087
1283,W P,서울특별시 서대문구 연희로 89-11 J Y 빌딩 1F,카페 / 디저트,만원 미만,8,,37.5647564,126.9298909
1284,증가로커피공방,서울특별시 서대문구 증가로10길 36-55,카페 / 디저트,만원 미만,2,,37.5784149,126.9245887
1285,쿡앤커피,서울특별시 서대문구 거북골로 172 1F,카페 / 디저트,만원 미만,1,,37.5767682,126.9112683
1286,페이퍼넛츠,서울특별시 서대문구 거북골로24길 37-8 1F,카페 / 디저트,만원 미만,2,,37.5812074,126.9082238
1287,카페겸,서울특별시 서대문구 증가로 264  2F,카페 / 디저트,만원 미만,2,,37.5840396,126.9111805
1288,에스프레소룸,서울특별시 서대문구 충정로6길 51,카페 / 디저트,만원 미만,1,,37.5623611,126.967469
1289,대구떡집,서울특별시 서대문구 연희로11길 26,카페 / 디저트,만원 미만,4,,37.56768539999999,126.9299387
1290,커피팝,서울특별시 서대문구 연희맛로 5,카페 / 디저트,만원 미만,2,,37.5661202,126.9284364
1291,레몽즈,서울특별시 서대문구 연희로11마길 17,카페 / 디저트,만원 미만,1,,37.568765,126.9275789
1292,보라다방,서울특별시 서대문구 연희로11가길 48-23,카페 / 디저트,만원 미만,1,,37.5670752,126.9269455
1293,연희대공원,서울특별시 서대문구 연희로11가길 42,카페 / 디저트,만원 미만,1,,37.5668247,126.9277358
1294,챙스베리,서울특별시 서대문구 성산로 325 동신빌딩 1F,카페 / 디저트,만원 미만,1,,37.5664281,126.926495
1295,드웰타임,서울특별시 서대문구 연희로15길 31,카페 / 디저트,만원 미만,3,,37.5708358,126.9286946
1296,스타벅스,서울특별시 서대문구 연희로 144,카페 / 디저트,만원 미만,1,,37.5701185,126.9338591
1297,미도파커피하우스,서울특별시 서대문구 성산로 317 2F,카페 / 디저트,만원 미만,2,,37.5665374,126.9254703
1298,빈스앤와플,서울특별시 서대문구 증가로25길 22,카페 / 디저트,만원 미만,1,,37.5812474,126.9129398
1299,모두다가치 카페,서울특별시 서대문구 명지대길 50-7 1F,카페 / 디저트,만원 미만,1,,37.5822344,126.9240028
1300,하이파이브커피웍스,서울특별시 서대문구 증가로 13-9 1F,카페 / 디저트,만원 미만,2,,37.5690889,126.9311004
1301,스플릿세컨드,서울특별시 서대문구 성산로 374,카페 / 디저트,만원 미만,2,,37.5632143,126.9302177
1302,마룬,서울특별시 서대문구 연희로26가길 14 스페이스엑스빌딩,카페 / 디저트,만원 미만,2,,37.5736048,126.9365784
1303,헤일우드,서울특별시 서대문구 통일로34길 7  1F,카페 / 디저트,만원 미만,2,,37.5853624,126.9485589
1304,혹스턴,서울특별시 서대문구 연희로 91 2F,카페 / 디저트,만원 미만,2,,37.5663242,126.9302728
1305,노스트리커피,서울특별시 서대문구 충정로 70,카페 / 디저트,만원 미만,1,,37.5647724,126.966349
1306,옛날맛꽈배기,서울특별시 서대문구 성산로 704 영천시장 A열 54호,카페 / 디저트,만원 미만,1,,37.5715736,126.9601149
1307,레이지나인,서울특별시 서대문구 연희로15길 5 1F,카페 / 디저트,만원 미만,1,,37.5678179,126.9311435
1308,디파트먼트 이엔,서울특별시 서대문구 연희로 48-22  1F,카페 / 디저트,만원 미만,1,,37.5626429,126.9285201
1309,쩐쭈나이차,서울특별시 서대문구 거북골로 27,카페 / 디저트,만원 미만,2,,37.5797412,126.9244926
1310,까페여름,서울특별시 서대문구 홍제천로 198,카페 / 디저트,만원 미만,2,,37.5790086,126.9349109
1311,에스페란자로스터즈,서울특별시 서대문구 홍연길 80,카페 / 디저트,만원 미만,2,,37.5764155,126.9309334
1312,메르시보꾸,서울특별시 서대문구 연희맛로 38,카페 / 디저트,만원 미만,2,,37.5681379,126.9311559
1313,여미향망개떡,서울특별시 서대문구 수색로 56 성공타워1,카페 / 디저트,만원 미만,1,,37.5726526,126.9093869
1314,1Q84 CHURROS,서울특별시 서대문구 가좌로 97 1F,카페 / 디저트,만원 미만,1,,37.581267,126.9268075
1315,에스크투데이,서울특별시 서대문구 연희로11가길 56 2F,카페 / 디저트,만원 미만,1,,37.5662864,126.92719
1316,노아스로스팅,서울특별시 서대문구 연희로11가길 23,카페 / 디저트,만원 미만,1,,37.5671694,126.9286817
1317,황카페,서울특별시 서대문구 연희로 89-8 1F,카페 / 디저트,만원 미만,2,,37.5664407,126.9299939
1318,크리스피크림도넛,서울특별시 서대문구 수색로 56 성공타워1,카페 / 디저트,만원 미만,2,,37.5726526,126.9093869
1319,스타벅스,서울특별시 서대문구 충정로 53 유원골든타워오피스텔,카페 / 디저트,만원 미만,2,,37.5637129,126.9646194
1320,무쵸구스토올리바,서울특별시 서대문구 연희로 89-12,카페 / 디저트,만원 미만,2,,37.56651859999999,126.9298479
1321,Eert,서울특별시 서대문구 연희로11가길 42,카페 / 디저트,만원 미만,2,,37.5668247,126.9277358
1322,위라이크,서울특별시 서대문구 응암로 43 1F,카페 / 디저트,만원 미만,1,,37.5774078,126.9090084
1323,올드프렌드,서울특별시 서대문구 연희로25길 37 2F,카페 / 디저트,만원 미만,1,,37.571722,126.934023
1324,어반게이트,서울특별시 서대문구 홍은중앙로 91 1F,카페 / 디저트,만원 미만,1,,37.5991884,126.9475071
1325,루모스케이크,서울특별시 서대문구 연희로15안길 6-4 1F,카페 / 디저트,만원 미만,2,,37.5686526,126.9307761
1326,발루토 핀치,서울특별시 서대문구 증가로10길 48,카페 / 디저트,만원 미만,2,,37.5790204,126.9245913
1327,투썸플레이스,서울특별시 서대문구 모래내로 151,카페 / 디저트,만원 미만,2,,37.5697878,126.917717
1328,커피볶는김여사,서울특별시 서대문구 포방터길 31,카페 / 디저트,만원 미만,1,,37.5981469,126.9488354
1329,피나포어25,서울특별시 서대문구 경기대로 21 글로리아파트,카페 / 디저트,만원 미만,1,,37.561281,126.9616434
1330,알콩커피,서울특별시 서대문구 충정로 73,카페 / 디저트,만원 미만,1,,37.5652823,126.9659356
1331,하니앤손스,서울특별시 서대문구 연희맛로 12 3-5F,카페 / 디저트,만원 미만,1,,37.5661317,126.929215
1332,할리스커피,서울특별시 서대문구 통일로 360,카페 / 디저트,만원 미만,1,,37.5825641,126.9505071
1333,연두베이킹,서울특별시 서대문구 증가로29길 24,카페 / 디저트,만원 미만,1,,37.5818615,126.9119233
1334,스타벅스,서울특별시 서대문구 서소문로 21 충정타워,카페 / 디저트,만원 미만,1,,37.5598507,126.964065
1335,아멜리 티하우스,서울특별시 서대문구 연희로11마길 8,카페 / 디저트,만원 미만,1,,37.5689902,126.9281598
1336,카페 시차,서울특별시 서대문구 증가로10길 16-20 1F,카페 / 디저트,만원 미만,1,,37.5776824,126.9241034
1337,래핑폭스,서울특별시 서대문구 연희로11나길 5 1F,카페 / 디저트,만원 미만,1,,37.5674462,126.9283064
1338,쿠키숲,서울특별시 서대문구 모래내로 453,카페 / 디저트,만원 미만,1,,37.5854584,126.9448699
1339,녹다,서울특별시 서대문구 연희로 195 ,카페 / 디저트,만원 미만,1,,37.5743727,126.9352033
1340,DNK149,서울특별시 서대문구 연희로 149 1F,카페 / 디저트,만원 미만,4,,37.570835,126.9337844
1341,연희다방,서울특별시 서대문구 성산로18길 3 1F,카페 / 디저트,만원 미만,1,,37.56222169999999,126.9312563
1342,해피박스,서울특별시 서대문구 충정로 36 국민연금충정로,카페 / 디저트,만원 미만,1,,37.5619429,126.9644696
