,가게이름,가게 주소,음식 종류,가격 범위,리뷰개수,평점,lat,lng
1,원조할아버지손두부,서울특별시 광진구 자양로 324,한정식 / 백반 / 정통 한식,만원 미만,72,4.5,37.5540192,127.0941326
2,서북면옥,서울특별시 광진구 자양로 199-1,국수 / 면 요리,만원 미만,94,4.2,37.5453552,127.0853009
3,궤도에오르다,서울특별시 광진구 광나루로 416 건희빌딩 1F,기타 한식,만원 미만,40,4.0,37.5464057,127.0755739
4,콩이네,서울특별시 광진구 긴고랑로9길 28 중곡제일시장 103호,기타 한식,만원 미만,13,4.0,37.5646059,127.0814603
5,건대우동집,서울특별시 광진구 아차산로 201 동성빌딩 1F,기타 한식,만원 미만,9,4.0,37.5417616,127.0658783
6,은혜떡볶이,서울특별시 광진구 광나루로 384 2F,기타 한식,만원 미만,31,3.9,37.5475035,127.0723928
7,순금이떡볶이,서울특별시 광진구 자양로43길 43,기타 한식,만원 미만,29,3.9,37.55245439999999,127.090187
8,또래끼리,서울특별시 광진구 군자로 103,한정식 / 백반 / 정통 한식,만원 미만,10,3.9,37.5523652,127.0713185
9,골목에골목,서울특별시 광진구 아차산로33길 51-4 2F,기타 한식,만원 미만,47,3.8,37.5426764,127.0706488
10,돕감자탕전문점,서울특별시 광진구 아차산로31길 9,탕 / 찌개 / 전골,만원 미만,46,3.8,37.5414436,127.0692519
11,능동국시,서울특별시 광진구 능동로35길 23,국수 / 면 요리,만원 미만,5,3.8,37.5569209,127.0776386
12,신토불이떡볶이,서울특별시 광진구 자양로43길 42,기타 한식,만원 미만,129,3.7,37.5525068,127.090441
13,산골닭갈비,서울특별시 광진구 구의강변로7길 5,닭 / 오리 요리,만원 미만,21,3.7,37.5381474,127.0932089
14,어멍네고기국수,서울특별시 광진구 능동로13길 77,국수 / 면 요리,만원 미만,12,3.7,37.54497569999999,127.0688006
15,조씨네고기국수,서울특별시 광진구 군자로3길 23,국수 / 면 요리,만원 미만,37,3.6,37.5442162,127.070185
16,아찌떡볶이,서울특별시 광진구 아차산로29길 53,기타 한식,만원 미만,24,3.6,37.5431898,127.0691329
17,사대분식,서울특별시 광진구 능동로 197,기타 한식,만원 미만,10,3.6,37.5481268,127.0744289
18,송림식당,서울특별시 광진구 자양번영로 79 송림주차타워,한정식 / 백반 / 정통 한식,만원 미만,5,3.4,37.5366898,127.0764847
19,고흥순대국머리고기,서울특별시 광진구 아차산로34길 16,탕 / 찌개 / 전골,만원 미만,20,3.4,37.539025,127.069332
20,함흥본가면옥,서울특별시 광진구 광나루로 456,국수 / 면 요리,만원 미만,12,3.3,37.545067,127.0797571
21,남원골추어탕,서울특별시 광진구 아차산로 413-5,탕 / 찌개 / 전골,만원 미만,2,,37.5380314,127.0883165
22,유일설렁탕,서울특별시 광진구 용마산로 154,탕 / 찌개 / 전골,만원 미만,2,,37.5673562,127.0864933
23,망향비빔국수,서울특별시 광진구 천호대로 694,국수 / 면 요리,만원 미만,7,,37.5492754,127.0912249
24,민속손국시,서울특별시 광진구 아차산로 458,국수 / 면 요리,만원 미만,10,,37.5392943,127.0931849
25,콩불,서울특별시 광진구 능동로 135-2,고기 요리,만원 미만,4,,37.5429999,127.0716825
26,겨울나그네,서울특별시 광진구 군자로 8-4,기타 한식,만원 미만,6,,37.54408189999999,127.0721206
27,스위트앤카츠,서울특별시 광진구 광나루로17길 14,기타 한식,만원 미만,4,,37.5481968,127.0727837
28,신선설농탕,서울특별시 광진구 천호대로 813,탕 / 찌개 / 전골,만원 미만,3,,37.54553,127.1041134
29,속초가,서울특별시 광진구 용마산로1길 65 1F,해산물 요리,만원 미만,4,,37.5557252,127.0849319
30,올래상회,서울특별시 광진구 능동로38길 28,국수 / 면 요리,만원 미만,4,,37.5571904,127.0812412
31,광나루순대,서울특별시 광진구 아차산로 624 새시대약국,탕 / 찌개 / 전골,만원 미만,3,,37.5481419,127.1075214
32,콩예원,서울특별시 광진구 아차산로78길 75,한정식 / 백반 / 정통 한식,만원 미만,3,,37.551573,127.1109741
33,꼼수없는착한만두,서울특별시 광진구 아차산로 626,기타 한식,만원 미만,3,,37.5483553,127.1076331
34,정면,서울특별시 광진구 능동로13길 88 1F,국수 / 면 요리,만원 미만,7,,37.5455153,127.0686638
35,신전떡볶이,서울특별시 광진구 능동로13길 100,기타 한식,만원 미만,1,,37.5458206,127.0683114
36,쉬즈베이글,서울특별시 광진구 아차산로 290 1F 2호,기타 한식,만원 미만,1,,37.5383305,127.0751022
37,옛집,서울특별시 광진구 아차산로76가길 18,탕 / 찌개 / 전골,만원 미만,10,,37.5470714,127.1068019
38,고흥순대국머리고기,서울특별시 광진구 아차산로34길 16,탕 / 찌개 / 전골,만원 미만,20,3.4,37.539025,127.069332
39,함흥본가면옥,서울특별시 광진구 광나루로 456,국수 / 면 요리,만원 미만,5,3.3,37.545067,127.0797571
40,남원골추어탕,서울특별시 광진구 아차산로 413-5,탕 / 찌개 / 전골,만원 미만,2,,37.5380314,127.0883165
41,유일설렁탕,서울특별시 광진구 용마산로 154,탕 / 찌개 / 전골,만원 미만,2,,37.5673562,127.0864933
42,망향비빔국수,서울특별시 광진구 천호대로 694,국수 / 면 요리,만원 미만,7,,37.5492754,127.0912249
43,콩불,서울특별시 광진구 능동로 135-2,고기 요리,만원 미만,4,,37.5429999,127.0716825
44,겨울나그네,서울특별시 광진구 군자로 8-4,기타 한식,만원 미만,6,,37.54408189999999,127.0721206
45,스위트앤카츠,서울특별시 광진구 광나루로17길 14,기타 한식,만원 미만,4,,37.5481968,127.0727837
46,신선설농탕,서울특별시 광진구 천호대로 813,탕 / 찌개 / 전골,만원 미만,3,,37.54553,127.1041134
47,속초가,서울특별시 광진구 용마산로1길 65 1F,해산물 요리,만원 미만,4,,37.5557252,127.0849319
48,할머니순대국,서울특별시 광진구 아차산로 293 선진빌딩,탕 / 찌개 / 전골,만원 미만,5,,37.5386303,127.0756484
49,올래상회,서울특별시 광진구 능동로38길 28,국수 / 면 요리,만원 미만,4,,37.5571904,127.0812412
50,광나루순대,서울특별시 광진구 아차산로 624 새시대약국,탕 / 찌개 / 전골,만원 미만,3,,37.5481419,127.1075214
51,콩예원,서울특별시 광진구 아차산로78길 75,한정식 / 백반 / 정통 한식,만원 미만,3,,37.551573,127.1109741
52,꼼수없는착한만두,서울특별시 광진구 아차산로 626,기타 한식,만원 미만,3,,37.5483553,127.1076331
53,정면,서울특별시 광진구 능동로13길 88 1F,국수 / 면 요리,만원 미만,7,,37.5455153,127.0686638
54,신전떡볶이,서울특별시 광진구 능동로13길 100,기타 한식,만원 미만,1,,37.5458206,127.0683114
55,쉬즈베이글,서울특별시 광진구 아차산로 290 1F 2호,기타 한식,만원 미만,1,,37.5383305,127.0751022
56,옛집,서울특별시 광진구 아차산로76가길 18,탕 / 찌개 / 전골,만원 미만,10,,37.5470714,127.1068019
57,고향집,서울특별시 광진구 아차산로49길 30,해산물 요리,만원-2만원,3,,37.5381994,127.0844106
58,대관령감자탕,서울특별시 광진구 아차산로76길 6,탕 / 찌개 / 전골,만원-2만원,2,,37.547764,127.1073606
59,가마로,서울특별시 광진구 동일로22길 100,고기 요리,만원-2만원,12,,37.5408273,127.069487
60,열불날개,서울특별시 광진구 동일로24길 63,닭 / 오리 요리,만원-2만원,8,,37.5430488,127.0686198
61,야돈,서울특별시 광진구 아차산로33길 25,고기 요리,만원-2만원,1,,37.54142890000001,127.0702513
62,하남돼지집,서울특별시 광진구 동일로22길 30,고기 요리,만원-2만원,7,,37.5420237,127.0659201
63,바나바나,서울특별시 광진구 동일로20길 72 1F,기타 한식,만원-2만원,7,,37.5401091,127.0674252
64,양촌리생삼겹살,서울특별시 광진구 아차산로 482,고기 요리,만원-2만원,5,,37.5404794,127.0954517
65,안주나라,서울특별시 광진구 동일로18길 23,해산물 요리,만원-2만원,2,,37.5397367,127.0643169
66,등촌샤브칼국수,서울특별시 광진구 용마산로 128,탕 / 찌개 / 전골,만원-2만원,5,,37.5649383,127.086902
67,삼통치킨,서울특별시 광진구 아차산로 589,닭 / 오리 요리,만원-2만원,2,,37.5459411,127.1047253
68,고기원칙,서울특별시 광진구 아차산로 384,고기 요리,만원-2만원,1,,37.5366315,127.085447
69,진육식당,서울특별시 광진구 능동로 18,고기 요리,만원-2만원,9,,37.5325759,127.0679308
70,불난닭발,서울특별시 광진구 자양로18길 6,닭 / 오리 요리,만원-2만원,9,,37.5372825,127.0839941
71,소일창,서울특별시 광진구 자양로45길 34 1F,고기 요리,만원-2만원,1,,37.5527369,127.0910629
72,울트라곱창,서울특별시 광진구 동일로24길 95-1,고기 요리,만원-2만원,6,,37.5424521,127.07032
73,충만치킨,서울특별시 광진구 동일로20길 98,닭 / 오리 요리,만원-2만원,4,,37.5397672,127.0687443
74,횃불,서울특별시 광진구 아차산로55길 20 1F,고기 요리,만원-2만원,3,,37.5382111,127.0866283
75,식껍,서울특별시 광진구 아차산로 395  1F,고기 요리,만원-2만원,1,,37.5375242,127.0863561
76,소신이쏘,서울특별시 광진구 아차산로31길 9-1 2F,고기 요리,만원-2만원,2,,37.54152,127.0693494
77,강나루유황오리주물럭,서울특별시 광진구 아차산로57길 5,닭 / 오리 요리,만원-2만원,3,,37.5386955,127.0880979
78,개미집,서울특별시 광진구 광나루로24길 25-4,해산물 요리,만원-2만원,8,,37.545172,127.0769267
79,나루가온,서울특별시 광진구 아차산로78길 75,국수 / 면 요리,만원-2만원,11,,37.551573,127.1109741
80,육회한연어,서울특별시 광진구 동일로22길 42,고기 요리,만원-2만원,8,,37.5418277,127.0664351
81,본전주먹구이,서울특별시 광진구 능동로35길 32,고기 요리,만원-2만원,3,,37.5571947,127.0774043
82,청춘등판,서울특별시 광진구 동일로22길 34 1F,고기 요리,만원-2만원,4,,37.5419342,127.0661136
83,정가네빈대떡,서울특별시 광진구 천호대로112길 10,한정식 / 백반 / 정통 한식,만원-2만원,3,,37.5556627,127.0813053
84,대곱창,서울특별시 광진구 아차산로 242,고기 요리,만원-2만원,2,,37.5398366,127.0698908
85,봉추찜닭,서울특별시 광진구 능동로35길 7,닭 / 오리 요리,만원-2만원,3,,37.5565727,127.0785178
86,육회하쥬,서울특별시 광진구 구의로 59  101호,고기 요리,만원-2만원,1,,37.543223,127.0901623
87,강쇠네,서울특별시 광진구 뚝섬로 535,고기 요리,만원-2만원,7,,37.5350452,127.0697014
88,기절초풍물닭갈비,서울특별시 광진구 자양로13길 88-1,닭 / 오리 요리,만원-2만원,3,,37.5329619,127.0801672
89,거리 먹,서울특별시 광진구 아차산로34길 32 1F,퓨전 한식,만원-2만원,2,,37.5386661,127.0689673
90,교촌치킨,서울특별시 광진구 자양로13길 40 ,닭 / 오리 요리,만원-2만원,1,,37.53459369999999,127.0820164
91,가장맛있는족발,서울특별시 광진구 능동로36길 21 1F,고기 요리,만원-2만원,2,,37.55601619999999,127.0804159
92,고향산천원조숯불닭갈비,서울특별시 광진구 광나루로18길 3,닭 / 오리 요리,만원-2만원,4,,37.5473504,127.0722951
93,새너울,서울특별시 광진구 능동로 315 DM빌딩 2F,퓨전 한식,만원-2만원,1,,37.55782,127.0795924
94,채선당,서울특별시 광진구 아차산로 563,탕 / 찌개 / 전골,만원-2만원,0,,37.5441835,127.1030013
95,화기애애,서울특별시 광진구 아차산로31길 16,고기 요리,만원-2만원,5,,37.5417296,127.069641
96,무교동유정낙지,서울특별시 광진구 아차산로 464,해산물 요리,만원-2만원,3,,37.5395914,127.0936271
97,도톰,서울특별시 광진구 능동로 386,고기 요리,만원-2만원,1,,37.5635321,127.0832325
98,일품대가삼계탕,서울특별시 광진구 아차산로 358 영주빌딩,탕 / 찌개 / 전골,만원-2만원,4,,37.5365126,127.0824046
99,6casa,서울특별시 광진구 능동로39길 3 1F,고기 요리,만원-2만원,3,,37.5583523,127.0797918
100,충만치킨,서울특별시 광진구 능동로36길 32 201호,닭 / 오리 요리,만원-2만원,2,,37.5556597,127.0807915
101,만석시래기코다리조림,서울특별시 광진구 군자로17길 42,해산물 요리,만원-2만원,1,,37.5569729,127.0774987
102,제주탐하리,서울특별시 광진구 천호대로101길 11 영진빌딩,고기 요리,만원-2만원,3,,37.559687,127.0746379
103,광어2마리,서울특별시 광진구 아차산로29길 71,해산물 요리,만원-2만원,4,,37.5438901,127.0695033
104,능동곱창,서울특별시 광진구 긴고랑로 12,고기 요리,만원-2만원,3,,37.5636734,127.0775338
105,가장맛있는족발,서울특별시 광진구 자양로18길 9,고기 요리,만원-2만원,2,,37.5375863,127.0840176
106,육일관,서울특별시 광진구 아차산로31길 10,고기 요리,만원-2만원,3,,37.5413805,127.0694824
107,노릇,서울특별시 광진구 능동로36길 36 1F,고기 요리,만원-2만원,3,,37.5556107,127.0809833
108,고치치,서울특별시 광진구 자양로18길 49 1F,고기 요리,만원-2만원,2,,37.5381681,127.0861932
109,빛나는청춘,서울특별시 광진구 아차산로 457,고기 요리,만원-2만원,1,,37.539571,127.09285
110,개미집투,서울특별시 광진구 능동로16길 60,해산물 요리,만원-2만원,3,,37.5451903,127.0762803
111,참곱창,서울특별시 광진구 면목로 182,고기 요리,만원-2만원,2,,37.5691495,127.0831546
112,대명소곱창,서울특별시 광진구 능동로 298,고기 요리,만원-2만원,6,,37.5562337,127.0792995
113,홍천화로숯불구이,서울특별시 광진구 천호대로110길 27,고기 요리,만원-2만원,2,,37.5559236,127.0797402
114,매복식당,서울특별시 광진구 아차산로57길 10-1,고기 요리,만원-2만원,2,,37.5389726,127.0883842
115,오늘도고기,서울특별시 광진구 아차산로55길 24,고기 요리,만원-2만원,1,,37.5383605,127.0865959
116,어울림,서울특별시 광진구 광장로1나길 10,탕 / 찌개 / 전골,만원-2만원,2,,37.5484352,127.1020031
117,전여친,서울특별시 광진구 군자로 177 1F,한정식 / 백반 / 정통 한식,만원-2만원,1,,37.5564736,127.0778252
118,정선곤드레메밀집,서울특별시 광진구 능동로36길 186,한정식 / 백반 / 정통 한식,만원-2만원,6,,37.5523639,127.0882675
119,강변꼼장어,서울특별시 광진구 구의강변로 79,기타 한식,만원-2만원,1,,37.5378006,127.0933331
120,울돌목주먹고기,서울특별시 광진구 아차산로51길 28-5,고기 요리,만원-2만원,3,,37.5383418,127.0853447
121,혼식당,서울특별시 광진구 능동로13길 70 1F,닭 / 오리 요리,만원-2만원,3,,37.54481579999999,127.0692009
122,지리산정육식당,서울특별시 광진구 광나루로54길 38,고기 요리,만원-2만원,2,,37.5391992,127.0951176
123,돈수작,서울특별시 광진구 능동로36길 13,고기 요리,만원-2만원,2,,37.5562178,127.0799222
124,최고집풍천장어,서울특별시 광진구 아차산로51길 79,해산물 요리,만원-2만원,1,,37.5405899,127.0849992
125,교촌치킨,서울특별시 광진구 자양번영로 15,닭 / 오리 요리,만원-2만원,2,,37.5309909,127.0748092
126,정통집,서울특별시 광진구 동일로24길 95 1F,고기 요리,만원-2만원,5,,37.5424521,127.07032
127,소담촌,서울특별시 광진구 용마산로 10 대붕빌딩 3F,탕 / 찌개 / 전골,만원-2만원,3,,37.5545105,127.0888479
128,청춘물고기,서울특별시 광진구 군자로 43 1F,해산물 요리,만원-2만원,2,,37.54886339999999,127.0722733
129,막내막창,서울특별시 광진구 군자로 175,고기 요리,만원-2만원,1,,37.5562891,127.077626
130,키야기,서울특별시 광진구 능동로 342-1,퓨전 한식,만원-2만원,1,,37.5599629,127.0813589
131,참숯뽈살구이,서울특별시 광진구 동일로4길 10,고기 요리,만원-2만원,1,,37.5362236,127.0614834
132,숙고,서울특별시 광진구 아차산로53길 5 1F,고기 요리,만원-2만원,1,,37.5374089,127.0858913
133,안지랑곱창,서울특별시 광진구 동일로24길 82 1F,고기 요리,만원-2만원,1,,37.5425688,127.0694597
134,짚신매운갈비찜,서울특별시 광진구 아차산로33길 39,고기 요리,만원-2만원,3,,37.5419978,127.0705192
135,중독족발,서울특별시 광진구 아차산로29길 47 1F,고기 요리,만원-2만원,2,,37.5429844,127.0690291
136,좋은생고기정육점식당,서울특별시 광진구 동일로22길 36 1F,고기 요리,만원-2만원,2,,37.5418882,127.066225
137,동대문곱창,서울특별시 광진구 아차산로49길 9,고기 요리,만원-2만원,1,,37.5372718,127.0844819
138,이항아삼겹살,서울특별시 광진구 군자로 50,고기 요리,만원-2만원,1,,37.5474919,127.0706875
139,원할머니보쌈족발,서울특별시 광진구 아차산로51길 45 봉융빌딩,고기 요리,만원-2만원,1,,37.538986,127.0847642
140,명품돼지집부속전문,서울특별시 광진구 광나루로 344,고기 요리,만원-2만원,1,,37.5480357,127.0680111
141,유가네닭갈비,서울특별시 광진구 아차산로29길 15,닭 / 오리 요리,만원-2만원,1,,37.5415953,127.0682746
142,고오기,서울특별시 광진구 능동로 68,고기 요리,만원-2만원,3,,37.5369721,127.0697601
143,달팽이부엌,서울특별시 광진구 자양번영로4길 19,기타 한식,만원-2만원,4,,37.5314276,127.0764976
144,종로상회,서울특별시 광진구 광나루로 619,고기 요리,만원-2만원,1,,37.5408225,127.0968406
145,돈조은날삼겹살,서울특별시 광진구 광나루로24길 6,고기 요리,만원-2만원,2,,37.5459289,127.0760064
146,왕소구이,서울특별시 광진구 광나루로26길 20,고기 요리,만원-2만원,2,,37.5453641,127.0769538
147,건대족발,서울특별시 광진구 아차산로29길 52,고기 요리,만원-2만원,1,,37.5430644,127.0693415
148,지호한방삼계탕,서울특별시 광진구 아차산로 610,탕 / 찌개 / 전골,만원-2만원,2,,37.5471595,127.1065395
149,형제정육점식당,서울특별시 광진구 강변역로4길 34 강변현대하이엘,고기 요리,만원-2만원,1,,37.5340985,127.0922113
150,서민떡볶이야채곱창,서울특별시 광진구 용마산로 58,고기 요리,만원-2만원,1,,37.5587779,127.0880762
151,조그삼,서울특별시 광진구 동일로24길 85,고기 요리,만원-2만원,1,,37.5426686,127.0696656
152,춘천골닭갈비,서울특별시 광진구 면목로 105,닭 / 오리 요리,만원-2만원,3,,37.5629517,127.0795032
153,호호닭발,서울특별시 광진구 동일로24길 96,닭 / 오리 요리,만원-2만원,1,,37.5423344,127.0701303
154,장암사이,서울특별시 광진구 능동로19길 54 1F,닭 / 오리 요리,만원-2만원,2,,37.5474919,127.0706875
155,연탄불꿀곱창,서울특별시 광진구 아차산로 305 동화빌딩,고기 요리,만원-2만원,2,,37.5383923,127.0767908
156,주꾸미,서울특별시 광진구 아차산로33길 16-4,해산물 요리,만원-2만원,1,,37.5409247,127.0704092
157,육연타,서울특별시 광진구 아차산로78길 165,고기 요리,만원-2만원,2,,37.5479178,127.1088798
158,오리식당,서울특별시 광진구 능동로 155,닭 / 오리 요리,만원-2만원,1,,37.5446399,127.0726127
159,페리카나치킨,서울특별시 광진구 능동로13길 70,닭 / 오리 요리,만원-2만원,1,,37.5446961,127.0693303
160,깊은실 청국장과 보리밥,서울특별시 광진구 아차산로 437,탕 / 찌개 / 전골,만원-2만원,1,,37.5385241,127.0908666
161,화원정,서울특별시 광진구 동일로 172-8 1F,해산물 요리,만원-2만원,1,,37.5472743,127.0675442
162,회뜨는포차생선을굽다,서울특별시 광진구 군자로 183,해산물 요리,만원-2만원,1,,37.5569876,127.0782297
163,벚꽃갈비,서울특별시 광진구 능동로 175,고기 요리,만원-2만원,1,,37.5462604,127.0733565
164,해물나라찜나라,서울특별시 광진구 면목로 141,해산물 요리,만원-2만원,1,,37.5659793,127.0811424
165,미니닭날개구이,서울특별시 광진구 동일로18길 41 ,닭 / 오리 요리,만원-2만원,1,,37.5394772,127.0651055
166,김파삼95,서울특별시 광진구 능동로 382 1F,고기 요리,만원-2만원,1,,37.5632224,127.0830326
167,마당,서울특별시 광진구 능동로 173,고기 요리,만원-2만원,4,,37.5462604,127.0733565
168,고고기,서울특별시 광진구 아차산로 471 CS PLAZA,고기 요리,만원-2만원,3,,37.5404202,127.0939554
169,참숯벽돌집,서울특별시 광진구 동일로24길 100-4,고기 요리,만원-2만원,1,,37.5421906,127.0702893
170,구공탄곱창,서울특별시 광진구 능동로36길 22,고기 요리,만원-2만원,4,,37.555878,127.0802534
171,도도곱창,서울특별시 광진구 아차산로34길 18,고기 요리,만원-2만원,1,,37.5393408,127.0692814
172,썬더치킨,서울특별시 광진구 구의로 42,닭 / 오리 요리,만원-2만원,1,,37.5415651,127.0900432
173,호치킨,서울특별시 광진구 아차산로29길 19,닭 / 오리 요리,만원-2만원,1,,37.5417979,127.0683626
174,육광,서울특별시 광진구 아차산로 348 1F,고기 요리,만원-2만원,2,,37.5368014,127.0813387
175,오감만족,서울특별시 광진구 아차산로 344,고기 요리,만원-2만원,1,,37.5368719,127.0808999
176,영산강,서울특별시 광진구 자양로16길 24,해산물 요리,만원-2만원,1,,37.5363359,127.0852153
177,육첩반상,서울특별시 광진구 능동로 92 롯데백화점 B1,한정식 / 백반 / 정통 한식,만원-2만원,1,,37.5387765,127.0710831
178,토닥토닥,서울특별시 광진구 아차산로 591,닭 / 오리 요리,만원-2만원,1,,37.5461036,127.1048953
179,싹쓰리삼겹살,서울특별시 광진구 아차산로57길 14,고기 요리,만원-2만원,1,,37.5390834,127.0883896
180,쭈꾸미도사,서울특별시 광진구 아차산로49길 11,해산물 요리,만원-2만원,1,,37.5373626,127.084448
181,제일쭈꾸미국물닭발,서울특별시 광진구 긴고랑로13길 19 1F,해산물 요리,만원-2만원,1,,37.5634695,127.0820108
182,거북이삼겹살,서울특별시 광진구 긴고랑로 31,고기 요리,만원-2만원,1,,37.5632341,127.0800193
183,창신동매운족발,서울특별시 광진구 면목로11길 10,고기 요리,만원-2만원,1,,37.5668133,127.0810959
184,교촌치킨,서울특별시 광진구 아차산로31길 13,닭 / 오리 요리,만원-2만원,1,,37.5416671,127.0693804
185,미친생고기,서울특별시 광진구 능동로 317-1 대영빌딩,고기 요리,만원-2만원,2,,37.5581488,127.0797932
186,조마루감자탕,서울특별시 광진구 아차산로 208 상록빌딩 1F,탕 / 찌개 / 전골,만원-2만원,2,,37.5410673,127.0664616
187,무등산닭한마리,서울특별시 광진구 아차산로31길 6,닭 / 오리 요리,만원-2만원,1,,37.5412068,127.0693952
188,연탄돼지갈비,서울특별시 광진구 자양번영로 69,고기 요리,만원-2만원,1,,37.5357054,127.076214
189,풍성감자탕,서울특별시 광진구 자양로18길 5,탕 / 찌개 / 전골,만원-2만원,2,,37.5375398,127.0838314
190,갈비집 본,서울특별시 광진구 아차산로31길 23,고기 요리,만원-2만원,2,,37.542087,127.0696049
191,노랑통닭,서울특별시 광진구 아차산로29길 42,닭 / 오리 요리,만원-2만원,1,,37.5425266,127.0690223
192,봉일천돼지부속숯불구이,서울특별시 광진구 광나루로 352,고기 요리,만원-2만원,1,,37.5479653,127.0687849
193,꼼박사,서울특별시 광진구 능동로 81,해산물 요리,만원-2만원,1,,37.5383159,127.0695782
194,건대통골뱅이,서울특별시 광진구 능동로13길 81,해산물 요리,만원-2만원,1,,37.5450677,127.0686999
195,바다여행횟집,서울특별시 광진구 능동로 360-1,해산물 요리,만원-2만원,1,,37.5614268,127.0821287
196,도단집,서울특별시 광진구 동일로24길 60,고기 요리,만원-2만원,1,,37.5429609,127.0683334
197,치킨뱅이,서울특별시 광진구 긴고랑로 23,닭 / 오리 요리,만원-2만원,1,,37.5635833,127.0790449
198,청와옥,서울특별시 광진구 천호대로 562,탕 / 찌개 / 전골,만원-2만원,1,,37.5564436,127.0803393
199,중화호반닭갈비,서울특별시 광진구 천호대로129길 79 ,닭 / 오리 요리,만원-2만원,1,,37.5547438,127.0929739
200,대구 반야월막창,서울특별시 광진구 천호대로 571,고기 요리,만원-2만원,1,,37.5566676,127.0816721
201,한앤둘치킨,서울특별시 광진구 강변북로 2230,닭 / 오리 요리,만원-2만원,1,,37.5322881,127.0817341
202,어머니감자탕,서울특별시 광진구 능동로 353,탕 / 찌개 / 전골,만원-2만원,1,,37.5611012,127.0813936
203,울랄라대패삼겹,서울특별시 광진구 면목로 183-1,고기 요리,만원-2만원,1,,37.5695694,127.0829163
204,숯불부자곱창,서울특별시 광진구 아차산로33길 48,고기 요리,만원-2만원,1,,37.54234599999999,127.0709188
205,바르미샤브샤브N칼국수,서울특별시 광진구 아차산로 471,탕 / 찌개 / 전골,만원-2만원,5,,37.5404202,127.0939554
206,하남돼지집,서울특별시 광진구 군자로 186,고기 요리,만원-2만원,1,,37.5569928,127.0785477
207,황소곱창,서울특별시 광진구 아차산로29길 16,고기 요리,만원-2만원,3,,37.5415576,127.0685172
208,산울,서울특별시 광진구 아차산로73길 48,한정식 / 백반 / 정통 한식,만원-2만원,1,,37.5466931,127.1024213
209,능동아구찜,서울특별시 광진구 천호대로 544,해산물 요리,만원-2만원,1,,37.557197,127.0783811
210,계림원,서울특별시 광진구 능동로 7 한강복합빌딩,닭 / 오리 요리,만원-2만원,1,,37.5323053,127.0667564
211,지코바치킨,서울특별시 광진구 동일로26길 58,닭 / 오리 요리,만원-2만원,2,,37.544479,127.0688883
212,가장맛있는족발,서울특별시 광진구 동일로22길 57 1F,고기 요리,만원-2만원,2,,37.5417618,127.0674453
213,BBQ치킨,서울특별시 광진구 동일로20길 116,닭 / 오리 요리,만원-2만원,3,,37.5394399,127.069743
214,멕시카나치킨,서울특별시 광진구 뚝섬로30길 39,닭 / 오리 요리,만원-2만원,2,,37.5346481,127.067345
215,영미오리탕,서울특별시 광진구 동일로60길 53 천수빌딩,닭 / 오리 요리,2만원-3만원,13,4.1,37.5576337,127.0762773
216,참토우,서울특별시 광진구 구의강변로 81,고기 요리,2만원-3만원,3,,37.5379559,127.0933821
217,독도수산,서울특별시 광진구 뚝섬로23길 48,해산물 요리,2만원-3만원,7,,37.5371589,127.0660294
218,한강풍천장어,서울특별시 광진구 뚝섬로 487,해산물 요리,2만원-3만원,1,,37.5363844,127.0646055
219,동해해물,서울특별시 광진구 동일로26길 16,해산물 요리,2만원-3만원,3,,37.5452127,127.0667517
220,김덕후의곱창조,서울특별시 광진구 아차산로33길 21-4,고기 요리,2만원-3만원,5,,37.5413344,127.0700408
221,제주뜰향 갈치전문점,서울특별시 광진구 구의로 6,해산물 요리,2만원-3만원,3,,37.5384501,127.0893354
222,만원수산,서울특별시 광진구 아차산로31길 27,해산물 요리,2만원-3만원,1,,37.5422151,127.0696282
223,봉산집,서울특별시 광진구 구의강변로 87-4,고기 요리,2만원-3만원,2,,37.5384727,127.0934437
224,지랄닭발,서울특별시 광진구 광나루로 361 동양파라곤1단지 B106호,닭 / 오리 요리,2만원-3만원,1,,37.5483998,127.0697313
225,소랑도,서울특별시 광진구 긴고랑로 70,해산물 요리,2만원-3만원,1,,37.5614406,127.0834392
226,모다미육,서울특별시 광진구 동일로 178,고기 요리,2만원-3만원,3,,37.5556098,127.0718663
227,이차돌,서울특별시 광진구 동일로24길 101,고기 요리,2만원-3만원,2,,37.5423765,127.0705496
228,독도마루참치,서울특별시 광진구 천호대로 629 1F,해산물 요리,2만원-3만원,2,,37.5543505,127.0875405
229,대포집,서울특별시 광진구 자양로18길 53 1F,고기 요리,2만원-3만원,2,,37.5381452,127.0863768
230,장군집,서울특별시 광진구 아차산로51길 52 1F,고기 요리,2만원-3만원,2,,37.5393287,127.0850384
231,깐깐한족발,서울특별시 광진구 아차산로51길 39  1F,고기 요리,2만원-3만원,2,,37.5387546,127.0847863
232,광나루유황오리주물럭,서울특별시 광진구 군자로 184,닭 / 오리 요리,2만원-3만원,2,,37.5568449,127.0784159
233,아랜역물닭갈비,서울특별시 광진구 자양로43길 9,닭 / 오리 요리,2만원-3만원,1,,37.5509944,127.0909664
234,포차조개구이,서울특별시 광진구 용마산로 40,해산물 요리,2만원-3만원,3,,37.5571302,127.0882355
235,청와대밥상,서울특별시 광진구 강변역로4길 34 현대하이엘상가 110호,고기 요리,2만원-3만원,1,,37.5340985,127.0922113
236,육회공작소,서울특별시 광진구 동일로22길 50,고기 요리,2만원-3만원,2,,37.5416669,127.0669565
237,옛맛서울불고기,서울특별시 광진구 아차산로 305,고기 요리,2만원-3만원,4,,37.5383923,127.0767908
238,무한장어,서울특별시 광진구 자양번영로 67 진영빌딩,해산물 요리,2만원-3만원,2,,37.5355126,127.0761831
239,수현민물장어,서울특별시 광진구 능동로4길 33,해산물 요리,2만원-3만원,2,,37.532855,127.0692795
240,청춘갈비,서울특별시 광진구 동일로24길 103 1F,고기 요리,2만원-3만원,1,,37.5423389,127.0706983
241,미림장충동왕족발보쌈,서울특별시 광진구 자양로18길 11 1F,한정식 / 백반 / 정통 한식,2만원-3만원,1,,37.5376314,127.0841449
242,거보주,서울특별시 광진구 아차산로51길 24,기타 한식,2만원-3만원,2,,37.5380016,127.0851621
243,박과장의조은회사,서울특별시 광진구 아차산로 345  래미안 프리미어팰리스 125호,해산물 요리,2만원-3만원,2,,37.5417175,127.0873849
244,매운녀석들,서울특별시 광진구 아차산로51길 58,고기 요리,2만원-3만원,1,,37.5395051,127.0850102
245,갯마을,서울특별시 광진구 아차산로 443 금강테크노오피스텔,해산물 요리,2만원-3만원,1,,37.5388886,127.0916407
246,제부도,서울특별시 광진구 긴고랑로 21 ,해산물 요리,2만원-3만원,1,,37.56363260000001,127.0788892
247,일월수산,서울특별시 광진구 광나루로14길 23,해산물 요리,2만원-3만원,2,,37.5469867,127.0686647
248,돈토,서울특별시 광진구 능동로35길 38,고기 요리,2만원-3만원,1,,37.5573194,127.0770961
249,서울등심,서울특별시 광진구 아차산로 431 강변SK뷰 102동 B101호,고기 요리,2만원-3만원,1,,37.5417175,127.0873849
250,어사랑횟집,서울특별시 광진구 동일로 164 1F,해산물 요리,2만원-3만원,1,,37.5467227,127.0668381
251,삼일민물장어,서울특별시 광진구 천호대로 685,해산물 요리,2만원-3만원,2,,37.5502288,127.091236
252,구이가,서울특별시 광진구 동일로24길 100,고기 요리,2만원-3만원,1,,37.542273,127.0703472
253,바다회직판장,서울특별시 광진구 동일로22길 70,해산물 요리,2만원-3만원,1,,37.5413143,127.0679375
254,택이네조개전골,서울특별시 광진구 천호대로 591 1F,탕 / 찌개 / 전골,2만원-3만원,1,,37.5558311,127.0837185
255,마포갈비우리한우,서울특별시 광진구 구의로 11,고기 요리,2만원-3만원,1,,37.5391203,127.0891994
256,사랑채곱창전골,서울특별시 광진구 아차산로 440-8 ,고기 요리,2만원-3만원,1,,37.5380845,127.0915882
257,소문난숯불구이,서울특별시 광진구 자양번영로 28,고기 요리,2만원-3만원,1,,37.5321162,127.0755998
258,초가집사철탕,서울특별시 광진구 동일로28길 6,탕 / 찌개 / 전골,2만원-3만원,1,,37.5466369,127.0670474
259,팔당숯불갈비,서울특별시 광진구 자양번영로 25-1,고기 요리,2만원-3만원,1,,37.5319593,127.0750043
260,김천재의육회반한연어,서울특별시 광진구 아차산로31길 23  1F,고기 요리,2만원-3만원,1,,37.542087,127.0696049
261,은행나무집,서울특별시 광진구 아차산로69길 20,기타 한식,2만원-3만원,0,,37.5429115,127.0985331
262,선장훅,서울특별시 광진구 동일로24길 38-1 1F,해산물 요리,3만원-4만원,7,4.3,37.5433407,127.0672491
263,명월관,서울특별시 광진구 워커힐로 177 비스타 워커힐 별관,고기 요리,4만원 이상,28,3.9,37.5543699,127.1112096
264,온달,서울특별시 광진구 워커힐로 177 그랜드 워커힐 본관 2F,한정식 / 백반 / 정통 한식,4만원 이상,2,,37.5552126,127.1108905
265,대가식당,서울특별시 광진구 광나루로 596,고기 요리,3만원-4만원,2,,37.5419929,127.0943562
266,크래버대게나라,서울특별시 광진구 천호대로 611 중원빌딩 1F,해산물 요리,4만원 이상,2,,37.5551086,127.0857215
267,위대한계츠비,서울특별시 광진구 아차산로31길 37,닭 / 오리 요리,3만원-4만원,1,,37.5425994,127.0699142
268,팔월잔칫날,서울특별시 광진구 광장로 82,고기 요리,3만원-4만원,4,,37.5477321,127.1062407
269,부둣가횟집,서울특별시 광진구 면목로 62 1F,해산물 요리,3만원-4만원,1,,37.55932070000001,127.0778003
270,대게마루,서울특별시 광진구 자양번영로 23,해산물 요리,4만원 이상,2,,37.5316746,127.0750056
271,장원참숯민물장어,서울특별시 광진구 면목로 30,해산물 요리,3만원-4만원,1,,37.5567216,127.0763496
272,모리참치,서울특별시 광진구 천호대로 681,해산물 요리,4만원 이상,2,,37.5504571,127.0909299
273,갯벌낙지쭈꾸미,서울특별시 광진구 자양로43길 26,해산물 요리,3만원-4만원,1,,37.5517183,127.0907788
274,청담이상,서울특별시 광진구 자양로18길 25 2F,고기 요리,3만원-4만원,1,,37.5378668,127.0848594
275,초라멘,서울특별시 광진구 능동로13길 80 1F,라멘 / 소바 / 우동,만원 미만,17,4.3,37.5451251,127.0688938
276,소바쿠,서울특별시 광진구 천호대로 650,라멘 / 소바 / 우동,만원 미만,48,4.2,37.5526967,127.0887694
277,라멘다이야,서울특별시 광진구 자양번영로6길 67,라멘 / 소바 / 우동,만원 미만,23,4.2,37.5315443,127.0792071
278,텐동한,서울특별시 광진구 능동로38길 32 1F,돈부리 / 일본 카레 / 벤토,만원 미만,44,4.0,37.5570923,127.0814903
279,포비,서울특별시 광진구 동일로26길 57 1F,철판 요리,만원 미만,11,4.0,37.544598,127.0690079
280,부탄츄,서울특별시 광진구 동일로22길 117-14,라멘 / 소바 / 우동,만원 미만,14,3.9,37.5411477,127.0708183
281,마리모,서울특별시 광진구 면목로 22-1,정통 일식 / 일반 일식,만원 미만,14,3.9,37.5560497,127.076041
282,유미카츠,서울특별시 광진구 능동로13길 11  1F,까스 요리,만원 미만,5,3.9,37.5426136,127.0710343
283,가츠시,서울특별시 광진구 광나루로 418,까스 요리,만원 미만,18,3.8,37.5463347,127.0757083
284,스시붐,서울특별시 광진구 광나루로17길 14-5,회 / 스시,만원 미만,10,3.8,37.54835509999999,127.0727478
285,노다메,서울특별시 광진구 아차산로33길 90 2F,돈부리 / 일본 카레 / 벤토,만원 미만,37,3.7,37.5440769,127.0717121
286,겐로쿠우동,서울특별시 광진구 능동로 111,라멘 / 소바 / 우동,만원 미만,29,3.6,37.5409785,127.0708351
287,멘쇼,서울특별시 광진구 군자로2길 3,라멘 / 소바 / 우동,만원 미만,18,3.4,37.5443865,127.0716664
288,홍대돈부리,서울특별시 광진구 군자로 4,돈부리 / 일본 카레 / 벤토,만원 미만,14,3.3,37.5439271,127.072032
289,메차쿠차,서울특별시 광진구 구의강변로3길 11,까스 요리,만원 미만,7,3.3,37.5356492,127.0913858
290,동경규동,서울특별시 광진구 아차산로 238,돈부리 / 일본 카레 / 벤토,만원 미만,5,2.9,37.539935,127.0695705
291,혼다라멘,서울특별시 광진구 광나루로 385,라멘 / 소바 / 우동,만원 미만,4,,37.5480433,127.0726373
292,라멘미세,서울특별시 광진구 능동로38길 30,라멘 / 소바 / 우동,만원 미만,10,,37.5571411,127.0813811
293,소정백,서울특별시 광진구 천호대로129길 41,까스 요리,만원 미만,3,,37.5535137,127.0915481
294,초라멘,서울특별시 광진구 능동로13길 80 1F,라멘 / 소바 / 우동,만원 미만,17,4.3,37.5451251,127.0688938
295,소바쿠,서울특별시 광진구 천호대로 650,라멘 / 소바 / 우동,만원 미만,48,4.2,37.5526967,127.0887694
296,라멘다이야,서울특별시 광진구 자양번영로6길 67,라멘 / 소바 / 우동,만원 미만,5,4.2,37.5315443,127.0792071
297,텐동한,서울특별시 광진구 능동로38길 32 1F,돈부리 / 일본 카레 / 벤토,만원 미만,5,4.0,37.5570923,127.0814903
298,포비,서울특별시 광진구 동일로26길 57 1F,철판 요리,만원 미만,11,4.0,37.544598,127.0690079
299,부탄츄,서울특별시 광진구 동일로22길 117-14,라멘 / 소바 / 우동,만원 미만,14,3.9,37.5411477,127.0708183
300,마리모,서울특별시 광진구 면목로 22-1,정통 일식 / 일반 일식,만원 미만,14,3.9,37.5560497,127.076041
301,유미카츠,서울특별시 광진구 능동로13길 11  1F,까스 요리,만원 미만,5,3.9,37.5426136,127.0710343
302,가츠시,서울특별시 광진구 광나루로 418,까스 요리,만원 미만,18,3.8,37.5463347,127.0757083
303,노다메,서울특별시 광진구 아차산로33길 90 2F,돈부리 / 일본 카레 / 벤토,만원 미만,37,3.7,37.5440769,127.0717121
304,겐로쿠우동,서울특별시 광진구 능동로 111,라멘 / 소바 / 우동,만원 미만,29,3.6,37.5409785,127.0708351
305,멘쇼,서울특별시 광진구 군자로2길 3,라멘 / 소바 / 우동,만원 미만,18,3.4,37.5443865,127.0716664
306,홍대돈부리,서울특별시 광진구 군자로 4,돈부리 / 일본 카레 / 벤토,만원 미만,14,3.3,37.5439271,127.072032
307,메차쿠차,서울특별시 광진구 구의강변로3길 11,까스 요리,만원 미만,7,3.3,37.5356492,127.0913858
308,동경규동,서울특별시 광진구 아차산로 238,돈부리 / 일본 카레 / 벤토,만원 미만,6,2.9,37.539935,127.0695705
309,혼다라멘,서울특별시 광진구 광나루로 385,라멘 / 소바 / 우동,만원 미만,4,,37.5480433,127.0726373
310,라멘미세,서울특별시 광진구 능동로38길 30,라멘 / 소바 / 우동,만원 미만,10,,37.5571411,127.0813811
311,소정백,서울특별시 광진구 천호대로129길 41,까스 요리,만원 미만,3,,37.5535137,127.0915481
312,혼다라멘,서울특별시 광진구 자양로18길 32,라멘 / 소바 / 우동,만원 미만,2,,37.5376898,127.0852802
313,산쪼메,서울특별시 광진구 능동로31길 8 1F,라멘 / 소바 / 우동,만원 미만,1,,37.555727,127.0779928
314,고쿠텐,서울특별시 광진구 동일로22길 117-16  2F,돈부리 / 일본 카레 / 벤토,만원 미만,1,,37.5412744,127.0708778
315,쭌텐동,서울특별시 광진구 자양로18길 81,돈부리 / 일본 카레 / 벤토,만원 미만,1,,37.5385598,127.0880271
316,나카노라멘,서울특별시 광진구 군자로2길 4,라멘 / 소바 / 우동,만원 미만,1,,37.5443452,127.0718061
317,상상돈가스,서울특별시 광진구 광나루로56길 85 테크노마트 9F 40호,까스 요리,만원 미만,1,,37.5358089,127.0956288
318,카츠젠,서울특별시 광진구 능동로13길 44,까스 요리,만원 미만,1,,37.5438679,127.0701135
319,최고당돈까스,서울특별시 광진구 동일로20길 67,까스 요리,만원 미만,1,,37.5404156,127.0673241
320,오코노미야키식당하나,서울특별시 광진구 능동로13길 111,철판 요리,만원-2만원,10,4.7,37.5461734,127.067679
321,이이요,서울특별시 광진구 능동로32길 6,회 / 스시,만원-2만원,35,4.3,37.5551566,127.0789008
322,케루악,서울특별시 광진구 뚝섬로52마길 21,돈부리 / 일본 카레 / 벤토,만원-2만원,13,4.2,37.529144,127.0795681
323,우마이도,서울특별시 광진구 능동로 135-2,라멘 / 소바 / 우동,만원-2만원,113,4.0,37.5429999,127.0716825
324,사월식당,서울특별시 광진구 자양로4길 12-1,회 / 스시,만원-2만원,10,3.9,37.5313649,127.0869641
325,요마시,서울특별시 광진구 천호대로102길 7 1F,정통 일식 / 일반 일식,만원-2만원,14,3.9,37.5585641,127.0742658
326,호야초밥참치전문점,서울특별시 광진구 능동로13길 36,회 / 스시,만원-2만원,70,3.7,37.54357,127.0703967
327,스시텐,서울특별시 광진구 구의강변로 86,회 / 스시,만원-2만원,22,3.7,37.5380986,127.0938907
328,초밥짓는원숭이,서울특별시 광진구 능동로13길 27 1F,회 / 스시,만원-2만원,21,3.6,37.5431057,127.0705824
329,건대스시,서울특별시 광진구 능동로13길 19,회 / 스시,만원-2만원,11,3.6,37.54285610000001,127.0708163
330,호야,서울특별시 광진구 능동로13길 36,회 / 스시,만원-2만원,19,3.3,37.54357,127.0703967
331,스시토푸,서울특별시 광진구 아차산로 612,회 / 스시,만원-2만원,14,3.3,37.5473529,127.1067409
332,은호초밥,서울특별시 광진구 동일로20길 83,회 / 스시,만원-2만원,5,3.2,37.540156,127.0681149
333,사보텐,서울특별시 광진구 아차산로 272 스타시티 B1,까스 요리,만원-2만원,5,3.1,37.5376127,127.0726183
334,키엔오,서울특별시 광진구 아차산로55길 26 1F,이자카야 / 오뎅 / 꼬치,만원-2만원,1,,37.53852699999999,127.0865792
335,오사이초밥,서울특별시 광진구 군자로 14 1F,회 / 스시,만원-2만원,4,,37.5447175,127.0714835
336,스시안,서울특별시 광진구 천호대로127길 9 1F,회 / 스시,만원-2만원,3,,37.5536361,127.0894279
337,코코이찌방야,서울특별시 광진구 아차산로 272 스타시티 B1,돈부리 / 일본 카레 / 벤토,만원-2만원,4,,37.5376127,127.0726183
338,포비의 행방불명,서울특별시 광진구 동일로26길 58 ,철판 요리,만원-2만원,3,,37.544479,127.0688883
339,스시오리,서울특별시 광진구 천호대로132길 56,회 / 스시,만원-2만원,4,,37.5488323,127.0879733
340,백소정,서울특별시 광진구 아차산로 241 201호,까스 요리,만원-2만원,8,,37.54046659999999,127.0701365
341,하리네즈미,서울특별시 광진구 동일로24길 61,이자카야 / 오뎅 / 꼬치,만원-2만원,1,,37.5430876,127.0685163
342,E-참치세상,서울특별시 광진구 군자로17길 42,회 / 스시,만원-2만원,1,,37.5569729,127.0774987
343,D 27,서울특별시 광진구 동일로52길 39,이자카야 / 오뎅 / 꼬치,만원-2만원,3,,37.5539588,127.0733393
344,고베규카츠,서울특별시 광진구 아차산로33길 64 1F,까스 요리,만원-2만원,5,,37.5429535,127.071175
345,건대연어덮밥,서울특별시 광진구 능동로13길 42  1F,돈부리 / 일본 카레 / 벤토,만원-2만원,1,,37.5437694,127.0701905
346,스시댄,서울특별시 광진구 능동로 68,회 / 스시,만원-2만원,2,,37.5369721,127.0697601
347,화심,서울특별시 광진구 광나루로 379,이자카야 / 오뎅 / 꼬치,만원-2만원,1,,37.5481754,127.0720189
348,일광,서울특별시 광진구 동일로24길 68,이자카야 / 오뎅 / 꼬치,만원-2만원,4,,37.5428273,127.0686463
349,싸다유정상초밥,서울특별시 광진구 자양로15길 90 1F,회 / 스시,만원-2만원,1,,37.5348452,127.0787852
350,이자와,서울특별시 광진구 동일로20길 65,까스 요리,만원-2만원,3,,37.5404721,127.0671762
351,선남sea,서울특별시 광진구 자양번영로 62 예닮빌딩 1F,회 / 스시,만원-2만원,6,,37.5349793,127.0764561
352,모리본,서울특별시 광진구 긴고랑로15길 6,이자카야 / 오뎅 / 꼬치,만원-2만원,3,,37.5622252,127.0831749
353,유키노하나,서울특별시 광진구 아차산로33길 21-5,회 / 스시,2만원-3만원,18,3.9,37.5413365,127.0698394
354,하루,서울특별시 광진구 면목로 53 1F,이자카야 / 오뎅 / 꼬치,2만원-3만원,9,3.7,37.5587421,127.077091
355,쉐프의콜렉션,서울특별시 광진구 구의강변로 64 1F,회 / 스시,2만원-3만원,9,,37.5361506,127.093086
356,데판야끼 한,서울특별시 광진구 능동로38길 32,철판 요리,2만원-3만원,7,,37.5570923,127.0814903
357,피읖,서울특별시 광진구 능동로 327-1 1F,이자카야 / 오뎅 / 꼬치,2만원-3만원,5,,37.5589919,127.0802344
358,고메,서울특별시 광진구 능동로36길 18,정통 일식 / 일반 일식,2만원-3만원,4,,37.554141,127.0847573
359,심야식당7925,서울특별시 광진구 자양로 235,이자카야 / 오뎅 / 꼬치,2만원-3만원,4,,37.5477465,127.0879741
360,도키도키,서울특별시 광진구 아차산로33길 43 2F,이자카야 / 오뎅 / 꼬치,2만원-3만원,2,,37.5421885,127.0706017
361,심야식당 쿠난,서울특별시 광진구 군자로 168 ,이자카야 / 오뎅 / 꼬치,2만원-3만원,6,,37.555721,127.0774451
362,와꼬스시,서울특별시 광진구 구의강변로 88 1F,회 / 스시,2만원-3만원,3,,37.5383321,127.0941504
363,시마스시,서울특별시 광진구 능동로 92 스타시티 B1,회 / 스시,2만원-3만원,3,,37.53898179999999,127.0712959
364,수작나베,서울특별시 광진구 구의강변로 106 삼성쉐르빌 1F 110호,기타 일식,2만원-3만원,5,,37.5398369,127.0948552
365,화요비,서울특별시 광진구 아차산로33길 32,이자카야 / 오뎅 / 꼬치,2만원-3만원,3,,37.5415899,127.0705537
366,건대광안리,서울특별시 광진구 아차산로29길 29-1,회 / 스시,2만원-3만원,1,,37.5422215,127.0686063
367,오징어상미수산,서울특별시 광진구 면목로 34,회 / 스시,2만원-3만원,3,,37.5570017,127.076568
368,황제참치,서울특별시 광진구 아차산로51길 36-1 1F,회 / 스시,2만원-3만원,2,,37.5386023,127.0851344
369,동신참치,서울특별시 광진구 광나루로56길 85,회 / 스시,2만원-3만원,1,,37.5349372,127.0957088
370,오2C참치,서울특별시 광진구 동일로24길 80,회 / 스시,2만원-3만원,2,,37.5426484,127.0692664
371,갓포더인,서울특별시 광진구 아차산로 461 1F,이자카야 / 오뎅 / 꼬치,2만원-3만원,2,,37.53986039999999,127.0932221
372,청운참치,서울특별시 광진구 동일로22길 59 2F,회 / 스시,2만원-3만원,1,,37.5416614,127.0676231
373,국선참치,서울특별시 광진구 능동로36길 7,회 / 스시,2만원-3만원,1,,37.5563353,127.0796208
374,웃는돌참치,서울특별시 광진구 아차산로 361,회 / 스시,2만원-3만원,1,,37.53692050000001,127.0828693
375,코후쿠,서울특별시 광진구 아차산로29길 24,이자카야 / 오뎅 / 꼬치,2만원-3만원,2,,37.5418732,127.068657
376,키움참치,서울특별시 광진구 자양로18길 17,회 / 스시,2만원-3만원,1,,37.5377098,127.0844856
377,나린아토,서울특별시 광진구 자양번영로 21,이자카야 / 오뎅 / 꼬치,2만원-3만원,1,,37.5314841,127.0749604
378,모에기,서울특별시 광진구 워커힐로 177 비스타 워커힐 1F,정통 일식 / 일반 일식,4만원 이상,10,4.1,37.5543699,127.1112096
379,물고기,서울특별시 광진구 면목로 1,회 / 스시,3만원-4만원,2,,37.5544757,127.0749117
380,함루,서울특별시 광진구 능동로 92  더클래식500 1F,돈부리 / 일본 카레 / 벤토,3만원-4만원,2,,37.5384449,127.0710527
381,강경수참치,서울특별시 광진구 아차산로33길 34,회 / 스시,3만원-4만원,1,,37.5416829,127.0705831
382,시홍쓰,서울특별시 광진구 능동로17길 5 1F,기타 중식,만원 미만,14,4.5,37.5460009,127.0730146
383,송화산시도삭면,서울특별시 광진구 뚝섬로27길 48,기타 중식,만원 미만,20,4.4,37.5378699,127.0664992
384,빠오즈푸,서울특별시 광진구 광나루로 373,딤섬 / 만두,만원 미만,5,4.4,37.5481363,127.0715056
385,송화산시도삭면,서울특별시 광진구 아차산로30길 33,기타 중식,만원 미만,21,4.2,37.5391658,127.0672084
386,천향마라탕,서울특별시 광진구 아차산로30길 20 1F,기타 중식,만원 미만,16,4.0,37.5398659,127.0673218
387,미식반점,서울특별시 광진구 군자로 70 1F,정통 중식 / 일반 중식,만원 미만,13,3.9,37.5493305,127.0709838
388,백미원,서울특별시 광진구 아차산로 224,기타 중식,만원 미만,6,3.9,37.5405332,127.0680762
389,중경소면관,서울특별시 광진구 아차산로30길 42,딤섬 / 만두,만원 미만,19,3.7,37.5390264,127.0668933
390,니뽕내뽕,서울특별시 광진구 동일로20길 60,정통 중식 / 일반 중식,만원 미만,8,3.4,37.5404204,127.0666813
391,라화쿵부,서울특별시 광진구 아차산로30길 42,기타 중식,만원 미만,15,3.0,37.5390264,127.0668933
392,이우,서울특별시 광진구 아차산로33길 49  2F,정통 중식 / 일반 중식,만원 미만,1,,37.5424706,127.070717
393,주하객잔,서울특별시 광진구 아차산로78길 170,정통 중식 / 일반 중식,만원 미만,5,,37.5479119,127.108331
394,동네수타짜장,서울특별시 광진구 구의로 61-1 ,정통 중식 / 일반 중식,만원 미만,1,,37.5434631,127.0902125
395,미미전병,서울특별시 광진구 뚝섬로27길 55,정통 중식 / 일반 중식,만원 미만,2,,37.5382501,127.0664967
396,미국가주우육면대왕,서울특별시 광진구 동일로18길 56,기타 중식,만원 미만,3,,37.5390525,127.0657569
397,란주우육면,서울특별시 광진구 동일로18길 37,정통 중식 / 일반 중식,만원 미만,3,,37.5395204,127.064985
398,하오츠,서울특별시 광진구 능동로 275 비젼빌딩 101호,정통 중식 / 일반 중식,만원 미만,4,,37.5545075,127.0777068
399,세종원,서울특별시 광진구 광나루로 373,정통 중식 / 일반 중식,만원 미만,4,,37.5481363,127.0715056
400,시옌,서울특별시 광진구 능동로 137-8 1F,정통 중식 / 일반 중식,만원 미만,3,,37.5433569,127.0717041
401,화원,서울특별시 광진구 능동로16길 56-6,정통 중식 / 일반 중식,만원 미만,2,,37.5450153,127.0760177
402,짬뽕지존,서울특별시 광진구 천호대로 682,정통 중식 / 일반 중식,만원 미만,4,,37.5500182,127.0903275
403,동성관,서울특별시 광진구 자양로13길 56,정통 중식 / 일반 중식,만원 미만,5,,37.5340983,127.081339
404,춘선만두,서울특별시 광진구 군자로 101,딤섬 / 만두,만원 미만,3,,37.5522529,127.0712531
405,김사부계서도삭면,서울특별시 광진구 동일로18길 28,기타 중식,만원 미만,2,,37.5395323,127.0643297
406,짜장짬뽕의달인,서울특별시 광진구 뚝섬로 590,정통 중식 / 일반 중식,만원 미만,5,,37.5330986,127.0752799
407,복만루,서울특별시 광진구 자양번영로3길 38 이화빌라 1F,정통 중식 / 일반 중식,만원 미만,4,,37.5325407,127.0726557
408,준성이네,서울특별시 광진구 뚝섬로27길 48,기타 중식,만원 미만,2,,37.5378699,127.0664992
409,라공방,서울특별시 광진구 아차산로 272 스타시티 B1,기타 중식,만원 미만,3,,37.5376127,127.0726183
410,길이식당,서울특별시 광진구 광나루로24길 25-4,기타 중식,만원 미만,3,,37.545172,127.0769267
411,탄탄면공방,서울특별시 광진구 능동로 139 2F,기타 중식,만원 미만,3,,37.5432681,127.0718704
412,호운래,서울특별시 광진구 동일로18길 47,정통 중식 / 일반 중식,만원 미만,2,,37.5393386,127.0654682
413,피슈마라홍탕,서울특별시 광진구 능동로 302 2F,기타 중식,만원 미만,2,,37.556559,127.079532
414,참폰,서울특별시 광진구 구의강변로 85-1  1F,정통 중식 / 일반 중식,만원 미만,1,,37.5383522,127.0935878
415,홍콩반점0410,서울특별시 광진구 아차산로51길 11 1F,정통 중식 / 일반 중식,만원 미만,2,,37.5375201,127.0851205
416,명품마라탕,서울특별시 광진구 능동로13길 40,기타 중식,만원 미만,1,,37.543672,127.0702947
417,뽕사부,서울특별시 광진구 아차산로 205 ,정통 중식 / 일반 중식,만원 미만,1,,37.5417161,127.0663313
418,맛이차이나,서울특별시 광진구 동일로 224,정통 중식 / 일반 중식,만원 미만,2,,37.5517055,127.0695872
419,아차성,서울특별시 광진구 천호대로129길 48,정통 중식 / 일반 중식,만원 미만,1,,37.5534969,127.0919433
420,중국성,서울특별시 광진구 자양번영로3길 38,정통 중식 / 일반 중식,만원 미만,1,,37.5321621,127.0731757
421,홍콩반점0410,서울특별시 광진구 광나루로 381-1,정통 중식 / 일반 중식,만원 미만,1,,37.5480588,127.0723123
422,차이797,서울특별시 광진구 아차산로 272 건대스타시티 쇼핑몰,정통 중식 / 일반 중식,만원 미만,2,,37.5376127,127.0726183
423,중국관,서울특별시 광진구 긴고랑로 39,정통 중식 / 일반 중식,만원 미만,1,,37.5630373,127.0806635
424,대중관,서울특별시 광진구 용마산로 114,정통 중식 / 일반 중식,만원 미만,1,,37.5638431,127.0870863
425,양자강,서울특별시 광진구 능동로 365,정통 중식 / 일반 중식,만원 미만,1,,37.5620222,127.081869
426,무명반점,서울특별시 광진구 천호대로127길 19,정통 중식 / 일반 중식,만원 미만,1,,37.55440300000001,127.0907599
427,채린,서울특별시 광진구 천호대로109길 8,정통 중식 / 일반 중식,만원 미만,1,,37.5571102,127.0810102
428,레전드,서울특별시 광진구 뚝섬로32길 9 1F,정통 중식 / 일반 중식,만원 미만,1,,37.5350693,127.067385
429,석기시대짜장마을,서울특별시 광진구 군자로 111,정통 중식 / 일반 중식,만원 미만,1,,37.5529526,127.0721068
430,리하이,서울특별시 광진구 아차산로 444 와이앤오피스텔 1F,정통 중식 / 일반 중식,만원 미만,1,,37.53842849999999,127.0919088
431,하오츠,서울특별시 광진구 능동로 373,정통 중식 / 일반 중식,만원 미만,1,,37.5626865,127.0822513
432,매운향솥,서울특별시 광진구 동일로18길 61,기타 중식,만원-2만원,10,4.4,37.5391042,127.066253
433,송화양꼬치,서울특별시 광진구 동일로18길 70,기타 중식,만원-2만원,10,4.3,37.5387443,127.0665517
434,얼땅쟈,서울특별시 광진구 동일로18길 68,기타 중식,만원-2만원,11,4.3,37.5387396,127.0664091
435,경성양육관,서울특별시 광진구 동일로18길 52,기타 중식,만원-2만원,16,4.1,37.5391011,127.0656284
436,고향양꼬치,서울특별시 광진구 동일로18길 101 1F,기타 중식,만원-2만원,18,4.1,37.5384413,127.0683455
437,반티엔야오 카오위,서울특별시 광진구 동일로20길 106 2F,기타 중식,만원-2만원,14,4.1,37.53951259999999,127.0691379
438,화양식당,서울특별시 광진구 군자로7길 3,정통 중식 / 일반 중식,만원-2만원,31,4.0,37.5463415,127.0700352
439,쿵푸소룽샤,서울특별시 광진구 동일로18길 37 1F,기타 중식,만원-2만원,5,3.9,37.5395204,127.064985
440,허씨전통중경마라쌍궈,서울특별시 광진구 동일로18길 50,기타 중식,만원-2만원,12,3.9,37.5391244,127.0654991
441,매화반점,서울특별시 광진구 동일로18길 105,기타 중식,만원-2만원,75,3.8,37.5384109,127.0684806
442,봉자마라탕,서울특별시 광진구 동일로18길 22,기타 중식,만원-2만원,29,3.8,37.5396273,127.0640388
443,훈춘양꼬치,서울특별시 광진구 아차산로34길 38,정통 중식 / 일반 중식,만원-2만원,5,3.8,37.5384382,127.0688615
444,복만루,서울특별시 광진구 동일로18길 43,기타 중식,만원-2만원,14,3.7,37.5394152,127.0652454
445,매화반점,서울특별시 광진구 동일로18길 96,기타 중식,만원-2만원,21,3.7,37.5383153,127.0679013
446,복만루,서울특별시 광진구 동일로20길 106 2F,기타 중식,만원-2만원,6,3.7,37.53951259999999,127.0691379
447,미친양꼬치,서울특별시 광진구 아차산로33길 16-4,기타 중식,만원-2만원,7,3.4,37.5409247,127.0704092
448,범가,서울특별시 광진구 광장로 58-1,정통 중식 / 일반 중식,만원-2만원,13,3.3,37.5470714,127.1035891
449,소성공자 샤브샤브,서울특별시 광진구 동일로18길 17,기타 중식,만원-2만원,3,,37.5398838,127.0638851
450,월하식당,서울특별시 광진구 뚝섬로 651 1F,기타 중식,만원-2만원,5,,37.5315611,127.0819449
451,몽다래향라관,서울특별시 광진구 동일로18길 26,정통 중식 / 일반 중식,만원-2만원,2,,37.5395869,127.0641683
452,홍야동양꼬치훠궈,서울특별시 광진구 동일로18길 23 1F,기타 중식,만원-2만원,2,,37.5397367,127.0643169
453,마라샤브성,서울특별시 광진구 동일로18길 69,정통 중식 / 일반 중식,만원-2만원,2,,37.5390031,127.0666865
454,중화닭날개구이,서울특별시 광진구 동일로18길 65,기타 중식,만원-2만원,1,,37.5390531,127.066403
455,매화양,서울특별시 광진구 동일로20길 106,기타 중식,만원-2만원,3,,37.53951259999999,127.0691379
456,란주천면관,서울특별시 광진구 동일로18길 32,정통 중식 / 일반 중식,만원-2만원,3,,37.5394501,127.0645298
457,라좡,서울특별시 광진구 동일로18길 10,기타 중식,만원-2만원,2,,37.5398173,127.0634525
458,천지샤브샤브,서울특별시 광진구 동일로18길 52,기타 중식,만원-2만원,3,,37.5391011,127.0656284
459,복만루,서울특별시 광진구 아차산로30길 23,기타 중식,만원-2만원,2,,37.5396435,127.0674547
460,미선미식성,서울특별시 광진구 뚝섬로27길 65,기타 중식,만원-2만원,1,,37.5386521,127.0666286
461,무한양꼬치,서울특별시 광진구 아차산로29길 41 2F,기타 중식,만원-2만원,3,,37.5426859,127.0688766
462,중경식객,서울특별시 광진구 동일로20길 109 ,기타 중식,만원-2만원,2,,37.5397161,127.0694601
463,중경삼림,서울특별시 광진구 아차산로 200 3F,기타 중식,만원-2만원,1,,37.5408693,127.0660137
464,천지샤브샤브,서울특별시 광진구 아차산로29길 22 2F,기타 중식,만원-2만원,1,,37.541762,127.068612
465,홍매반점,서울특별시 광진구 동일로18길 94,정통 중식 / 일반 중식,만원-2만원,1,,37.5383438,127.0677504
466,춘향미엔,서울특별시 광진구 동일로20길 92 1F,정통 중식 / 일반 중식,만원-2만원,2,,37.5398442,127.0684514
467,백옥양꼬치,서울특별시 광진구 뚝섬로23길 97,기타 중식,만원-2만원,3,,37.5381285,127.0684365
468,탕화쿵푸마라탕,서울특별시 광진구 아차산로30길 26,기타 중식,만원-2만원,1,,37.5395762,127.0675281
469,순희냉면,서울특별시 광진구 동일로18길 84,기타 중식,만원-2만원,2,,37.5384517,127.0671494
470,짠롱지아,서울특별시 광진구 아차산로 397,정통 중식 / 일반 중식,만원-2만원,1,,37.5375102,127.0867568
471,아리랑양꼬치,서울특별시 광진구 자양로13길 52,기타 중식,만원-2만원,1,,37.534151,127.0815115
472,용용선생,서울특별시 광진구 아차산로33길 25,기타 중식,만원-2만원,1,,37.54142890000001,127.0702513
473,천향마라탕,서울특별시 광진구 자양로18길 26,기타 중식,만원-2만원,2,,37.5376217,127.0850955
474,북경성훠궈,서울특별시 광진구 동일로20길 92,기타 중식,만원-2만원,1,,37.5398442,127.0684514
475,하이난,서울특별시 광진구 능동로 243-1,정통 중식 / 일반 중식,만원-2만원,4,,37.5520304,127.07642
476,원조외파가마라탕마라샹궈,서울특별시 광진구 동일로20길 89 1F,기타 중식,만원-2만원,1,,37.54003970000001,127.0684433
477,명봉샤브샤브양꼬치,서울특별시 광진구 뚝섬로31길 59 광진빌딩,기타 중식,2만원-3만원,15,4.4,37.5380635,127.0686501
478,해룡마라룽샤,서울특별시 광진구 동일로18길 36,기타 중식,2만원-3만원,57,4.3,37.5388474,127.0666523
479,하이디라오,서울특별시 광진구 능동로 110 스타시티 영존 A동 2F,기타 중식,2만원-3만원,18,3.6,37.5406496,127.0714118
480,연길양꼬치,서울특별시 광진구 동일로18길 28,정통 중식 / 일반 중식,2만원-3만원,3,,37.5395323,127.0643297
481,램니쿠야,서울특별시 광진구 아차산로29길 19,기타 중식,2만원-3만원,1,,37.5417979,127.0683626
482,해란양꼬치,서울특별시 광진구 동일로18길 73,기타 중식,2만원-3만원,3,,37.5389211,127.0668052
483,송쉐프,서울특별시 광진구 아차산로 355,정통 중식 / 일반 중식,2만원-3만원,2,,37.5373702,127.0826398
484,원보양꼬치,서울특별시 광진구 동일로18길 23,기타 중식,2만원-3만원,1,,37.5397367,127.0643169
485,금룡,서울특별시 광진구 워커힐로 177 그랜드 워커힐 본관 1F,정통 중식 / 일반 중식,4만원 이상,6,,37.5552126,127.1108905
486,금하,서울특별시 광진구 아차산로36길 5 4F,정통 중식 / 일반 중식,3만원-4만원,1,,37.5383015,127.0746261
487,수퍼슬라이더스,서울특별시 광진구 능동로13길 50,브런치 / 버거 / 샌드위치,만원 미만,35,4.0,37.5440708,127.0699084
488,호파스타,서울특별시 광진구 군자로3길 23,기타 양식,만원 미만,10,4.0,37.5442162,127.070185
489,래빗홀 버거컴퍼니,서울특별시 광진구 광나루로 424 1F,브런치 / 버거 / 샌드위치,만원 미만,5,3.9,37.5459924,127.0765217
490,능동샐러드,서울특별시 광진구 능동로13길 10-7 2F,기타 양식,만원 미만,13,3.7,37.5429772,127.0713195
491,피자컴퍼니,서울특별시 광진구 능동로32길 12 1F,기타 양식,만원 미만,8,3.7,37.55506,127.0792336
492,민벅,서울특별시 광진구 능동로13길 39 한아름쇼핑센터,이탈리안,만원 미만,17,3.5,37.5434818,127.0699485
493,페스타마레,서울특별시 광진구 동일로20길 114,이탈리안,만원 미만,10,3.3,37.5394881,127.0695761
494,도쿄스테이크,서울특별시 광진구 능동로13길 27,스테이크 / 바베큐,만원 미만,16,2.9,37.5431057,127.0705824
495,프랭크버거,서울특별시 광진구 아차산로29길 44 1F 104호,브런치 / 버거 / 샌드위치,만원 미만,5,2.8,37.5426543,127.0691033
496,바른면집,서울특별시 광진구 능동로13길 28 1F,기타 양식,만원 미만,6,,37.543284,127.0706865
497,버거더와이즈,서울특별시 광진구 자양로18길 67 1F,브런치 / 버거 / 샌드위치,만원 미만,1,,37.5383888,127.0873435
498,투고샐러드,서울특별시 광진구 광나루로24길 9,기타 양식,만원 미만,9,,37.5458664,127.0764349
499,롤링파스타,서울특별시 광진구 능동로 127 2F,기타 양식,만원 미만,7,,37.5422453,127.0714067
500,비에뜨반미,서울특별시 광진구 능동로17길 1,브런치 / 버거 / 샌드위치,만원 미만,5,,37.5459016,127.0731052
501,라비올리,서울특별시 광진구 천호대로129길 16,이탈리안,만원 미만,2,,37.5525797,127.0906585
502,스위트스팟,서울특별시 광진구 능동로 185 2F,기타 양식,만원 미만,1,,37.547058,127.0736092
503,폰버거,서울특별시 광진구 동일로24길 23 1F,브런치 / 버거 / 샌드위치,만원 미만,1,,37.5438813,127.0664446
504,맘스터치,서울특별시 광진구 아차산로 224,브런치 / 버거 / 샌드위치,만원 미만,3,,37.5405332,127.0680762
505,미태리,서울특별시 광진구 자양로 112 1F,기타 양식,만원 미만,4,,37.5376448,127.0836627
506,폼프리츠,서울특별시 광진구 능동로19길 41,브런치 / 버거 / 샌드위치,만원 미만,2,,37.547209,127.0714934
507,맘스터치,서울특별시 광진구 능동로 409-1,브런치 / 버거 / 샌드위치,만원 미만,2,,37.5656677,127.0839398
508,집파스타,서울특별시 광진구 광나루로56길 85 강변테크노마트 9F,기타 양식,만원 미만,1,,37.5358089,127.0956288
509,맘스터치,서울특별시 광진구 능동로 92 롯데백화점 스타시티 B1,브런치 / 버거 / 샌드위치,만원 미만,2,,37.53898179999999,127.0712959
510,원스테이크,서울특별시 광진구 광나루로24길 15,스테이크 / 바베큐,만원 미만,3,,37.54558859999999,127.0766296
511,롯데리아,서울특별시 광진구 능동로 7,브런치 / 버거 / 샌드위치,만원 미만,1,,37.5323053,127.0667564
512,피자스쿨,서울특별시 광진구 뚝섬로 480,기타 양식,만원 미만,1,,37.5364037,127.0635156
513,써브웨이,서울특별시 광진구 아차산로 241 연한빌딩 102호,브런치 / 버거 / 샌드위치,만원 미만,2,,37.54046659999999,127.0701365
514,버거킹,서울특별시 광진구 아차산로 272 더샵스타시티,브런치 / 버거 / 샌드위치,만원 미만,1,,37.5376127,127.0726183
515,맥도날드,서울특별시 광진구 아차산로 376,브런치 / 버거 / 샌드위치,만원 미만,1,,37.5363941,127.0844723
516,샐러디,서울특별시 광진구 아차산로34길 5-3,기타 양식,만원 미만,1,,37.5398366,127.0698908
517,롯데리아,서울특별시 광진구 천호대로 548 1F,브런치 / 버거 / 샌드위치,만원 미만,1,,37.5566812,127.0789171
518,버거킹,서울특별시 광진구 아차산로 225,브런치 / 버거 / 샌드위치,만원 미만,1,,37.5408751,127.0684635
519,서브웨이,서울특별시 광진구 동일로20길 106,브런치 / 버거 / 샌드위치,만원 미만,1,,37.53951259999999,127.0691379
520,KFC,서울특별시 광진구 광나루로 396,브런치 / 버거 / 샌드위치,만원 미만,1,,37.5471648,127.0735513
521,고피자,서울특별시 광진구 아차산로 219 103호,기타 양식,만원 미만,1,,37.5410879,127.0679154
522,버거리,서울특별시 광진구 능동로13길 36 ,브런치 / 버거 / 샌드위치,만원 미만,1,,37.54357,127.0703967
523,써브웨이,서울특별시 광진구 광나루로 390,브런치 / 버거 / 샌드위치,만원 미만,1,,37.5473212,127.0729281
524,플록,서울특별시 광진구 자양로19길 8 광석빌딩 1F,프랑스 음식,만원-2만원,15,4.4,37.5392622,127.0827101
525,비에이치테이블,서울특별시 광진구 아차산로45길 16,브런치 / 버거 / 샌드위치,만원-2만원,19,4.2,37.5377447,127.0807523
526,핱버드,서울특별시 광진구 아차산로 200 커먼그라운드 3F,브런치 / 버거 / 샌드위치,만원-2만원,5,4.2,37.5408693,127.0660137
527,감성당,서울특별시 광진구 아차산로29길 25,이탈리안,만원-2만원,20,4.0,37.5420106,127.0684833
528,조용한주택,서울특별시 광진구 동일로24길 24,이탈리안,만원-2만원,5,3.9,37.54359,127.0664211
529,엘루이피자앤펍,서울특별시 광진구 아차산로33길 35,기타 양식,만원-2만원,8,3.9,37.5419001,127.0704729
530,꽁비비알,서울특별시 광진구 자양강변길 89,프랑스 음식,만원-2만원,5,3.7,37.5322122,127.0669049
531,아날로그키친,서울특별시 광진구 아차산로 200 3F,이탈리안,만원-2만원,15,3.4,37.5408693,127.0660137
532,마초쉐프,서울특별시 광진구 능동로 125 2F,이탈리안,만원-2만원,8,3.0,37.5421481,127.0713004
533,잉글사이드,서울특별시 광진구 능동로 282,이탈리안,만원-2만원,11,2.9,37.5548974,127.078595
534,어라운드 자양,서울특별시 광진구 능동로6길 14,이탈리안,만원-2만원,8,,37.5341387,127.0687781
535,브네,서울특별시 광진구 군자로 70,이탈리안,만원-2만원,1,,37.5493305,127.0709838
536,노떼,서울특별시 광진구 천호대로111길 44 1F,이탈리안,만원-2만원,2,,37.5582,127.0830307
537,파쏘,서울특별시 광진구 군자로 174 1F,퓨전 양식,만원-2만원,3,,37.5560632,127.0777725
538,카페22,서울특별시 광진구 아차산로31길 54 2F,이탈리안,만원-2만원,3,,37.5432191,127.0704599
539,팬케이크 팬트리,서울특별시 광진구 뚝섬로34길 67 광진트라팰리스 110호,브런치 / 버거 / 샌드위치,만원-2만원,6,,37.53184359999999,127.0679682
540,후문카페,서울특별시 광진구 능동로36길 183,브런치 / 버거 / 샌드위치,만원-2만원,4,,37.5526048,127.0885396
541,마냐나,서울특별시 광진구 광나루로 604 진넥스베르디엠빌딩,스테이크 / 바베큐,만원-2만원,7,,37.5460406,127.0793223
542,아마노,서울특별시 광진구 자양로39길 20 ,이탈리안,만원-2만원,6,,37.5492311,127.088403
543,옐로우버거,서울특별시 광진구 아차산로 200 커먼그라운드 스트릿마켓 3F,브런치 / 버거 / 샌드위치,만원-2만원,2,,37.5408693,127.0660137
544,쿡더브레드,서울특별시 광진구 천호대로 521 호텔 더디자이너스 건대,이탈리안,만원-2만원,1,,37.5586282,127.0765699
545,장미술상,서울특별시 광진구 아차산로31길 3-6 장미술상,퓨전 양식,만원-2만원,2,,37.5413601,127.0689497
546,데스티노,서울특별시 광진구 능동로13길 6 2F,이탈리안,만원-2만원,5,,37.5424872,127.0714523
547,버거비,서울특별시 광진구 아차산로 463 1F,브런치 / 버거 / 샌드위치,만원-2만원,3,,37.5399068,127.093397
548,낙원스낵,서울특별시 광진구 동일로22길 55 1F,기타 양식,만원-2만원,4,,37.5417598,127.0673118
549,오빠네,서울특별시 광진구 능동로13길 27 B1,이탈리안,만원-2만원,1,,37.5431057,127.0705824
550,오포케,서울특별시 광진구 능동로 117  1F,기타 양식,만원-2만원,1,,37.5415592,127.0711244
551,Fuocous,서울특별시 광진구 뚝섬로33길 34  1F,기타 양식,만원-2만원,1,,37.5365189,127.0701154
552,아웃백스테이크하우스,서울특별시 광진구 능동로 90 스타시티몰 스타존 2F,패밀리 레스토랑,만원-2만원,2,,37.538557,127.0729616
553,퀸즈블랙,서울특별시 광진구 동일로20길 106 1F,브런치 / 버거 / 샌드위치,만원-2만원,3,,37.53951259999999,127.0691379
554,피자헛,서울특별시 광진구 아차산로 197,이탈리안,만원-2만원,2,,37.5419002,127.0654679
555,헬스클럽 샐러드요거트,서울특별시 광진구 광나루로12길 6 1F,기타 양식,만원-2만원,1,,37.5474616,127.0676414
556,도미노피자,서울특별시 광진구 아차산로 312,기타 양식,만원-2만원,1,,37.53773169999999,127.0773409
557,라프리스카,서울특별시 광진구 면목로 4 1F,퓨전 양식,만원-2만원,1,,37.5546474,127.0753227
558,뉴욕야시장,서울특별시 광진구 능동로 298 1F,퓨전 양식,만원-2만원,1,,37.5562337,127.0792995
559,팀스쿡,서울특별시 광진구 광나루로50길 10,이탈리안,만원-2만원,1,,37.5424128,127.0936563
560,램스타,서울특별시 광진구 아차산로31길 23,스테이크 / 바베큐,만원-2만원,1,,37.542087,127.0696049
561,램스야,서울특별시 광진구 아차산로78길 166 1F,스테이크 / 바베큐,2만원-3만원,6,4.2,37.5480478,127.1085557
562,다원식당,서울특별시 광진구 아차산로31길 28 4F,이탈리안,2만원-3만원,21,4.0,37.54211970000001,127.0698738
563,도치피자,서울특별시 광진구 아차산로62길 14-4,이탈리안,2만원-3만원,19,3.5,37.5390196,127.0933217
564,메이빌,서울특별시 광진구 아차산로29길 7 B1,이탈리안,2만원-3만원,15,3.4,37.5412803,127.0680816
565,C156,서울특별시 광진구 동일로 156 B1,이탈리안,2만원-3만원,5,,37.5460389,127.0665173
566,매드포갈릭,서울특별시 광진구 아차산로 272 스타시티 B1,패밀리 레스토랑,2만원-3만원,4,,37.5376127,127.0726183
567,엘루이비스트로,서울특별시 광진구 아차산로33길 35,이탈리안,2만원-3만원,3,,37.5419001,127.0704729
568,비스크,서울특별시 광진구 능동로 372 창원빌딩 1F,이탈리안,2만원-3만원,1,,37.56232749999999,127.0826632
569,스테이크어스,서울특별시 광진구 아차산로 243 한림타워 2F,스테이크 / 바베큐,2만원-3만원,1,,37.5407487,127.0690014
570,미스터피자,서울특별시 광진구 광나루로 416,패밀리 레스토랑,2만원-3만원,2,,37.5464057,127.0755739
571,피자힐,서울특별시 광진구 워커힐로 177 비스타 워커힐 별관,이탈리안,4만원 이상,69,4.2,37.5543699,127.1112096
572,델비노,서울특별시 광진구 워커힐로 177 비스타 워커힐 1F,이탈리안,3만원-4만원,6,,37.5543699,127.1112096
573,르빠니에블루,서울특별시 광진구 능동로 149-1,프랑스 음식,4만원 이상,2,,37.5441927,127.0723512
574,멕시칼리,서울특별시 광진구 능동로36길 181,남미 음식,만원 미만,10,4.5,37.5527463,127.088427
575,반둥식당,서울특별시 광진구 아차산로 200 커먼그라운드 3F,다국적 아시아 음식,만원 미만,13,3.9,37.5408693,127.0660137
576,어반나이프,서울특별시 광진구 구의강변로 85,세계음식 기타,만원 미만,18,3.4,37.5382775,127.0934857
577,포남딘,서울특별시 광진구 긴고랑로13길 10,베트남 음식,만원 미만,5,,37.562955,127.0820171
578,호아다오,서울특별시 광진구 능동로13길 11 2F,베트남 음식,만원 미만,2,,37.5426136,127.0710343
579,트라타,서울특별시 광진구 아차산로 297,남미 음식,만원 미만,1,,37.5385105,127.0762292
580,퍼틴,서울특별시 광진구 군자로3길 9,베트남 음식,만원 미만,5,,37.5446104,127.0708127
581,맘맘테이블,서울특별시 광진구 동일로26길 58,베트남 음식,만원 미만,2,,37.544479,127.0688883
582,르번미,서울특별시 광진구 능동로32길 5,베트남 음식,만원 미만,4,,37.5552822,127.0790622
583,미스사이공,서울특별시 광진구 능동로13길 42,베트남 음식,만원 미만,3,,37.5437694,127.0701905
584,타코벨,서울특별시 광진구 아차산로 272 B1,남미 음식,만원 미만,5,,37.5376127,127.0726183
585,포응온,서울특별시 광진구 동일로72길 9,베트남 음식,만원 미만,1,,37.5660474,127.0781984
586,타이인플레이트,서울특별시 광진구 광나루로24길 15,태국 음식,만원 미만,3,,37.54558859999999,127.0766296
587,벤탄빌라,서울특별시 광진구 아차산로 272  더샵스티시티 B1,태국 음식,만원 미만,2,,37.5376127,127.0726183
588,케밥인,서울특별시 광진구 아차산로 221 1F,세계음식 기타,만원 미만,3,,37.5410367,127.0682748
589,성수완당,서울특별시 광진구 아차산로51길 4 1F,다국적 아시아 음식,만원 미만,1,,37.5372828,127.0854278
590,호아빈,서울특별시 광진구 능동로 300,베트남 음식,만원 미만,2,,37.5564249,127.0794341
591,포몬스,서울특별시 광진구 아차산로 208,베트남 음식,만원 미만,2,,37.540995,127.0664195
592,털보타코,서울특별시 광진구 동일로24길 82 2F,남미 음식,만원 미만,1,,37.5425688,127.0694597
593,로꼬브리또,서울특별시 광진구 자양로13길 60,남미 음식,만원 미만,1,,37.5339736,127.0812987
594,폽타이,서울특별시 광진구 자양번영로6길 60 1F,태국 음식,만원-2만원,8,4.3,37.5314992,127.0787392
595,로얄인디안레스토랑,서울특별시 광진구 동일로22길 42,인도 음식,만원-2만원,36,4.1,37.5418277,127.0664351
596,부리또피아,서울특별시 광진구 능동로16길 51,남미 음식,만원-2만원,7,4.1,37.5452852,127.0758457
597,잇타이,서울특별시 광진구 동일로20길 105,태국 음식,만원-2만원,10,3.7,37.5397412,127.0693296
598,프언타이,서울특별시 광진구 아차산로 431 강변SK뷰 상가3동 B103호,태국 음식,만원-2만원,5,3.7,37.5417175,127.0873849
599,미분당,서울특별시 광진구 군자로3길 27 1F,베트남 음식,만원-2만원,20,3.6,37.5441447,127.0700286
600,감성타코,서울특별시 광진구 능동로13길 39 2F,남미 음식,만원-2만원,8,3.6,37.5434818,127.0699485
601,메호르,서울특별시 광진구 능동로13길 15,세계음식 기타,만원-2만원,6,3.6,37.5427495,127.0708923
602,이타주의,서울특별시 광진구 뚝섬로27길 43 2F,다국적 퓨전,만원-2만원,3,,37.537816,127.0660665
603,미스사이공,서울특별시 광진구 동일로20길 113,베트남 음식,만원-2만원,1,,37.5396193,127.0696435
604,더스푼77,서울특별시 광진구 뚝섬로59길 63,남미 음식,만원-2만원,2,,37.5346572,127.0831143
605,에머이,서울특별시 광진구 아차산로 272 더샵스타시티,베트남 음식,만원-2만원,2,,37.5376127,127.0726183
606,타논55,서울특별시 광진구 아차산로 480,태국 음식,만원-2만원,5,,37.5404369,127.0951999
607,꾸아,서울특별시 광진구 군자로3길 9 ,베트남 음식,만원-2만원,1,,37.5446104,127.0708127
608,테이스티마켓,서울특별시 광진구 아차산로 241 3F,뷔페,만원-2만원,2,,37.54046659999999,127.0701365
609,엉터리생고기,서울특별시 광진구 아차산로 218 2F,뷔페,만원-2만원,3,,37.54073229999999,127.0673778
610,애슐리퀸즈,서울특별시 광진구 광나루로56길 85 9F,뷔페,만원-2만원,2,,37.5349372,127.0957088
611,라구뜨,서울특별시 광진구 능동로 90,뷔페,2만원-3만원,8,3.9,37.5387765,127.0710831
612,더뷔페,서울특별시 광진구 워커힐로 177 그랜드 워커힐 본관 2F,뷔페,4만원 이상,23,3.9,37.5552126,127.1108905
613,고래바,서울특별시 광진구 뚝섬로57길 58 2F,칵테일 / 와인,만원 미만,14,3.9,37.5340929,127.0822692
614,브롱스,서울특별시 광진구 아차산로29길 17 2F,치킨 / 호프 / 펍,만원 미만,6,,37.5416975,127.0683231
615,총각집,서울특별시 광진구 아차산로55길 30  1F,전통 주점 / 포차,만원 미만,1,,37.5386884,127.0865908
616,해남닭집,서울특별시 광진구 능동로13길 46,치킨 / 호프 / 펍,만원 미만,2,,37.5439553,127.0700094
617,아프리카,서울특별시 광진구 광나루로24길 23,치킨 / 호프 / 펍,만원 미만,1,,37.5453167,127.0767654
618,설맥,서울특별시 광진구 아차산로31길 24,치킨 / 호프 / 펍,만원 미만,2,,37.5419921,127.0697984
619,백스비어,서울특별시 광진구 동일로22길 91,치킨 / 호프 / 펍,만원 미만,2,,37.5410882,127.0693174
620,몬스터테이블,서울특별시 광진구 답십리로 382 1F,치킨 / 호프 / 펍,만원 미만,1,,37.5712692,127.0828649
621,심비어,서울특별시 광진구 동일로24길 95-3,치킨 / 호프 / 펍,만원 미만,1,,37.5426256,127.070267
622,인쌩맥주,서울특별시 광진구 아차산로25길 14  1-2F,치킨 / 호프 / 펍,만원 미만,1,,37.5419426,127.0668366
623,화양맥주,서울특별시 광진구 아차산로29길 22,일반 주점,만원 미만,1,,37.541762,127.068612
624,강변역포장마차11번,서울특별시 광진구 광나루로56길 86,전통 주점 / 포차,만원 미만,1,,37.5369226,127.0945793
625,참참치킨&호프,서울특별시 광진구 자양로13길 100 1F,치킨 / 호프 / 펍,만원 미만,1,,37.5325131,127.0796953
626,담벼락,서울특별시 광진구 광나루로 372-3,전통 주점 / 포차,만원 미만,1,,37.5475413,127.0711226
627,허니비어,서울특별시 광진구 아차산로31길 20-6 1F,치킨 / 호프 / 펍,만원 미만,1,,37.5416657,127.0698874
628,오술차,서울특별시 광진구 동일로22길 68 2F,일반 주점,만원 미만,1,,37.5413565,127.0678125
629,미주류,서울특별시 광진구 면목로 31,일반 주점,만원-2만원,6,4.2,37.5569121,127.0761764
630,알고,서울특별시 광진구 광나루로17길 10 2F,치킨 / 호프 / 펍,만원-2만원,11,4.1,37.5480765,127.0728497
631,심마니,서울특별시 광진구 아차산로31길 20-4,전통 주점 / 포차,만원-2만원,13,3.2,37.5416945,127.0697716
632,역전할머니맥주,서울특별시 광진구 아차산로25길 13,치킨 / 호프 / 펍,만원-2만원,8,3.0,37.541987,127.0666402
633,일레븐 라운지,서울특별시 광진구 동일로 172 호텔 더 디자이너스 20-21F,칵테일 / 와인,만원-2만원,5,,37.5473055,127.0671579
634,이씨주방,서울특별시 광진구 자양번영로6길 5 1동 101호,일반 주점,만원-2만원,7,,37.5325412,127.0759012
635,아쉬트리,서울특별시 광진구 아차산로49길 22,치킨 / 호프 / 펍,만원-2만원,5,,37.5378648,127.0844928
636,새로이,서울특별시 광진구 능동로17길 5 1F,일반 주점,만원-2만원,5,,37.5460009,127.0730146
637,머스타치 비스트로,서울특별시 광진구 자양로22길 44 오성하우스 1F,칵테일 / 와인,만원-2만원,1,,37.539578,127.0858161
638,972 바,서울특별시 광진구 아차산로31길 7,칵테일 / 와인,만원-2만원,4,,37.5413541,127.0692168
639,오늘와인한잔,서울특별시 광진구 동일로24길 102 1F,칵테일 / 와인,만원-2만원,5,,37.5421884,127.0704659
640,영모네중식포차,서울특별시 광진구 능동로37길 10 1F,일반 주점,만원-2만원,4,,37.5581148,127.0793816
641,민들레홀씨,서울특별시 광진구 동일로22길 59 B1,전통 주점 / 포차,만원-2만원,2,,37.5416614,127.0676231
642,사계,서울특별시 광진구 능동로36길 29 203호,일반 주점,만원-2만원,1,,37.5559741,127.0807831
643,조선주막,서울특별시 광진구 아차산로33길 28-4 1F,전통 주점 / 포차,만원-2만원,8,,37.5414184,127.0706384
644,서울230,서울특별시 광진구 군자로2길 4 1F,일반 주점,만원-2만원,1,,37.5443452,127.0718061
645,모던통닭,서울특별시 광진구 동일로22길 96,일반 주점,만원-2만원,3,,37.5408965,127.0693538
646,단골손님,서울특별시 광진구 아차산로33길 34,일반 주점,만원-2만원,7,,37.5416829,127.0705831
647,노네임드키친,서울특별시 광진구 자양번영로4길 18 1F,일반 주점,만원-2만원,3,,37.531282,127.0763048
648,믹스라운지바,서울특별시 광진구 동일로24길 102,칵테일 / 와인,만원-2만원,4,,37.5421884,127.0704659
649,꼼주,서울특별시 광진구 아차산로29길 44,일반 주점,만원-2만원,5,,37.5426543,127.0691033
650,요우코소,서울특별시 광진구 능동로3길 24,일반 주점,만원-2만원,2,,37.5337077,127.0662297
651,골목료리집,서울특별시 광진구 아차산로 395,일반 주점,만원-2만원,3,,37.5375242,127.0863561
652,진맥,서울특별시 광진구 군자로 44,치킨 / 호프 / 펍,만원-2만원,4,,37.5469819,127.070343
653,맛술,서울특별시 광진구 능동로36길 15,일반 주점,만원-2만원,3,,37.5561585,127.0800497
654,할리비어,서울특별시 광진구 아차산로33길 41,치킨 / 호프 / 펍,만원-2만원,1,,37.5420954,127.0705632
655,프라이빗,서울특별시 광진구 아차산로33길 30  B1-2F,일반 주점,만원-2만원,2,,37.5415048,127.0705049
656,새마을39운동포차,서울특별시 광진구 동일로22길 107,일반 주점,만원-2만원,1,,37.5408601,127.0699868
657,강변역포장마차7번,서울특별시 광진구 광나루로56길 86,전통 주점 / 포차,만원-2만원,2,,37.5369226,127.0945793
658,질서정연,서울특별시 광진구 동일로24길 50,일반 주점,만원-2만원,2,,37.5431502,127.0677754
659,꼴목포차,서울특별시 광진구 아차산로25길 20,일반 주점,만원-2만원,2,,37.5422367,127.0670004
660,마실리아,서울특별시 광진구 동일로22길 86,치킨 / 호프 / 펍,만원-2만원,3,,37.541084,127.0687936
661,미들바틀,서울특별시 광진구 면목로7길 25 세광빌딩 1F,치킨 / 호프 / 펍,만원-2만원,1,,37.5597604,127.0761797
662,열불날개,서울특별시 광진구 동일로24길 86-2,전통 주점 / 포차,만원-2만원,1,,37.5424816,127.0697143
663,호우시절,서울특별시 광진구 뚝섬로 623,일반 주점,만원-2만원,1,,37.5323013,127.0789862
664,니집안방,서울특별시 광진구 동일로22길 54,일반 주점,만원-2만원,1,,37.5416007,127.0671282
665,안녕,서울특별시 광진구 아차산로33길 39 2F,치킨 / 호프 / 펍,만원-2만원,2,,37.5419978,127.0705192
666,지코바,서울특별시 광진구 아차산로57길 34,치킨 / 호프 / 펍,만원-2만원,2,,37.5399769,127.0885791
667,언리미티드,서울특별시 광진구 아차산로31길 23 B1,칵테일 / 와인,만원-2만원,5,,37.542087,127.0696049
668,예원,서울특별시 광진구 능동로36길 49,전통 주점 / 포차,만원-2만원,1,,37.5554489,127.08185
669,살로네디마르,서울특별시 광진구 긴고랑로15길 8  1F,칵테일 / 와인,만원-2만원,1,,37.5623121,127.0832259
670,달빛달팽이,서울특별시 광진구 자양로43길 87 1F,일반 주점,만원-2만원,2,,37.5543454,127.0893265
671,몽블랙,서울특별시 광진구 아차산로31길 27 3F,칵테일 / 와인,만원-2만원,1,,37.5422151,127.0696282
672,동촌,서울특별시 광진구 아차산로21길 11,전통 주점 / 포차,만원-2만원,1,,37.5425545,127.0650263
673,썰티스개라쥐,서울특별시 광진구 아차산로31길 28,치킨 / 호프 / 펍,만원-2만원,1,,37.54211970000001,127.0698738
674,별빛술담,서울특별시 광진구 동일로22길 105 2F,일반 주점,만원-2만원,1,,37.5409158,127.0698537
675,몽우,서울특별시 광진구 면목로7길 13 1F,일반 주점,만원-2만원,2,,37.5595106,127.0768517
676,더블유,서울특별시 광진구 아차산로33길 16-10,일반 주점,만원-2만원,2,,37.5411734,127.0705317
677,싱글하우스,서울특별시 광진구 아차산로26길 19,칵테일 / 와인,만원-2만원,2,,37.5403499,127.0659738
678,느린마을양조장,서울특별시 광진구 아차산로 235 2F,일반 주점,만원-2만원,3,,37.5405742,127.0694992
679,손수제치킨,서울특별시 광진구 군자로 131,치킨 / 호프 / 펍,만원-2만원,1,,37.5538125,127.0738708
680,마쯔리,서울특별시 광진구 아차산로33길 43,치킨 / 호프 / 펍,만원-2만원,1,,37.5421885,127.0706017
681,파도치킨호프,서울특별시 광진구 광나루로24길 31-7,치킨 / 호프 / 펍,만원-2만원,1,,37.5452452,127.0773026
682,투다리,서울특별시 광진구 자양로13길 104,일반 주점,만원-2만원,1,,37.5324101,127.0796569
683,노크,서울특별시 광진구 동일로22길 89 2F,일반 주점,만원-2만원,1,,37.5411479,127.0691277
684,밤바라밤,서울특별시 광진구 면목로 67-4 1F,일반 주점,만원-2만원,1,,37.55992910000001,127.0778222
685,만경상회,서울특별시 광진구 동일로22길 40 ,일반 주점,만원-2만원,1,,37.5418594,127.0663442
686,불난맥주,서울특별시 광진구 능동로 365,일반 주점,만원-2만원,1,,37.5620222,127.081869
687,강변역포장마차8번,서울특별시 광진구 광나루로56길 86,전통 주점 / 포차,만원-2만원,2,,37.5369226,127.0945793
688,매드밤,서울특별시 광진구 동일로22길 57 3F,칵테일 / 와인,만원-2만원,2,,37.5417618,127.0674453
689,스몰포차훈,서울특별시 광진구 동일로26길 62,전통 주점 / 포차,만원-2만원,1,,37.544416,127.0691176
690,신통치킨,서울특별시 광진구 능동로16길 42,치킨 / 호프 / 펍,만원-2만원,1,,37.5449582,127.0752896
691,악당,서울특별시 광진구 동일로24길 23 1F,일반 주점,만원-2만원,1,,37.5438813,127.0664446
692,올리브집,서울특별시 광진구 면목로17길 30  1F,칵테일 / 와인,만원-2만원,1,,37.570711,127.0815291
693,안식,서울특별시 광진구 구의로 32-1 1F,일반 주점,만원-2만원,1,,37.5405778,127.0898414
694,모던잡방,서울특별시 광진구 아차산로57길 10 1F,일반 주점,만원-2만원,1,,37.5389726,127.0883842
695,바라보다,서울특별시 광진구 면목로 183 1F,일반 주점,만원-2만원,1,,37.5695694,127.0829163
696,아일랜드유끼,서울특별시 광진구 동일로22길 63,치킨 / 호프 / 펍,만원-2만원,1,,37.541621,127.067756
697,술,서울특별시 광진구 아차산로38길 7 1F,일반 주점,만원-2만원,1,,37.5380719,127.0749865
698,밀회관,서울특별시 광진구 아차산로33길 52,치킨 / 호프 / 펍,만원-2만원,1,,37.542516,127.0709982
699,도심지,서울특별시 광진구 능동로 165 B1,칵테일 / 와인,만원-2만원,2,,37.5454637,127.0729941
700,제주올레포차,서울특별시 광진구 능동로19길 7,일반 주점,만원-2만원,1,,37.5468821,127.0733511
701,와포차,서울특별시 광진구 동일로24길 70,전통 주점 / 포차,만원-2만원,1,,37.542795,127.0687757
702,펀비어킹,서울특별시 광진구 아차산로33길 7,치킨 / 호프 / 펍,만원-2만원,1,,37.5406667,127.0699134
703,오트란,서울특별시 광진구 자양로37길 12  1F,칵테일 / 와인,만원-2만원,1,,37.547998,127.0875251
704,왈파,서울특별시 광진구 동일로24길 80  2F,치킨 / 호프 / 펍,만원-2만원,1,,37.5426484,127.0692664
705,옛고을장터식당,서울특별시 광진구 긴고랑로 31 2F,전통 주점 / 포차,만원-2만원,1,,37.5632341,127.0800193
706,도르리,서울특별시 광진구 천호대로109길 7  101호,일반 주점,만원-2만원,1,,37.5571907,127.0808089
707,강변역포장마차3번,서울특별시 광진구 광나루로56길 86,전통 주점 / 포차,만원-2만원,1,,37.5369226,127.0945793
708,금복주류,서울특별시 광진구 아차산로33길 31,일반 주점,만원-2만원,1,,37.5416304,127.070328
709,팔도전선생,서울특별시 광진구 군자로 168 1F,전통 주점 / 포차,만원-2만원,1,,37.555721,127.0774451
710,캐니펍,서울특별시 광진구 아차산로31길 24 1F,치킨 / 호프 / 펍,만원-2만원,1,,37.5419921,127.0697984
711,달빛푸른밤,서울특별시 광진구 자양로43길 43 2F,칵테일 / 와인,만원-2만원,1,,37.55245439999999,127.090187
712,김창훈호프,서울특별시 광진구 아차산로31길 27 B1,일반 주점,만원-2만원,1,,37.5422151,127.0696282
713,동경야시장,서울특별시 광진구 동일로22길 57 2F,일반 주점,만원-2만원,1,,37.5417618,127.0674453
714,WAVE bar,서울특별시 광진구 능동로19길 18 B1,일반 주점,만원-2만원,1,,37.5471708,127.0728235
715,임창정의소주한잔,서울특별시 광진구 아차산로33길 21,일반 주점,만원-2만원,1,,37.5412661,127.0701764
716,한사바리,서울특별시 광진구 군자로 29 1F,일반 주점,만원-2만원,1,,37.5458358,127.0703437
717,매일더맥주,서울특별시 광진구 구의강변로 86,치킨 / 호프 / 펍,만원-2만원,1,,37.5380986,127.0938907
718,하루의이막,서울특별시 광진구 동일로22길 57,전통 주점 / 포차,만원-2만원,1,,37.5417618,127.0674453
719,디슬로,서울특별시 광진구 동일로24길 101 B1,칵테일 / 와인,만원-2만원,1,,37.5423765,127.0705496
720,샾포차,서울특별시 광진구 아차산로51길 91,전통 주점 / 포차,만원-2만원,1,,37.5410292,127.085184
721,제주바다,서울특별시 광진구 아차산로33길 15,일반 주점,만원-2만원,1,,37.5409921,127.070053
722,오븐마루,서울특별시 광진구 능동로35길 9,치킨 / 호프 / 펍,만원-2만원,1,,37.5566059,127.0783793
723,제주올레포차,서울특별시 광진구 군자로 174,전통 주점 / 포차,2만원-3만원,4,,37.5560632,127.0777725
724,노유,서울특별시 광진구 뚝섬로24길 16 1F,칵테일 / 와인,2만원-3만원,3,,37.5357129,127.063324
725,에이커,서울특별시 광진구 동일로4길 31 1F,칵테일 / 와인,2만원-3만원,1,,37.5361724,127.0626371
726,라라주방,서울특별시 광진구 아차산로29길 28-3 1F,칵테일 / 와인,2만원-3만원,1,,37.5420341,127.0689481
727,디도재즈라운지,서울특별시 광진구 자양로18길 56 ,칵테일 / 와인,2만원-3만원,1,,37.5379346,127.0866351
728,닭이닭,서울특별시 광진구 자양로22길 20,치킨 / 호프 / 펍,2만원-3만원,1,,37.5394872,127.0844368
729,화양주막,서울특별시 광진구 아차산로27길 4 1F,일반 주점,2만원-3만원,1,,37.5417871,127.0676838
730,마우로아,서울특별시 광진구 능동로 320 1F,칵테일 / 와인,3만원-4만원,10,4.2,37.5581489,127.0802867
731,글래시,서울특별시 광진구 능동로 23-14 1F,칵테일 / 와인,3만원-4만원,19,3.5,37.5339385,127.0669397
732,리바,서울특별시 광진구 워커힐로 177 비스타 워커힐 1F,칵테일 / 와인,4만원 이상,4,,37.5543699,127.1112096
733,몽,서울특별시 광진구 아차산로33길 25,칵테일 / 와인,4만원 이상,1,,37.54142890000001,127.0702513
734,페어이너프,서울특별시 광진구 뚝섬로 613-1 2F,칵테일 / 와인,3만원-4만원,1,,37.5325896,127.0780605
735,화목순대국전문,서울특별시 종로구 새문안로5길 11,탕 / 찌개 / 전골,만원 미만,63,4.3,37.5711525,126.9747091
736,광화문더덕순대,서울특별시 종로구 새문안로5길 10,탕 / 찌개 / 전골,만원 미만,29,4.3,37.5710285,126.9750595
737,종로도담,서울특별시 종로구 삼봉로 78,한정식 / 백반 / 정통 한식,만원 미만,8,4.0,37.5720718,126.9813982
738,매일분식,서울특별시 종로구 새문안로5가길 5,기타 한식,만원 미만,8,4.0,37.5725253,126.9741435
739,대한순두부막걸리살롱,서울특별시 종로구 새문안로5길 13 B1,탕 / 찌개 / 전골,만원 미만,7,4.0,37.5713301,126.974401
740,청담동마녀김밥,서울특별시 종로구 새문안로 105,기타 한식,만원 미만,5,4.0,37.5704129,126.9762769
741,미진,서울특별시 종로구 종로 19 르메이에르종로타운 1F,국수 / 면 요리,만원 미만,136,3.9,37.5709593,126.9798759
742,만나분식,서울특별시 종로구 필운대로1길 4,기타 한식,만원 미만,20,3.9,37.5773179,126.9690795
743,모던김밥,서울특별시 종로구 자하문로2길 10,기타 한식,만원 미만,15,3.9,37.5763754,126.9732065
744,봉평막국수,서울특별시 종로구 필운대로 6,국수 / 면 요리,만원 미만,25,3.7,37.5764919,126.9693071
745,종로빈대떡,서울특별시 종로구 세종대로23길 21,기타 한식,만원 미만,9,3.6,37.5714849,126.9752117
746,광화문집,서울특별시 종로구 새문안로5길 12,탕 / 찌개 / 전골,만원 미만,36,3.5,37.571335,126.9749738
747,로라방앗간,서울특별시 종로구 종로3길 17 D타워,기타 한식,만원 미만,14,3.5,37.5716583,126.9798858
748,광화문미진,서울특별시 종로구 종로 19 르메이에르종로타운 1F,국수 / 면 요리,만원 미만,9,3.1,37.5709593,126.9798759
749,깡장집,서울특별시 종로구 새문안로5길 19,탕 / 찌개 / 전골,만원 미만,10,,37.5719994,126.9742775
750,부산집,서울특별시 종로구 사직로 133-8,국수 / 면 요리,만원 미만,5,,37.576255,126.9734573
751,옛날원조할머니떡볶이,서울특별시 종로구 자하문로15길 11,기타 한식,만원 미만,4,,37.5806456,126.9703379
752,도시락카페통,서울특별시 종로구 자하문로15길 18,기타 한식,만원 미만,5,,37.5807277,126.9699348
753,빌라드스파이시,서울특별시 종로구 종로3길 17 3F 308호,기타 한식,만원 미만,4,,37.5716583,126.9798858
754,경성치킨,서울특별시 종로구 율곡로4길 5,닭 / 오리 요리,만원 미만,5,,37.575167,126.9822504
755,이모네감자탕,서울특별시 종로구 새문안로9길 29-3 삼환빌딩 1F,탕 / 찌개 / 전골,만원 미만,5,,37.5712308,126.9752152
756,교동전선생,서울특별시 종로구 삼봉로 62,한정식 / 백반 / 정통 한식,만원 미만,2,,37.5722111,126.9805167
757,송백부대찌개,서울특별시 종로구 새문안로5길 37 도렴빌딩 B1,탕 / 찌개 / 전골,만원 미만,10,,37.5736116,126.9742022
758,크레이지후라이,서울특별시 종로구 종로1길 50 케이트윈타워 B1,기타 한식,만원 미만,3,,37.574638,126.979181
759,흥진옥,서울특별시 종로구 종로5길 19-12,탕 / 찌개 / 전골,만원 미만,2,,37.5713592,126.98026
760,비어할레,서울특별시 종로구 새문안로5길 19,기타 한식,만원 미만,3,,37.5719994,126.9742775
761,덕담,서울특별시 종로구 새문안로 92 오피시아빌딩 B1,한정식 / 백반 / 정통 한식,만원 미만,3,,37.5696602,126.9748903
762,나주소나주곰탕,서울특별시 종로구 자하문로2길 8,탕 / 찌개 / 전골,만원 미만,1,,37.576368,126.9730889
763,허니즉석떡볶이,서울특별시 종로구 새문안로 103-1,기타 한식,만원 미만,5,,37.5704416,126.9761633
764,풍년옥,서울특별시 종로구 새문안로7길 26,탕 / 찌개 / 전골,만원 미만,7,,37.5713767,126.9751045
765,무교원원대구탕,서울특별시 종로구 새문안로3길 30 B1,탕 / 찌개 / 전골,만원 미만,2,,37.5726979,126.973265
766,삼백집,서울특별시 종로구 사직로 133-3,탕 / 찌개 / 전골,만원 미만,5,,37.5760899,126.9733293
767,바지락칼국수,서울특별시 종로구 종로 22 인주빌딩,국수 / 면 요리,만원 미만,4,,37.56984,126.9796915
768,통인전통기름떡볶기집,서울특별시 종로구 자하문로15길 18,기타 한식,만원 미만,2,,37.5807277,126.9699348
769,활짝핀메밀,서울특별시 종로구 자하문로 38,국수 / 면 요리,만원 미만,1,,37.5793341,126.9716194
770,통영굴밥,서울특별시 종로구 사직로 130 적선현대빌딩 지하상가,탕 / 찌개 / 전골,만원 미만,1,,37.5753274,126.973307
771,만석꾼,서울특별시 종로구 자하문로2길 9,한정식 / 백반 / 정통 한식,만원 미만,1,,37.57654220000001,126.9732269
772,빵튀,서울특별시 종로구 세종대로23길 54 세종빌딩 B1,기타 한식,만원 미만,3,,37.5714925,126.9742952
773,문화수제비,서울특별시 종로구 새문안로5길 19 B1,국수 / 면 요리,만원 미만,1,,37.5719994,126.9742775
774,용금옥,서울특별시 종로구 자하문로 41-2,탕 / 찌개 / 전골,만원 미만,3,,37.5796945,126.9708967
775,스노우폭스,서울특별시 중구 세종대로 136 B1,기타 한식,만원 미만,4,,37.5683731,126.9782699
776,모랑,서울특별시 종로구 새문안로 92,한정식 / 백반 / 정통 한식,만원 미만,5,,37.5696602,126.9748903
777,우동한닢,서울특별시 종로구 종로 19 르메이에르종로타운,기타 한식,만원 미만,2,,37.5709593,126.9798759
778,오양식관,서울특별시 중구 세종대로21길 49 오양수산빌딩,한정식 / 백반 / 정통 한식,만원 미만,3,,37.56865800000001,126.9755866
779,리김밥,서울특별시 종로구 종로3길 17,기타 한식,만원 미만,2,,37.5716583,126.9798858
780,토속집,서울특별시 종로구 종로1길 42 이마빌딩 B1,한정식 / 백반 / 정통 한식,만원 미만,2,,37.5738637,126.9789715
781,광화문닭곰탕,서울특별시 종로구 새문안로 92 광화문오피시아,탕 / 찌개 / 전골,만원 미만,2,,37.5696602,126.9748903
782,서평옥,서울특별시 종로구 종로1길 42,탕 / 찌개 / 전골,만원 미만,1,,37.5738637,126.9789715
783,무궁화다섯,서울특별시 종로구 새문안로5길 13 변호사회관상가,한정식 / 백반 / 정통 한식,만원 미만,4,,37.5713301,126.974401
784,바르다김선생,서울특별시 종로구 사직로8길 42,기타 한식,만원 미만,3,,37.5737408,126.9731114
785,육대장,서울특별시 종로구 새문안로5길 8-1,탕 / 찌개 / 전골,만원 미만,3,,37.5709524,126.975013
786,종로맹버칼,서울특별시 종로구 종로5길 68 석탄회관 B1,국수 / 면 요리,만원 미만,1,,37.5729507,126.9804136
787,비원,서울특별시 종로구 청계천로 1 동아미디어센터 B1,한정식 / 백반 / 정통 한식,만원 미만,2,,37.5695069,126.9779952
788,나주소나주곰탕,서울특별시 종로구 새문안로 87-1,탕 / 찌개 / 전골,만원 미만,2,,37.5704339,126.9743454
789,대복집,서울특별시 종로구 사직로 137-9,탕 / 찌개 / 전골,만원 미만,1,,37.5761676,126.973866
790,선미원,서울특별시 종로구 종로 14 한국무역보험공사 B1,한정식 / 백반 / 정통 한식,만원 미만,1,,37.5697729,126.9788485
791,궁돈까스,서울특별시 종로구 자하문로2길 17-2,기타 한식,만원 미만,1,,37.5765006,126.9737245
792,황금정,서울특별시 종로구 새문안로5가길 5,한정식 / 백반 / 정통 한식,만원 미만,2,,37.5725253,126.9741435
793,훈이네밥상,서울특별시 종로구 세종대로23길 54 세종빌딩 B1,한정식 / 백반 / 정통 한식,만원 미만,2,,37.5714925,126.9742952
794,명동할머니국수,서울특별시 종로구 무교로 39 참바른메디컬센터 1F,국수 / 면 요리,만원 미만,2,,37.5694482,126.9791246
795,김명자굴국밥,서울특별시 종로구 새문안로5길 19 로얄빌딩 B1,탕 / 찌개 / 전골,만원 미만,2,,37.5719994,126.9742775
796,경양식1985,서울특별시 종로구 종로 1 교보문고 B1,기타 한식,만원 미만,1,,37.5709047,126.9780327
797,오징어와불고기,서울특별시 종로구 삼봉로 81 두산위브파빌리온,해산물 요리,만원 미만,1,,37.5723555,126.9818018
798,전통남원추어탕,서울특별시 종로구 새문안로7길 18,탕 / 찌개 / 전골,만원 미만,1,,37.57101730000001,126.9753291
799,진이민이돈가스,서울특별시 종로구 새문안로3길 30 B1,기타 한식,만원 미만,1,,37.5726979,126.973265
800,골목집김치찌개,서울특별시 종로구 새문안로5길 5-27,탕 / 찌개 / 전골,만원 미만,1,,37.57098999999999,126.9745619
801,김명자굴국밥,서울특별시 종로구 종로5길 76 목은관빌딩 B1,탕 / 찌개 / 전골,만원 미만,2,,37.573784,126.9806939
802,한성옥,서울특별시 종로구 삼봉로 42-1,탕 / 찌개 / 전골,만원 미만,1,,37.5722065,126.9795681
803,남도밥상,서울특별시 종로구 새문안로5가길 28 광화문 플래티넘 B1,한정식 / 백반 / 정통 한식,만원 미만,1,,37.5744107,126.9735709
804,국시방,서울특별시 종로구 새문안로5길 13,국수 / 면 요리,만원 미만,1,,37.5713301,126.974401
805,김밥을맛있게먹는법,서울특별시 종로구 새문안로5길 12,기타 한식,만원 미만,1,,37.571335,126.9749738
806,정국시랑,서울특별시 종로구 삼봉로 60,국수 / 면 요리,만원 미만,1,,37.5722472,126.9804177
807,로얄김밥,서울특별시 종로구 새문안로5길 19,기타 한식,만원 미만,1,,37.5719994,126.9742775
808,양반댁,서울특별시 종로구 새문안로5길 37 도렴빌딩,한정식 / 백반 / 정통 한식,만원 미만,3,,37.5736116,126.9742022
809,광화문수제비,서울특별시 종로구 새문안로 92 오피시아빌딩,국수 / 면 요리,만원 미만,1,,37.5696602,126.9748903
810,모려,서울특별시 종로구 새문안로3길 30 B1,탕 / 찌개 / 전골,만원 미만,2,,37.5726979,126.973265
811,소반,서울특별시 종로구 새문안로5길 37 B1,한정식 / 백반 / 정통 한식,만원 미만,1,,37.5736116,126.9742022
812,이두부야,서울특별시 종로구 자하문로 18 1F,한정식 / 백반 / 정통 한식,만원 미만,1,,37.5777768,126.9723156
813,오두막,서울특별시 종로구 새문안로7길 16,한정식 / 백반 / 정통 한식,만원 미만,1,,37.571047,126.9754283
814,통영멸치국수,서울특별시 종로구 새문안로5길 37,국수 / 면 요리,만원 미만,1,,37.5736116,126.9742022
815,송원해장,서울특별시 종로구 새문안로5가길 3-12 1F,탕 / 찌개 / 전골,만원 미만,1,,37.572425,126.9741109
816,한솔냉면,서울특별시 종로구 종로 1  B1,국수 / 면 요리,만원 미만,1,,37.5709047,126.9780327
817,명동칼국수,서울특별시 종로구 종로1길 57,국수 / 면 요리,만원 미만,1,,37.5753864,126.9789643
818,오시네떡볶이,서울특별시 종로구 새문안로5길 11,기타 한식,만원 미만,1,,37.5711525,126.9747091
819,당주식당,서울특별시 종로구 새문안로5길 5-27,한정식 / 백반 / 정통 한식,만원 미만,1,,37.57098999999999,126.9745619
820,평안도만두집,서울특별시 종로구 새문안로3길 30 대우복합빌딩 B1,탕 / 찌개 / 전골,만원-2만원,84,4.3,37.5726979,126.973265
821,광화문뚝감,서울특별시 종로구 새문안로3길 21,탕 / 찌개 / 전골,만원-2만원,76,4.3,37.5720682,126.9725604
822,김진목삼,서울특별시 종로구 자하문로1가길 9,고기 요리,만원-2만원,17,4.3,37.57687749999999,126.9718932
823,병천유황오리,서울특별시 종로구 삼봉로 68 신영빌딩 ,닭 / 오리 요리,만원-2만원,17,4.2,37.5719819,126.9808922
824,장수한방삼계탕,서울특별시 종로구 새문안로5길 13 B1,탕 / 찌개 / 전골,만원-2만원,9,4.2,37.5713301,126.974401
825,교대이층집,서울특별시 종로구 삼봉로 95,고기 요리,만원-2만원,54,4.1,37.5724163,126.9824791
826,우정낙지,서울특별시 종로구 삼일대로17길 46 2F,해산물 요리,만원-2만원,7,4.0,37.5692883,126.9849249
827,마루,서울특별시 종로구 새문안로 97 포시즌스호텔 서울 1F,퓨전 한식,만원-2만원,17,3.9,37.5704525,126.975539
828,한라담,서울특별시 중구 무교로 21 더익스체인지서울 2F,고기 요리,만원-2만원,16,3.9,37.5678402,126.9787194
829,광화문고기집,서울특별시 종로구 새문안로5가길 11 1F,고기 요리,만원-2만원,8,3.9,37.5730549,126.9738125
830,수하동,서울특별시 종로구 종로 33 그랑서울 B1,탕 / 찌개 / 전골,만원-2만원,20,3.8,37.5706922,126.9815134
831,막내낙지,서울특별시 종로구 종로 19 르메이에르종로타운 1F 125호,해산물 요리,만원-2만원,16,3.7,37.5709593,126.9798759
832,감촌,서울특별시 종로구 종로 19 르메이에르종로타운 5F,탕 / 찌개 / 전골,만원-2만원,20,3.7,37.5709593,126.9798759
833,송추가마골인어반,서울특별시 종로구 새문안로5길 31 센터포인트빌딩 2F,고기 요리,만원-2만원,10,3.7,37.5715671,126.9745288
834,사발,서울특별시 종로구 사직로8길 34 경희궁의아침3단지,퓨전 한식,만원-2만원,42,3.6,37.5732644,126.9719961
835,세광양대창,서울특별시 종로구 삼봉로 68 2F,고기 요리,만원-2만원,5,3.6,37.5719819,126.9808922
836,이스트빌리지,서울특별시 중구 세종대로 136 파이낸스빌딩 B1,한정식 / 백반 / 정통 한식,만원-2만원,15,3.5,37.5683731,126.9782699
837,평가옥,서울특별시 종로구 새문안로5가길 7 대성빌딩,국수 / 면 요리,만원-2만원,24,3.5,37.57274049999999,126.9740251
838,서린낙지,서울특별시 종로구 종로 19 르메이에르종로타운 2F,해산물 요리,만원-2만원,17,3.5,37.5709593,126.9798759
839,봉피양,서울특별시 종로구 자하문로 20,국수 / 면 요리,만원-2만원,15,3.5,37.57786310000001,126.9722861
840,김권태 돈까스백반,서울특별시 종로구 경희궁1길 5,한정식 / 백반 / 정통 한식,만원-2만원,16,3.5,37.5708473,126.9713127
841,강남면옥,서울특별시 종로구 새문안로 38,국수 / 면 요리,만원-2만원,7,3.5,37.5683495,126.9697567
842,사리원,서울특별시 종로구 종로3길 17 디타워 1F,고기 요리,만원-2만원,11,3.4,37.5716583,126.9798858
843,일도씨닭갈비,서울특별시 중구 세종대로 136 파이낸스빌딩 B2,닭 / 오리 요리,만원-2만원,16,3.1,37.5683731,126.9782699
844,신도세기,서울특별시 종로구 삼봉로 84 ,고기 요리,만원-2만원,1,,37.5719499,126.9817791
845,마지,서울특별시 종로구 자하문로5길 19,한정식 / 백반 / 정통 한식,만원-2만원,7,,37.5775672,126.9707957
846,한라의집,서울특별시 종로구 새문안로9길 29-1,한정식 / 백반 / 정통 한식,만원-2만원,7,,37.5712652,126.9753404
847,한일관,서울특별시 종로구 종로1길 50 B1,한정식 / 백반 / 정통 한식,만원-2만원,7,,37.5745869,126.9792435
848,식껍,서울특별시 종로구 종로5길 29,고기 요리,만원-2만원,2,,37.5715992,126.980405
849,남도식당,서울특별시 종로구 종로3길 28-6,고기 요리,만원-2만원,10,,37.5716835,126.9796296
850,장호왕곱창,서울특별시 종로구 종로 19 르메이에르종로타운 B2,한정식 / 백반 / 정통 한식,만원-2만원,6,,37.5709593,126.9798759
851,용호낙지,서울특별시 종로구 종로 33 그랑서울,해산물 요리,만원-2만원,7,,37.5706922,126.9815134
852,서촌백년화로,서울특별시 종로구 새문안로7길 20,고기 요리,만원-2만원,5,,37.5710908,126.9752782
853,경희궁등갈비,서울특별시 종로구 새문안로5가길 3-9,고기 요리,만원-2만원,7,,37.5723227,126.9739516
854,정통삼계탕,서울특별시 종로구 종로5길 95,탕 / 찌개 / 전골,만원-2만원,3,,37.5741303,126.9791603
855,교대이층집,서울특별시 종로구 새문안로5길 10-1 2F,고기 요리,만원-2만원,7,,37.5712238,126.9750285
856,고려삼계탕,서울특별시 종로구 세종대로23길 5-1,탕 / 찌개 / 전골,만원-2만원,3,,37.5714472,126.976068
857,다솔,서울특별시 종로구 종로5길 68 코리안리재보험빌딩 B1,탕 / 찌개 / 전골,만원-2만원,2,,37.57336919999999,126.9804466
858,광화문 한옥집,서울특별시 종로구 새문안로5가길 7 세종클럽 B1,한정식 / 백반 / 정통 한식,만원-2만원,6,,37.57274049999999,126.9740251
859,세종마을치킨,서울특별시 종로구 자하문로1길 24,닭 / 오리 요리,만원-2만원,6,,37.5764765,126.971053
860,양가곱창,서울특별시 종로구 종로 19 르메이에르종로타운 3F,고기 요리,만원-2만원,3,,37.5709593,126.9798759
861,상인정신,서울특별시 종로구 새문안로5길 11-1 2F,한정식 / 백반 / 정통 한식,만원-2만원,2,,37.571246,126.9746784
862,형제네고기마을,서울특별시 종로구 새문안로3길 36 1F,고기 요리,만원-2만원,3,,37.5733414,126.9732901
863,피마길실비집,서울특별시 종로구 종로3길 24-18,해산물 요리,만원-2만원,4,,37.5714203,126.9802467
864,종가김치찌개,서울특별시 종로구 종로5길 34,탕 / 찌개 / 전골,만원-2만원,3,,37.571783,126.9806153
865,대성,서울특별시 종로구 율곡로4길 49-3,고기 요리,만원-2만원,2,,37.5734318,126.9814362
866,에코밥상,서울특별시 종로구 사직로 127-14 후빌딩 2F,한정식 / 백반 / 정통 한식,만원-2만원,1,,37.57619,126.9731242
867,꼬꼬뚝닭,서울특별시 종로구 새문안로5길 37 B1,닭 / 오리 요리,만원-2만원,1,,37.5736116,126.9742022
868,샤르르샤브샤브,서울특별시 종로구 새문안로5길 11-13,탕 / 찌개 / 전골,만원-2만원,2,,37.5710193,126.9741019
869,제주흑돈,서울특별시 중구 청계천로 8,고기 요리,만원-2만원,1,,37.56878700000001,126.9782122
870,무교동낙지,서울특별시 종로구 종로3길 28-2,해산물 요리,만원-2만원,4,,37.57152749999999,126.979617
871,소문,서울특별시 종로구 새문안로3길 36 B1,한정식 / 백반 / 정통 한식,만원-2만원,2,,37.5733414,126.9732901
872,봉추찜닭,서울특별시 종로구 종로1길 50,닭 / 오리 요리,만원-2만원,2,,37.5745869,126.9792435
873,한마루화로구이,서울특별시 종로구 종로 19 르메이에르종로타운 2F,탕 / 찌개 / 전골,만원-2만원,1,,37.5709593,126.9798759
874,더삼겹185,서울특별시 종로구 자하문로1길 50-1,고기 요리,만원-2만원,1,,37.5769707,126.9696662
875,감나무집,서울특별시 종로구 새문안로 83-2,탕 / 찌개 / 전골,만원-2만원,3,,37.5705068,126.9739109
876,고봉삼계탕,서울특별시 종로구 새문안로 89,탕 / 찌개 / 전골,만원-2만원,3,,37.5704397,126.9744902
877,송백부대찌개,서울특별시 종로구 세종대로23길 54,탕 / 찌개 / 전골,만원-2만원,1,,37.5717618,126.9732801
878,반상,서울특별시 종로구 세종대로 175 세종문화회관 B1,한정식 / 백반 / 정통 한식,만원-2만원,1,,37.5725254,126.9756429
879,오븐에빠진닭,서울특별시 종로구 새문안로5길 5,닭 / 오리 요리,만원-2만원,1,,37.5706606,126.9747102
880,목노,서울특별시 종로구 새문안로7길 17,고기 요리,만원-2만원,1,,37.5710357,126.975159
881,택이네조개전골,서울특별시 종로구 새문안로9길 29 2-3F,탕 / 찌개 / 전골,만원-2만원,2,,37.5713959,126.9752435
882,본가춘천닭갈비,서울특별시 종로구 새문안로5길 5-1,닭 / 오리 요리,만원-2만원,2,,37.5707476,126.9746671
883,누구나홀딱반한닭,서울특별시 종로구 종로5길 38,닭 / 오리 요리,만원-2만원,1,,37.5719523,126.9806006
884,양푼가,서울특별시 종로구 세종대로23길 54 세종빌딩 B1,기타 한식,만원-2만원,1,,37.5714925,126.9742952
885,효도치킨콤보스,서울특별시 종로구 종로3길 17  116호,닭 / 오리 요리,만원-2만원,1,,37.5716583,126.9798858
886,청진영양센타,서울특별시 종로구 삼봉로 44-1,닭 / 오리 요리,만원-2만원,1,,37.5721913,126.9796826
887,현궁,서울특별시 종로구 종로1길 42,고기 요리,만원-2만원,2,,37.5738637,126.9789715
888,흥남부두,서울특별시 종로구 새문안로5가길 13,고기 요리,만원-2만원,2,,37.5731879,126.9737654
889,왕비집,서울특별시 중구 무교로 21,고기 요리,만원-2만원,1,,37.5677014,126.9788451
890,보돌미역,서울특별시 중구 세종대로 136 파이낸스빌딩 B1 103호,탕 / 찌개 / 전골,만원-2만원,1,,37.5683731,126.9782699
891,마산아구찜,서울특별시 종로구 자하문로 18-1 2F,해산물 요리,만원-2만원,1,,37.5777768,126.9723156
892,좋은하루,서울특별시 종로구 종로5길 95,탕 / 찌개 / 전골,만원-2만원,1,,37.5741303,126.9791603
893,광화문삼겹살,서울특별시 종로구 새문안로5길 19 B1 62호,고기 요리,만원-2만원,1,,37.5719994,126.9742775
894,본가닭한마리,서울특별시 종로구 새문안로5길 11,닭 / 오리 요리,만원-2만원,1,,37.5711525,126.9747091
895,동락돼지,서울특별시 종로구 새문안로5길 9 1F,고기 요리,만원-2만원,1,,37.5710114,126.9747507
896,서촌닭갈비,서울특별시 종로구 새문안로5길 37,닭 / 오리 요리,만원-2만원,1,,37.5736116,126.9742022
897,금강산,서울특별시 종로구 새문안로5길 37 B1,닭 / 오리 요리,만원-2만원,1,,37.5736116,126.9742022
898,정선할매곤드레밥,서울특별시 종로구 사직로8길 5-13 1F,한정식 / 백반 / 정통 한식,만원-2만원,1,,37.5756584,126.9697239
899,고기연,서울특별시 종로구 자하문로1가길 17 1F,고기 요리,만원-2만원,1,,37.5772761,126.9718288
900,박순례 손말이고기 산정집,서울특별시 종로구 새문안로5가길 3-10 선덕빌딩 2F,고기 요리,2만원-3만원,33,4.0,37.5723246,126.9741678
901,주유별장,서울특별시 종로구 종로3길 17 디타워 4F,퓨전 한식,2만원-3만원,32,3.4,37.5716583,126.9798858
902,옛마을,서울특별시 종로구 종로5길 32-18,고기 요리,2만원-3만원,1,,37.5718187,126.9810903
903,나무향기장작구이,서울특별시 종로구 세종대로23길 47,닭 / 오리 요리,2만원-3만원,8,,37.5713473,126.9736842
904,불고기브라더스,서울특별시 중구 세종대로 136 B2 3호,고기 요리,2만원-3만원,3,,37.5683731,126.9782699
905,여수한두레,서울특별시 종로구 효자로 5,해산물 요리,2만원-3만원,1,,37.5764838,126.9739658
906,두림,서울특별시 종로구 종로7길 29-17,기타 한식,2만원-3만원,4,,37.5718136,126.9813394
907,여수오동도,서울특별시 종로구 종로 19 르메이에르종로타운,해산물 요리,2만원-3만원,3,,37.5709593,126.9798759
908,산채향,서울특별시 중구 청계천로 8 B1,한정식 / 백반 / 정통 한식,2만원-3만원,6,,37.56878700000001,126.9782122
909,오양회참치,서울특별시 중구 세종대로21길 49,해산물 요리,2만원-3만원,2,,37.56865800000001,126.9755866
910,영덕회식당,서울특별시 종로구 종로5길 32-12 2F,해산물 요리,2만원-3만원,2,,37.5716976,126.9811497
911,양가,서울특별시 종로구 새문안로9길 25,한정식 / 백반 / 정통 한식,2만원-3만원,1,,37.5713114,126.9754688
912,롱위켄드,서울특별시 종로구 세종대로23길 54 ,한정식 / 백반 / 정통 한식,2만원-3만원,1,,37.5717618,126.9732801
913,오목집,서울특별시 종로구 새문안로5길 5-3 1-2F,고기 요리,2만원-3만원,1,,37.5708102,126.9745078
914,부산숯불꼼장어,서울특별시 종로구 새문안로9길 19,해산물 요리,2만원-3만원,1,,37.5710196,126.9756947
915,모던샤브하우스,서울특별시 종로구 종로3길 17 D타워 리플레이스 광화문 5F,탕 / 찌개 / 전골,4만원 이상,20,4.5,37.570528,126.9789736
916,투뿔등심,서울특별시 종로구 종로 33 B1,고기 요리,3만원-4만원,19,4.3,37.5716991,127.0013177
917,모도우,서울특별시 종로구 율곡로 6 트윈트리타워 B동 MF,고기 요리,4만원 이상,25,4.1,37.5755279,126.9800596
918,더미,서울특별시 종로구 종로 19 르메이에르종로타운 3F,고기 요리,3만원-4만원,50,4.1,37.5709593,126.9798759
919,암소서울,서울특별시 종로구 새문안로 76 콘코디언빌딩 B1,고기 요리,4만원 이상,13,4.0,37.5697569,126.973165
920,한육감,서울특별시 종로구 종로3길 17 디타워 5F,고기 요리,4만원 이상,27,3.5,37.5716583,126.9798858
921,뚝심한우,서울특별시 종로구 종로5길 7 타워8 B1,고기 요리,3만원-4만원,12,3.5,37.5706059,126.9805337
922,창고43,서울특별시 중구 무교로 21 더익스체인지서울,고기 요리,4만원 이상,5,3.2,37.5678402,126.9787194
923,벽제갈비,서울특별시 종로구 종로 33 그랑서울 2F,고기 요리,3만원-4만원,1,,37.5706922,126.9815134
924,투뿔등심,서울특별시 중구 세종대로 136,고기 요리,4만원 이상,9,,37.5683731,126.9782699
925,설가온,서울특별시 종로구 세종대로 175,한정식 / 백반 / 정통 한식,3만원-4만원,5,,37.5721241,126.9760848
926,봉우리,서울특별시 종로구 종로 33 그랑서울 B1,한정식 / 백반 / 정통 한식,4만원 이상,4,,37.5706922,126.9815134
927,민소한우,서울특별시 종로구 종로 22,고기 요리,4만원 이상,5,,37.5698376,126.9796615
928,일품당프리미엄,서울특별시 종로구 새문안로5가길 7 세종클럽 3F,탕 / 찌개 / 전골,4만원 이상,1,,37.57274049999999,126.9740251
929,송학,서울특별시 종로구 종로 14 B1,한정식 / 백반 / 정통 한식,3만원-4만원,2,,37.5697729,126.9788485
930,태진복집,서울특별시 종로구 자하문로10길 10-24,해산물 요리,3만원-4만원,1,,37.5789884,126.9720736
931,후니도니,서울특별시 종로구 종로 19 르메이에르종로타운 B1,까스 요리,만원 미만,93,4.4,37.5709593,126.9798759
932,스시하루,서울특별시 종로구 삼봉로 81 두산위브파빌리온,회 / 스시,만원 미만,12,3.9,37.5723555,126.9818018
933,가츠야마,서울특별시 종로구 새문안로5길 37 도림빌딩 B1 34호,돈부리 / 일본 카레 / 벤토,만원 미만,8,3.9,37.5736116,126.9742022
934,후와후와,서울특별시 종로구 종로3길 17 D타워 5F,정통 일식 / 일반 일식,만원 미만,12,3.8,37.5716583,126.9798858
935,가츠라,서울특별시 종로구 새문안로 58,까스 요리,만원 미만,2,,37.5692944,126.9714733
936,동카츠,서울특별시 종로구 새문안로5길 37 도렴빌딩 B1 27호,까스 요리,만원 미만,2,,37.5736116,126.9742022
937,동경암,서울특별시 종로구 종로 14,까스 요리,만원 미만,6,,37.5697729,126.9788485
938,아오리의행방불명,서울특별시 종로구 무교로 39 신우빌딩 2F,라멘 / 소바 / 우동,만원 미만,5,,37.5694482,126.9791246
939,토끼숟가락,서울특별시 종로구 새문안로5길 37 도렴빌딩 B1,돈부리 / 일본 카레 / 벤토,만원 미만,3,,37.5736116,126.9742022
940,미카야,서울특별시 종로구 사직로 130 적선현대빌딩,정통 일식 / 일반 일식,만원 미만,1,,37.5753274,126.973307
941,동경우동,서울특별시 종로구 새문안로9길 28,라멘 / 소바 / 우동,만원 미만,3,,37.5713402,126.9756744
942,무무돈카츠,서울특별시 종로구 새문안로 92 오피시아빌딩 B1,까스 요리,만원 미만,1,,37.5696602,126.9748903
943,맨븟,서울특별시 종로구 새문안로5길 37 도렴빌딩 B1 35호,정통 일식 / 일반 일식,만원 미만,3,,37.5736116,126.9742022
944,옥상밥상술상,서울특별시 종로구 종로3길 30 6F,돈부리 / 일본 카레 / 벤토,만원 미만,1,,37.5716008,126.9794439
945,로맨틱키친,서울특별시 종로구 새문안로5가길 3-12 진양빌딩 2F,기타 일식,만원 미만,1,,37.572425,126.9741109
946,모모코,서울특별시 종로구 새문안로5길 19,정통 일식 / 일반 일식,만원 미만,1,,37.5719994,126.9742775
947,미스터라멘,서울특별시 종로구 새문안로 92,라멘 / 소바 / 우동,만원 미만,1,,37.5696602,126.9748903
948,모모카,서울특별시 종로구 새문안로5길 19 ,정통 일식 / 일반 일식,만원 미만,1,,37.5719994,126.9742775
949,오제제,서울특별시 중구 세종대로 136 B3,까스 요리,만원-2만원,31,4.8,37.5683731,126.9782699
950,야마야,서울특별시 종로구 새문안로3길 12 1F,기타 일식,만원-2만원,85,4.2,37.5712794,126.9729312
951,후라토식당,서울특별시 종로구 새문안로5길 19 로얄빌딩 아케이드 B1 63호,까스 요리,만원-2만원,76,4.0,37.5719994,126.9742775
952,도토리브라더스,서울특별시 종로구 경희궁길 41 1F,정통 일식 / 일반 일식,만원-2만원,99,3.8,37.57290380000001,126.9691902
953,효자동초밥,서울특별시 종로구 자하문로 14,회 / 스시,만원-2만원,29,3.6,37.5773255,126.9724248
954,나미시부키,서울특별시 종로구 종로5길 7 타워8빌딩 B1,라멘 / 소바 / 우동,만원-2만원,15,3.3,37.5706059,126.9805337
955,온센,서울특별시 중구 세종대로 136 B2,돈부리 / 일본 카레 / 벤토,만원-2만원,21,3.3,37.5683731,126.9782699
956,스시웨이,서울특별시 종로구 종로 19 르메이에르종로타운 3F,회 / 스시,만원-2만원,7,,37.5709593,126.9798759
957,진가와,서울특별시 종로구 종로1길 50 더케이트윈타워 1B,라멘 / 소바 / 우동,만원-2만원,4,,37.574638,126.979181
958,경복궁박광일스시카페,서울특별시 종로구 자하문로 38,회 / 스시,만원-2만원,5,,37.5793341,126.9716194
959,다쯔미,서울특별시 종로구 종로 33,회 / 스시,만원-2만원,3,,37.5716991,127.0013177
960,모모야,서울특별시 중구 세종대로 136 B2,까스 요리,만원-2만원,2,,37.5683731,126.9782699
961,아이와,서울특별시 종로구 청계천로 35 관정빌딩 B1,이자카야 / 오뎅 / 꼬치,만원-2만원,4,,37.5692999,126.9813612
962,사보텐,서울특별시 중구 세종대로 136 SFC,정통 일식 / 일반 일식,만원-2만원,2,,37.5683731,126.9782699
963,테이엔,서울특별시 종로구 경희궁2길 14-6,돈부리 / 일본 카레 / 벤토,만원-2만원,1,,37.57267969999999,126.9714902
964,은행골,서울특별시 종로구 종로5길 44,회 / 스시,만원-2만원,4,,37.5721605,126.9803985
965,그남자의초밥집,서울특별시 종로구 새문안로5길 19 로얄빌딩 B1,회 / 스시,만원-2만원,2,,37.5719994,126.9742775
966,이자카야소우,서울특별시 종로구 새문안로7길 26,회 / 스시,만원-2만원,1,,37.5713767,126.9751045
967,사사야,서울특별시 종로구 새문안로5길 19 B1 64호,회 / 스시,만원-2만원,1,,37.5719994,126.9742775
968,일품당,서울특별시 종로구 세종대로23길 25,기타 일식,2만원-3만원,21,3.6,37.5714698,126.9750342
969,이마리,서울특별시 종로구 자하문로5길 18-13,정통 일식 / 일반 일식,2만원-3만원,3,,37.5777613,126.970947
970,광화문등심,서울특별시 종로구 종로5길 34,기타 일식,2만원-3만원,3,,37.571783,126.9806153
971,미도리스시,서울특별시 종로구 새문안로9길 29-1 2F,회 / 스시,2만원-3만원,1,,37.5712652,126.9753404
972,화로담,서울특별시 종로구 새문안로5길 9 2F,기타 일식,2만원-3만원,2,,37.5710114,126.9747507
973,사토루,서울특별시 종로구 율곡로4길 72,이자카야 / 오뎅 / 꼬치,2만원-3만원,2,,37.57259980000001,126.9806676
974,오가와,서울특별시 종로구 새문안로5길 19 로얄빌딩 B1,회 / 스시,4만원 이상,101,4.3,37.5719994,126.9742775
975,이찌이스시,서울특별시 종로구 사직로8길 42 B1,회 / 스시,4만원 이상,16,4.3,37.5737408,126.9731114
976,아키라백,서울특별시 종로구 새문안로 97 포시즌스호텔 서울 12F,퓨전 일식,4만원 이상,28,4.2,37.5704525,126.975539
977,스시미치루,서울특별시 종로구 종로1길 42 B1,회 / 스시,4만원 이상,6,,37.5738637,126.9789715
978,스시산원궁,서울특별시 종로구 종로1길 50 더케이트윈타워 B1 14호,회 / 스시,4만원 이상,3,,37.574638,126.979181
979,구마스시,서울특별시 종로구 새문안로 92 광화문오피시아빌딩 B1,회 / 스시,4만원 이상,5,,37.5696602,126.9748903
980,스시와,서울특별시 종로구 율곡로2길 7 서머셋팰리스서울 2F 201호,회 / 스시,4만원 이상,3,,37.5749752,126.9812194
981,동원참치,서울특별시 종로구 새문안로5가길 9,회 / 스시,3만원-4만원,3,,37.5729412,126.973891
982,동성각,서울특별시 종로구 새문안로9길 29-2,정통 중식 / 일반 중식,만원 미만,7,4.0,37.5713959,126.9752435
983,완차이면가,서울특별시 종로구 종로1길 42 이마빌딩 B1,기타 중식,만원 미만,10,3.8,37.5738637,126.9789715
984,동천홍,서울특별시 종로구 새문안로9길 23,정통 중식 / 일반 중식,만원 미만,2,,37.5711901,126.9755112
985,청빈,서울특별시 종로구 종로5길 58 석탄회관빌딩 B1,정통 중식 / 일반 중식,만원 미만,2,,37.5729507,126.9804136
986,팬다,서울특별시 종로구 새문안로3길 36,정통 중식 / 일반 중식,만원 미만,4,,37.5733414,126.9732901
987,가봉루,서울특별시 종로구 세종대로23길 3,정통 중식 / 일반 중식,만원 미만,5,,37.5714809,126.9762068
988,미시엔,서울특별시 종로구 새문안로 92,기타 중식,만원 미만,1,,37.5696602,126.9748903
989,진아춘,서울특별시 종로구 새문안로 92 광화문오피시아,정통 중식 / 일반 중식,만원 미만,1,,37.5696602,126.9748903
990,춘리마라탕,서울특별시 종로구 새문안로 92 광화문오피시아 B1 15-16호,기타 중식,만원 미만,2,,37.5696602,126.9748903
991,아량,"서울특별시 종로구 자하문로2길 22 1, 2F",정통 중식 / 일반 중식,만원 미만,1,,37.5763245,126.973882
992,샤니웨니,서울특별시 종로구 새문안로5길 11-9 2F,정통 중식 / 일반 중식,만원 미만,1,,37.5710614,126.9743798
993,취홍,서울특별시 종로구 새문안로3길 30,정통 중식 / 일반 중식,만원 미만,1,,37.5726979,126.973265
994,착한쭝식,서울특별시 종로구 새문안로5길 19,정통 중식 / 일반 중식,만원 미만,1,,37.5719994,126.9742775
995,친니,서울특별시 종로구 세종대로 175 세종문화회관 B1F,정통 중식 / 일반 중식,만원-2만원,13,4.1,37.5725254,126.9756429
996,베이징코야,서울특별시 종로구 율곡로2길 29-1,기타 중식,만원-2만원,18,3.7,37.5744893,126.9800441
997,홍콩익스프레스,서울특별시 종로구 새문안로5길 19 로얄빌딩 B1 66호,기타 중식,만원-2만원,5,3.6,37.5719994,126.9742775
998,동베이,서울특별시 종로구 새문안로5길 8-1 2F,정통 중식 / 일반 중식,만원-2만원,3,,37.5709524,126.975013
999,콴쒸이,서울특별시 종로구 새문안로 68 B1,정통 중식 / 일반 중식,만원-2만원,5,,37.569568,126.9721646
1000,산동,서울특별시 종로구 새문안로 83,정통 중식 / 일반 중식,만원-2만원,4,,37.5703882,126.9739498
1001,발재반점,서울특별시 종로구 종로1길 50,정통 중식 / 일반 중식,만원-2만원,2,,37.5745869,126.9792435
1002,마라공방,서울특별시 중구 세종대로21길 55 2F,기타 중식,만원-2만원,2,,37.5689736,126.9759332
1003,호가양꼬치,서울특별시 종로구 율곡로4길 66,기타 중식,2만원-3만원,60,4.6,37.5728106,126.9807587
1004,차알,서울특별시 종로구 종로3길 17 디타워 3F,정통 중식 / 일반 중식,2만원-3만원,36,3.7,37.5716583,126.9798858
1005,챠이797,서울특별시 종로구 새문안로5길 31,정통 중식 / 일반 중식,2만원-3만원,8,,37.5715671,126.9745288
1006,파챠이훠궈,서울특별시 중구 세종대로 136 SFC몰 B1,기타 중식,2만원-3만원,3,,37.5683731,126.9782699
1007,뉴문,서울특별시 종로구 경희궁2길 6 2F,정통 중식 / 일반 중식,2만원-3만원,2,,37.572606,126.9709931
1008,유유안,서울특별시 종로구 새문안로 97 포시즌스호텔 서울 11F,정통 중식 / 일반 중식,4만원 이상,37,4.6,37.5704525,126.975539
1009,메이징에이,서울특별시 중구 세종대로 136 서울파이낸스센터 B2,정통 중식 / 일반 중식,4만원 이상,18,3.6,37.568369,126.97779
1010,소고산제일루,서울특별시 종로구 종로5길 7 Tower 8 102호,기타 중식,3만원-4만원,9,3.6,37.5706059,126.9805337
1011,금용문,서울특별시 종로구 새문안로5가길 7 센트럴키친 2F,정통 중식 / 일반 중식,3만원-4만원,6,,37.57274049999999,126.9740251
1012,팔마,서울특별시 종로구 자하문로5길 39 1F,퓨전 양식,만원 미만,39,4.6,37.5776663,126.9696555
1013,엘샌드위치,서울특별시 종로구 율곡로4길 14,브런치 / 버거 / 샌드위치,만원 미만,4,4.0,37.5750186,126.981752
1014,그린앤그레인,서울특별시 종로구 세종대로23길 54,기타 양식,만원 미만,10,3.7,37.5717618,126.9732801
1015,위치스테이블,서울특별시 종로구 사직로8길 34,브런치 / 버거 / 샌드위치,만원 미만,9,3.6,37.5732644,126.9719961
1016,브루클린더버거조인트,서울특별시 종로구 종로3길 17 1F,브런치 / 버거 / 샌드위치,만원 미만,37,3.3,37.5716583,126.9798858
1017,스윗밸런스,서울특별시 종로구 종로1길 50 더케이트윈타워 B동 B1,기타 양식,만원 미만,7,3.3,37.574708,126.979549
1018,헤비스테이크,서울특별시 종로구 삼봉로 42 2F,스테이크 / 바베큐,만원 미만,4,,37.572337,126.9795505
1019,에그드랍,서울특별시 종로구 종로3길 17,브런치 / 버거 / 샌드위치,만원 미만,6,,37.5716583,126.9798858
1020,보사우러스,서울특별시 종로구 새문안로3길 30  1F,기타 양식,만원 미만,2,,37.5726979,126.973265
1021,리나스,서울특별시 종로구 종로 1,브런치 / 버거 / 샌드위치,만원 미만,5,,37.5709047,126.9780327
1022,그릭샐러드,서울특별시 종로구 새문안로5길 19 B1 24호,기타 양식,만원 미만,2,,37.5719994,126.9742775
1023,함박집,서울특별시 종로구 세종대로23길 54,스테이크 / 바베큐,만원 미만,1,,37.5717618,126.9732801
1024,샐러드샵,서울특별시 종로구 새문안로 83  1F,기타 양식,만원 미만,1,,37.5703882,126.9739498
1025,데일리수프앤브레드,서울특별시 종로구 새문안로5길 37  B1,기타 양식,만원 미만,1,,37.5736116,126.9742022
1026,노브랜드버거,서울특별시 종로구 종로5길 34,브런치 / 버거 / 샌드위치,만원 미만,0,,37.571783,126.9806153
1027,까사디쉐프,서울특별시 종로구 자하문로7길 32 1F,이탈리안,만원-2만원,47,4.3,37.5790599,126.9704514
1028,힐사이드테이블,서울특별시 종로구 경희궁2길 7 1F,브런치 / 버거 / 샌드위치,만원-2만원,223,4.1,37.572829,126.9709459
1029,닥터로빈,서울특별시 종로구 종로3길 17 디타워 5F,이탈리안,만원-2만원,30,3.9,37.5716583,126.9798858
1030,폴리스브릭오븐피제리아,서울특별시 종로구 종로3길 17 디타워 2F,기타 양식,만원-2만원,50,3.8,37.5716583,126.9798858
1031,카페마마스,서울특별시 종로구 종로1길 50 더케이트윈타워 1F,브런치 / 버거 / 샌드위치,만원-2만원,48,3.8,37.574638,126.979181
1032,더키친일뽀르노,서울특별시 종로구 율곡로2길 7 써머셋팰리스 1F,이탈리안,만원-2만원,4,3.8,37.5749752,126.9812194
1033,TLC,서울특별시 종로구 사직로8길 34 173호,기타 양식,만원-2만원,13,3.6,37.5732644,126.9719961
1034,친,서울특별시 종로구 자하문로5길 20,퓨전 양식,만원-2만원,6,3.5,37.57772629999999,126.9707551
1035,스파게티가있는풍경,서울특별시 종로구 새문안로 103-1,기타 양식,만원-2만원,8,3.2,37.5704416,126.9761633
1036,피그인더가든,서울특별시 종로구 종로3길 17 D타워 1F,기타 양식,만원-2만원,7,3.2,37.5716583,126.9798858
1037,샤이바나,서울특별시 중구 세종대로 136 서울파이낸스센터 1F,퓨전 양식,만원-2만원,45,2.8,37.568369,126.97779
1038,맘스테이블 휘겔리,서울특별시 종로구 사직로8길 24 상가 102호,브런치 / 버거 / 샌드위치,만원-2만원,9,,37.57371029999999,126.9712666
1039,엘 이탈리안 비스트로,서울특별시 종로구 종로5길 7 타워8빌딩 B1,이탈리안,만원-2만원,3,,37.5706059,126.9805337
1040,파스타부스,서울특별시 종로구 새문안로5길 37,기타 양식,만원-2만원,4,,37.5736116,126.9742022
1041,함박식당,서울특별시 종로구 필운대로1길 6,스테이크 / 바베큐,만원-2만원,4,,37.5773789,126.9690424
1042,아데쏘이탈리안레스토랑,서울특별시 종로구 경희궁1길 5 B1,이탈리안,만원-2만원,2,,37.5708473,126.9713127
1043,미트러스,서울특별시 종로구 새문안로5길 37 도렴빌딩 B1,스테이크 / 바베큐,만원-2만원,2,,37.5736116,126.9742022
1044,도노베아토,서울특별시 종로구 새문안로 92 오피시아빌딩,기타 양식,만원-2만원,3,,37.5696602,126.9748903
1045,스탠딩스테이크,서울특별시 종로구 자하문로 6 1F,퓨전 양식,만원-2만원,2,,37.5766866,126.9726294
1046,한옥달,서울특별시 종로구 자하문로1가길 9,퓨전 양식,2만원-3만원,22,4.2,37.57687749999999,126.9718932
1047,멜팅샵X치즈룸,서울특별시 종로구 종로3길 17 광화문D타워 4F,이탈리안,2만원-3만원,133,4.1,37.5716583,126.9798858
1048,어바웃진스,서울특별시 종로구 새문안로3길 30 대우빌딩 B1 106호,스테이크 / 바베큐,2만원-3만원,23,4.1,37.5726979,126.973265
1049,매드포갈릭,서울특별시 종로구 종로3길 17 디타워 3F,이탈리안,2만원-3만원,29,3.6,37.5716583,126.9798858
1050,뽐모도로,서울특별시 종로구 새문안로9길 19-1,이탈리안,2만원-3만원,45,3.4,37.5710711,126.9756
1051,라그릴리아,서울특별시 종로구 청계천로 11,이탈리안,2만원-3만원,14,3.4,37.5694629,126.9788437
1052,더플레이스,서울특별시 중구 세종대로 136 서울파이낸스센터 B1,이탈리안,2만원-3만원,6,,37.568369,126.97779
1053,드롭더미트,서울특별시 종로구 종로3길 17 D타워 3F,이탈리안,2만원-3만원,4,,37.5716583,126.9798858
1054,필운276,서울특별시 종로구 사직로10길 4,이탈리안,2만원-3만원,2,,37.5757016,126.9703358
1055,보나베띠,서울특별시 종로구 율곡로2길 29-1 연합미디어센터,이탈리안,2만원-3만원,2,,37.5744893,126.9800441
1056,붓처스컷,서울특별시 중구 세종대로 136 서울파이낸스센터 B2,스테이크 / 바베큐,4만원 이상,53,4.3,37.568369,126.97779
1057,오베르쥬,서울특별시 종로구 자하문로5길 11,프랑스 음식,4만원 이상,9,3.9,37.5775705,126.9711817
1058,보칼리노,서울특별시 종로구 새문안로 97 포시즌스호텔 서울 2F,이탈리안,4만원 이상,43,3.7,37.5704525,126.975539
1059,라브리,서울특별시 종로구 종로 1,프랑스 음식,4만원 이상,1,,37.5709047,126.9780327
1060,포시즌스호텔서울 웨딩홀,서울특별시 종로구 새문안로 97,퓨전 양식,4만원 이상,2,,37.5696899,126.9724165
1061,사이공,서울특별시 종로구 종로 19 르메이에르종로타운 1F,베트남 음식,만원 미만,26,3.9,37.5709593,126.9798759
1062,쿠차라,서울특별시 중구 세종대로 136 파이낸스빌딩 B1,남미 음식,만원 미만,24,3.9,37.5683731,126.9782699
1063,질할브로스,서울특별시 종로구 종로3길 17 D타워 1F,세계음식 기타,만원 미만,44,3.8,37.5716583,126.9798858
1064,알로이막막,서울특별시 종로구 자하문로7길 30,태국 음식,만원 미만,29,3.4,37.5790112,126.9705517
1065,풍황,서울특별시 종로구 종로 19 르메이에르 종로타운 1F,베트남 음식,만원 미만,4,,37.5709593,126.9798759
1066,고가빈커리하우스,서울특별시 종로구 경희궁2길 7 3F,인도 음식,만원-2만원,224,4.1,37.572829,126.9709459
1067,타마린드,서울특별시 종로구 종로3길 17 504호,베트남 음식,만원-2만원,8,3.9,37.5716583,126.9798858
1068,띤띤,서울특별시 중구 세종대로 136 SFCMALL B2,베트남 음식,만원-2만원,21,3.7,37.5683731,126.9782699
1069,강가,서울특별시 중구 세종대로 136,인도 음식,만원-2만원,18,3.6,37.5683731,126.9782699
1070,옴,서울특별시 종로구 새문안로 103 선광빌딩 B1,인도 음식,만원-2만원,16,3.5,37.5708102,126.9745078
1071,감성타코앤그릴,서울특별시 종로구 새문안로3길 23 교보빌딩 B1,남미 음식,만원-2만원,30,3.4,37.5722444,126.9722071
1072,생어거스틴,서울특별시 중구 세종대로 136 서울파이낸스센터 B1,다국적 아시아 음식,만원-2만원,7,,37.568369,126.97779
1073,두르가,서울특별시 종로구 종로 19 르메이에르종로타운 120호,인도 음식,만원-2만원,2,,37.5709593,126.9798759
1074,반포식스,서울특별시 종로구 새문안로9길 9 2F,베트남 음식,만원-2만원,6,,37.5706071,126.9759222
1075,포하노이,서울특별시 종로구 종로 33 그랑서울 B1,베트남 음식,만원-2만원,5,,37.5706922,126.9815134
1076,한스델리,서울특별시 종로구 청계천로 41 영풍문고 B2,다국적 퓨전,만원-2만원,1,,37.5696304,126.9821706
1077,퍼틴,서울특별시 종로구 종로1길 50 B동 B1,베트남 음식,만원-2만원,1,,37.5745869,126.9792435
1078,디라이프스타일키친,서울특별시 중구 세종대로 136 서울파이낸스센터 B1 101호,세계음식 기타,2만원-3만원,39,4.2,37.568369,126.97779
1079,온더보더,서울특별시 종로구 종로3길 17 디타워 2F,남미 음식,2만원-3만원,33,3.3,37.5716583,126.9798858
1080,엘 꾸비또,서울특별시 종로구 새문안로 68 흥국생명빌딩 B1,세계음식 기타,2만원-3만원,10,,37.569568,126.9721646
1081,젠,서울특별시 종로구 새문안로 38 스타식스정동신관 3F,다국적 아시아 음식,2만원-3만원,1,,37.5683495,126.9697567
1082,가스트로통,서울특별시 종로구 자하문로6길 11-36,세계음식 기타,4만원 이상,17,3.9,37.5786172,126.9725961
1083,루뽀,서울특별시 종로구 새문안로5길 31 센터포인트 2F,세계음식 기타,3만원-4만원,18,3.9,37.5715671,126.9745288
1084,더부페,서울특별시 종로구 종로 19 르메이에르종로타운 5F,뷔페,만원-2만원,2,,37.5709593,126.9798759
1085,화선,서울특별시 종로구 종로 14,뷔페,만원-2만원,1,,37.5697729,126.9788485
1086,더마켓키친,서울특별시 종로구 새문안로 97 포시즌스호텔 서울 LLF,뷔페,4만원 이상,41,3.9,37.5704525,126.975539
1087,가든테라스,서울특별시 종로구 새문안로 97 포시즌스호텔 서울 15F,뷔페,4만원 이상,1,,37.5704525,126.975539
1088,대장금,서울특별시 종로구 사직로8길 42,일반 주점,만원 미만,6,3.9,37.5737408,126.9731114
1089,보리마루 탭하우스,서울특별시 종로구 자하문로2길 20 하늘빌딩 2F,치킨 / 호프 / 펍,만원 미만,6,,37.576347,126.9737752
1090,아지트프롬코너비,서울특별시 종로구 종로3길 24-17,치킨 / 호프 / 펍,만원 미만,1,,37.5717005,126.9797154
1091,탭퍼블릭,서울특별시 종로구 종로 33 그랑서울 B102,치킨 / 호프 / 펍,만원-2만원,17,3.9,37.5706922,126.9815134
1092,전대감댁,서울특별시 종로구 자하문로1나길 7-17,전통 주점 / 포차,만원-2만원,19,3.4,37.576603,126.9709992
1093,우아,서울특별시 종로구 새문안로9길 29-3 삼한빌딩 2F,치킨 / 호프 / 펍,만원-2만원,9,,37.5712286,126.9752197
1094,더테이블청진탭룸,서울특별시 종로구 종로5길 32-8 1F,치킨 / 호프 / 펍,만원-2만원,2,,37.5717204,126.9809841
1095,생활맥주,서울특별시 종로구 삼봉로 80 1-2F,치킨 / 호프 / 펍,만원-2만원,2,,37.5719202,126.9815814
1096,광화문살롱,서울특별시 종로구 새문안로5길 31 센터포인트빌딩 B1,치킨 / 호프 / 펍,만원-2만원,1,,37.5715671,126.9745288
1097,거성호프,서울특별시 종로구 세종대로21길 71,치킨 / 호프 / 펍,만원-2만원,2,,37.5682757,126.9756694
1098,교동전선생,서울특별시 종로구 새문안로5가길 3 성보빌딩 2F,전통 주점 / 포차,만원-2만원,2,,37.5723573,126.97431
1099,하이로비어,서울특별시 종로구 새문안로 87 덕수빌딩 2F,치킨 / 호프 / 펍,만원-2만원,1,,37.5703933,126.9742305
1100,이모네,서울특별시 종로구 새문안로5가길 11,전통 주점 / 포차,만원-2만원,1,,37.5730549,126.9738125
1101,스윗스모크,서울특별시 종로구 사직로8길 42,치킨 / 호프 / 펍,만원-2만원,1,,37.5737408,126.9731114
1102,매일더맥주,서울특별시 종로구 자하문로 18-1,치킨 / 호프 / 펍,만원-2만원,1,,37.5777768,126.9723156
1103,네기실비,서울특별시 종로구 새문안로2길 10 디팰리스 B1,일반 주점,2만원-3만원,4,,37.5687839,126.9717863
1104,브릭,서울특별시 종로구 종로5길 38-1 청일빌딩 2F,칵테일 / 와인,2만원-3만원,1,,37.5719919,126.9804902
1105,찰스에이치,서울특별시 종로구 새문안로 97 포시즌스호텔 서울 B1,칵테일 / 와인,3만원-4만원,53,4.5,37.5704525,126.975539
1106,쪼매매운떡볶이,서울특별시 노원구 공릉로 208,기타 한식,만원 미만,47,4.0,37.628258,127.0777683
1107,무명칼국수,서울특별시 노원구 석계로7길 4,국수 / 면 요리,만원 미만,25,4.0,37.6166696,127.0638906
1108,털보고된이,서울특별시 노원구 노해로81길 22-22,한정식 / 백반 / 정통 한식,만원 미만,28,3.9,37.6558713,127.0637387
1109,돈까스먹는용만이,서울특별시 노원구 한글비석로20길 52,기타 한식,만원 미만,14,3.8,37.6612172,127.0745963
1110,제일콩집,서울특별시 노원구 동일로174길 37-8,한정식 / 백반 / 정통 한식,만원 미만,30,3.8,37.6194809,127.0776354
1111,가재골수제비,서울특별시 노원구 동일로242길 100,국수 / 면 요리,만원 미만,11,3.6,37.6743943,127.0606312
1112,공릉우동집,서울특별시 노원구 동일로192길 42,기타 한식,만원 미만,16,3.6,37.6264176,127.0754006
1113,피노키오냉면,서울특별시 노원구 한글비석로 474 보람상가,국수 / 면 요리,만원 미만,13,3.5,37.6647842,127.0654255
1114,홍대개미,서울특별시 노원구 동일로 1414 롯데백화점 노원점 B1F,퓨전 한식,만원 미만,10,3.0,37.6552207,127.0612826
1115,제형면옥,서울특별시 노원구 공릉로65길 16,국수 / 면 요리,만원 미만,13,,37.6353337,127.0700546
1116,엄마손칼국수,서울특별시 노원구 상계로39길 5,국수 / 면 요리,만원 미만,7,,37.6710563,127.0802156
1117,신가네칼국수,서울특별시 노원구 공릉로59나길 78-14,국수 / 면 요리,만원 미만,6,,37.6356584,127.0702137
1118,숲속왕돈까스,서울특별시 노원구 공릉로51길 4,기타 한식,만원 미만,2,,37.6288962,127.0766422
1119,두끼,서울특별시 노원구 상계로3길 15 현우빌딩 2F,기타 한식,만원 미만,1,,37.6568337,127.0621535
1120,제주몸냥,서울특별시 노원구 동일로241길 36,국수 / 면 요리,만원 미만,3,,37.6777023,127.0544689
1121,이오냉면,서울특별시 노원구 상계로1길 38-11 1F,국수 / 면 요리,만원 미만,4,,37.6579356,127.0620399
1122,며느리도몰라,서울특별시 노원구 노해로 517-9,기타 한식,만원 미만,5,,37.6558974,127.0657692
1123,소라,서울특별시 노원구 화랑로55길 7 공릉아파트상가,기타 한식,만원 미만,3,,37.6224187,127.0815689
1124,멍텅구리즉석떡볶이,서울특별시 노원구 공릉로51길 14-2,기타 한식,만원 미만,7,,37.628831,127.0763745
1125,아이엠돈까스,서울특별시 노원구 동일로198길 64,기타 한식,만원 미만,6,,37.629455,127.0750605
1126,유부김밥,서울특별시 노원구 한글비석로 396,기타 한식,만원 미만,2,,37.6612726,127.0726949
1127,메밀마당,서울특별시 노원구 동일로217가길 39 대성빌딩 102호,국수 / 면 요리,만원 미만,2,,37.6530259,127.058193
1128,대가가마솥순대국,서울특별시 노원구 상계로 98 광복빌딩,탕 / 찌개 / 전골,만원 미만,2,,37.6566161,127.0658532
1129,신전떡볶이,서울특별시 노원구 상계로 89,기타 한식,만원 미만,7,,37.6567774,127.0648323
1130,소문난멸치국수,서울특별시 노원구 동일로173가길 81,국수 / 면 요리,만원 미만,6,,37.6218439,127.0724044
1131,봉평산골메밀촌,서울특별시 노원구 공릉로 191-6,국수 / 면 요리,만원 미만,5,,37.6268383,127.0786117
1132,시골순대,서울특별시 노원구 한글비석로20길 57,탕 / 찌개 / 전골,만원 미만,3,,37.6615843,127.0747504
1133,전민규의황제누룽지탕,서울특별시 노원구 노해로77길 14-8,한정식 / 백반 / 정통 한식,만원 미만,3,,37.6546907,127.0596237
1134,풍미연,서울특별시 노원구 노해로85길 7,탕 / 찌개 / 전골,만원 미만,3,,37.655641,127.0648035
1135,소문난기사식당,서울특별시 노원구 동일로192길 30,한정식 / 백반 / 정통 한식,만원 미만,5,,37.6260595,127.0750086
1136,로스2000,서울특별시 노원구 광운로 41,고기 요리,만원 미만,2,,37.6211699,127.0589802
1137,돈까스클럽,서울특별시 노원구 노원로 247,기타 한식,만원 미만,3,,37.6394137,127.0734006
1138,최대섭대박김밥,서울특별시 노원구 한글비석로 415,기타 한식,만원 미만,4,,37.661402,127.0704809
1139,다미국수,서울특별시 노원구 상계로 75 노원빌딩,국수 / 면 요리,만원 미만,2,,37.6565199,127.0632658
1140,절구시래기,서울특별시 노원구 동일로242길 123,탕 / 찌개 / 전골,만원 미만,1,,37.6748356,127.0615132
1141,다이천 떡볶이,서울특별시 노원구 석계로 106,기타 한식,만원 미만,3,,37.6230986,127.060398
1142,신고집찜칼국수,서울특별시 노원구 노원로15길 51-30,국수 / 면 요리,만원 미만,4,,37.6394183,127.0700841
1143,옛날칼국수,서울특별시 노원구 동일로 1417,국수 / 면 요리,만원 미만,2,,37.6549923,127.0599384
1144,나승준함흥냉면,서울특별시 노원구 상계로 97 104호,국수 / 면 요리,만원 미만,2,,37.6570226,127.0656429
1145,차가네무번지,서울특별시 노원구 석계로8길 6,탕 / 찌개 / 전골,만원 미만,3,,37.6166009,127.0645473
1146,수락이오냉면,서울특별시 노원구 동일로237다길 7,국수 / 면 요리,만원 미만,1,,37.6738747,127.0525666
1147,봉평메밀막국수,서울특별시 노원구 한글비석로20길 61,국수 / 면 요리,만원 미만,1,,37.6617034,127.0748884
1148,마뇨떡볶이,서울특별시 노원구 상계로 55 위성프라자 2F,기타 한식,만원 미만,2,,37.6560102,127.0611427
1149,프라이팬고기,서울특별시 노원구 공릉로27길 48,퓨전 한식,만원 미만,2,,37.6230092,127.0780733
1150,우이동멸치국수,서울특별시 노원구 노원로 462 ,국수 / 면 요리,만원 미만,1,,37.657684,127.0663328
1151,해촌샤브칼국수,서울특별시 노원구 동일로192길 37 ,탕 / 찌개 / 전골,만원 미만,1,,37.626579,127.0748458
1152,토속순창왕순대,서울특별시 노원구 상계로 146 ,탕 / 찌개 / 전골,만원 미만,1,,37.6583836,127.0707146
1153,삼성곱창,서울특별시 노원구 공릉로38길 9,고기 요리,만원 미만,2,,37.6232595,127.0800198
1154,전주콩나물국밥,서울특별시 노원구 노해로75길 14-26,탕 / 찌개 / 전골,만원 미만,2,,37.6545423,127.058872
1155,다리떡볶이,서울특별시 노원구 동일로 210길 1-2,기타 한식,만원 미만,2,,37.6482117,127.066065
1156,춘보만두,서울특별시 노원구 섬밭로 56,한정식 / 백반 / 정통 한식,만원 미만,4,,37.6218771,127.0718183
1157,노원집 찌개랑고기랑,서울특별시 노원구 상계로3길 38-6,탕 / 찌개 / 전골,만원 미만,1,,37.65782919999999,127.0629377
1158,크앙분식,서울특별시 노원구 공릉로 211  102동 1F,기타 한식,만원 미만,1,,37.628077,127.0768608
1159,E9선생,서울특별시 노원구 노해로81길 6,한정식 / 백반 / 정통 한식,만원 미만,1,,37.6552634,127.0630958
1160,영스낵,서울특별시 노원구 한글비석로 245 B1,기타 한식,만원 미만,3,,37.649542,127.0763583
1161,굴다리전주콩나물국밥,서울특별시 노원구 동일로198길 32,탕 / 찌개 / 전골,만원 미만,3,,37.6290016,127.0734268
1162,항아리수제비칼국수,서울특별시 노원구 덕릉로126길 8,국수 / 면 요리,만원 미만,2,,37.6701953,127.0818902
1163,이종구낙지세상,서울특별시 노원구 중계로 90 우암타운 1F,해산물 요리,만원 미만,1,,37.6438434,127.0834679
1164,엄지냉면,서울특별시 노원구 덕릉로 787,국수 / 면 요리,만원 미만,1,,37.6674455,127.0786778
1165,신당동즉석떡볶이,서울특별시 노원구 석계로9길 47,기타 한식,만원 미만,1,,37.6162801,127.062048
1166,무봉리토종순대국,서울특별시 노원구 동일로192길 63 화랑빌딩,탕 / 찌개 / 전골,만원 미만,3,,37.6271125,127.0762916
1167,풍국면,서울특별시 노원구 동일로 1414 B1,국수 / 면 요리,만원 미만,1,,37.6552101,127.0611517
1168,대성식당,서울특별시 노원구 공릉로 239,한정식 / 백반 / 정통 한식,만원 미만,1,,37.630391,127.0758375
1169,오늘손칼국수앤찜,서울특별시 노원구 동일로192길 5,국수 / 면 요리,만원 미만,2,,37.626035,127.0733753
1170,고소미부엌,서울특별시 노원구 동일로 986 101동 108호,기타 한식,만원 미만,2,,37.6181739,127.0759592
1171,보승회관,서울특별시 노원구 상계로 75,탕 / 찌개 / 전골,만원 미만,3,,37.6565199,127.0632658
1172,황태칼국수왕돈까스,서울특별시 노원구 공릉로 208,국수 / 면 요리,만원 미만,1,,37.628258,127.0777683
1173,돌깨마을맷돌순두부,서울특별시 노원구 동일로 1350,탕 / 찌개 / 전골,만원 미만,1,,37.6491661,127.0624018
1174,황둔부대찌개,서울특별시 노원구 동일로 1345 인천빌딩,탕 / 찌개 / 전골,만원 미만,1,,37.6486652,127.0619312
1175,누나홀닭,서울특별시 노원구 동일로218길 29,닭 / 오리 요리,만원 미만,1,,37.6539753,127.0624569
1176,꽁당보리밥,서울특별시 노원구 석계로9길 43,한정식 / 백반 / 정통 한식,만원 미만,1,,37.6162898,127.0622484
1177,전주식당,서울특별시 노원구 동일로217가길 11,한정식 / 백반 / 정통 한식,만원 미만,1,,37.6534006,127.0598701
1178,고배우의깜장떡볶이,서울특별시 노원구 공릉로 221,기타 한식,만원 미만,4,,37.6288694,127.0769076
1179,더진국,서울특별시 노원구 공릉로 211,탕 / 찌개 / 전골,만원 미만,2,,37.628077,127.0768608
1180,밀겨울,서울특별시 노원구 상계로3길 9,국수 / 면 요리,만원 미만,3,,37.6566564,127.0621841
1181,오빠생각,서울특별시 노원구 화랑로 337-8 석계역 1번출구,기타 한식,만원 미만,3,,37.6152064,127.0651538
1182,화랑대곱창,서울특별시 노원구 노원로1길 21,고기 요리,만원 미만,2,,37.6213463,127.0849529
1183,에그몬,서울특별시 노원구 마들로3길 17 이마트월계점,기타 한식,만원 미만,2,,37.6265118,127.0619079
1184,끝집,서울특별시 노원구 석계로18길 23,국수 / 면 요리,만원 미만,1,,37.6240119,127.0606867
1185,서봉돈까스,서울특별시 노원구 노해로 495 202호,기타 한식,만원 미만,2,,37.6550741,127.0630834
1186,부안영순씨식당,서울특별시 노원구 상계로1길 62-47,한정식 / 백반 / 정통 한식,만원 미만,1,,37.6588846,127.061833
1187,예촌손수제비,서울특별시 노원구 동일로 1096 1F,국수 / 면 요리,만원 미만,1,,37.6277068,127.0722726
1188,맘스밥스,서울특별시 노원구 동일로173가길 72,탕 / 찌개 / 전골,만원 미만,1,,37.62144670000001,127.0728851
1189,응급실국물떡볶이,서울특별시 노원구 공릉로 231 1F,기타 한식,만원 미만,1,,37.6297228,127.0761199
1190,신사동덮밥,서울특별시 노원구 노해로 455 B1 5호,퓨전 한식,만원 미만,1,,37.6541177,127.0584999
1191,영스넥,서울특별시 노원구 상계로 51 노원프라자빌딩 B1,기타 한식,만원 미만,1,,37.6559143,127.0608756
1192,육쌈냉면,서울특별시 노원구 상계로3길 9 성광빌딩,국수 / 면 요리,만원 미만,3,,37.6566564,127.0621841
1193,퀴헨,서울특별시 노원구 공릉로58길 120,기타 한식,만원 미만,2,,37.6359702,127.0749231
1194,돌깨마을맷돌순두부,서울특별시 노원구 노해로81길 12-4,탕 / 찌개 / 전골,만원 미만,2,,37.65535149999999,127.0630686
1195,소문난순대국,서울특별시 노원구 공릉로58길 87,탕 / 찌개 / 전골,만원 미만,2,,37.6356082,127.0732258
1196,일품정,서울특별시 노원구 한글비석로 424-1 정일빌딩,탕 / 찌개 / 전골,만원 미만,1,,37.6557199,127.0659306
1197,수연멸치국수,서울특별시 노원구 노원로 3,국수 / 면 요리,만원 미만,1,,37.6218823,127.0865752
1198,통즉석떡볶이,서울특별시 노원구 노원로 483-10,기타 한식,만원 미만,1,,37.6589094,127.0640484
1199,이삭토스트,서울특별시 노원구 석계로3길 21 1F,기타 한식,만원 미만,1,,37.6159311,127.0634887
1200,도나도나,서울특별시 노원구 동일로 1393 일신프라자,고기 요리,만원 미만,1,,37.6529076,127.0605347
1201,토박이토종순대국,서울특별시 노원구 초안산로2라길 26 월계센트럴아이파크,탕 / 찌개 / 전골,만원 미만,1,,37.63115310000001,127.0577021
1202,김밥윤결,서울특별시 노원구 동일로 1095,기타 한식,만원 미만,1,,37.627674,127.0716534
1203,대경토종순대국,서울특별시 노원구 한글비석로24길 36,탕 / 찌개 / 전골,만원 미만,1,,37.6622396,127.072497
1204,후문식당,서울특별시 노원구 석계로13길 25-1 가든빌딩,한정식 / 백반 / 정통 한식,만원 미만,1,,37.6201408,127.0613391
1205,냅다청양집,서울특별시 노원구 상계로 90  1F 2호,고기 요리,만원 미만,1,,37.6563949,127.0647747
1206,삐삐핵볶이,서울특별시 노원구 공릉로 227,기타 한식,만원 미만,2,,37.6293475,127.0765177
1207,소문날라,서울특별시 노원구 공릉로 211,탕 / 찌개 / 전골,만원 미만,2,,37.628077,127.0768608
1208,치킨클럽,서울특별시 노원구 석계로18길 10-9,닭 / 오리 요리,만원 미만,2,,37.6235883,127.0608982
1209,동강의향기,서울특별시 노원구 동일로 1063,탕 / 찌개 / 전골,만원 미만,1,,37.6248789,127.0729048
1210,수돈재,서울특별시 노원구 동일로192길 5,탕 / 찌개 / 전골,만원 미만,2,,37.626035,127.0733753
1211,동대문엽기떡볶이,서울특별시 노원구 상계로 76 일신프라자,기타 한식,만원 미만,1,,37.656095,127.0634219
1212,닭갈비제작소,서울특별시 노원구 상계로3길 29,닭 / 오리 요리,만원 미만,1,,37.6575156,127.0623614
1213,예원닭강정,서울특별시 노원구 공릉로 115-1 1F,닭 / 오리 요리,만원 미만,2,,37.6206621,127.0779708
1214,세븐돈까스김밥,서울특별시 노원구 공릉로 173,기타 한식,만원 미만,1,,37.6252771,127.079689
1215,온달왕돈까스,서울특별시 노원구 한글비석로20길 10,기타 한식,만원 미만,1,,37.6596154,127.0737027
1216,본가왕뼈감자탕,서울특별시 노원구 상계로3길 28 영빈빌딩,탕 / 찌개 / 전골,만원 미만,1,,37.6573474,127.0626321
1217,우리집한상차림,서울특별시 노원구 동일로192길 37,한정식 / 백반 / 정통 한식,만원 미만,1,,37.626579,127.0748458
1218,쿡앤쿡,서울특별시 노원구 섬밭로 134,기타 한식,만원 미만,1,,37.6282818,127.0690945
1219,열화철판,서울특별시 노원구 동일로192길 90 2F,고기 요리,만원 미만,1,,37.627367,127.0777759
1220,신의주찹쌀순대,서울특별시 노원구 한글비석로 231 위성프라자 1F,탕 / 찌개 / 전골,만원 미만,1,,37.6481682,127.0762813
1221,꼬꼬몬,서울특별시 노원구 마들로3길 17 이마트 월계점 1F,닭 / 오리 요리,만원 미만,1,,37.6265118,127.0619079
1222,미가네양푼이찌개촌,서울특별시 노원구 동일로176길 8 ,한정식 / 백반 / 정통 한식,만원 미만,1,,37.6198742,127.0755089
1223,고향손칼국수,서울특별시 노원구 한글비석로24길 37,국수 / 면 요리,만원 미만,1,,37.6624026,127.0723658
1224,하계멸치국수,서울특별시 노원구 섬밭로 209  신한은행,국수 / 면 요리,만원 미만,1,,37.6354318,127.0644563
1225,작은집,서울특별시 노원구 석계로13길 25-1,한정식 / 백반 / 정통 한식,만원 미만,1,,37.6201408,127.0613391
1226,육수당,서울특별시 노원구 화랑로 343  102호,탕 / 찌개 / 전골,만원 미만,1,,37.6152321,127.0660166
1227,옛맛기사식당,서울특별시 노원구 중계로 115,한정식 / 백반 / 정통 한식,만원 미만,1,,37.6458795,127.0818043
1228,동대문엽기떡볶이,서울특별시 노원구 공릉로 211 동신아파트 상가 2F,기타 한식,만원 미만,3,,37.627606,127.077609
1229,세겹먹는날,서울특별시 노원구 공릉로51길 4,고기 요리,만원 미만,2,,37.6288962,127.0766422
1230,이층집,서울특별시 노원구 광운로 17-5,탕 / 찌개 / 전골,만원 미만,3,,37.6193297,127.0574776
1231,신화쭈꾸미,서울특별시 노원구 동일로 1361 주공2단지상가 1F,해산물 요리,만원 미만,1,,37.6498393,127.0612839
1232,신의주찹쌀순대,서울특별시 노원구 한글비석로20길 16,탕 / 찌개 / 전골,만원 미만,2,,37.6598398,127.073828
1233,밥은화,서울특별시 노원구 광운로12길 11,기타 한식,만원 미만,2,,37.6212411,127.0597654
1234,김희영의 영등포우동,서울특별시 노원구 노해로 492 프린스빌딩,기타 한식,만원 미만,2,,37.6543867,127.062681
1235,형제해장국,서울특별시 노원구 동일로 1106,탕 / 찌개 / 전골,만원 미만,1,,37.6287023,127.0718048
1236,중앙식당,서울특별시 노원구 노해로75길 14-2 중앙빌딩,한정식 / 백반 / 정통 한식,만원 미만,1,,37.6542772,127.0575947
1237,큰집닭강정,서울특별시 노원구 동일로 1355 105호,닭 / 오리 요리,만원 미만,1,,37.6498393,127.0612839
1238,모쿠모쿠,서울특별시 노원구 동일로204가길 46,탕 / 찌개 / 전골,만원 미만,1,,37.6412281,127.0678668
1239,신불떡볶이,서울특별시 노원구 상계로1길 38-11 우창프라자,기타 한식,만원 미만,1,,37.6579356,127.0620399
1240,틈새라면,서울특별시 노원구 상계로3길 21,기타 한식,만원 미만,1,,37.657176,127.0622614
1241,미스터빠삭돈까스베이커리,서울특별시 노원구 상계로17길 24 1F,기타 한식,만원 미만,1,,37.6588736,127.0676156
1242,구이나라생선구이,서울특별시 노원구 동일로241길 17,한정식 / 백반 / 정통 한식,만원 미만,1,,37.676887,127.0545994
1243,혜화동돈까스극장,서울특별시 노원구 한글비석로44길 32 1F,퓨전 한식,만원 미만,1,,37.6640236,127.0701955
1244,부여순대국,서울특별시 노원구 동일로178길 11-13,탕 / 찌개 / 전골,만원 미만,1,,37.62176669999999,127.0748556
1245,빨닭발닭,서울특별시 노원구 석계로 15,닭 / 오리 요리,만원 미만,1,,37.61610599999999,127.0642873
1246,대원아구찜칼국수,서울특별시 노원구 상계로27길 48,국수 / 면 요리,만원 미만,1,,37.6603485,127.0691963
1247,밀알생돈까스,서울특별시 노원구 동일로 1356 상계주공4단지아파트 상가동 2F 213호,기타 한식,만원 미만,1,,37.65019280000001,127.0634866
1248,꿈의김밥,서울특별시 노원구 상계로1길 66 1F,기타 한식,만원 미만,1,,37.6589601,127.0614785
1249,이정림수제햄부대찌개,서울특별시 노원구 공릉로 207  세림빌딩 202호,탕 / 찌개 / 전골,만원 미만,1,,37.6278624,127.0776525
1250,전골집,서울특별시 노원구 광운로 59,한정식 / 백반 / 정통 한식,만원 미만,1,,37.622734,127.0596447
1251,장수국수,서울특별시 노원구 광운로 27 2F,국수 / 면 요리,만원 미만,1,,37.6201787,127.0582915
1252,김창용의옹골면,서울특별시 노원구 상계로 70,국수 / 면 요리,만원 미만,1,,37.6559626,127.0627527
1253,백세마인보쌈,서울특별시 노원구 공릉로 187 건설빌딩,고기 요리,만원 미만,1,,37.6264058,127.0788436
1254,고봉민김밥인,서울특별시 노원구 한글비석로 269,기타 한식,만원 미만,1,,37.6516789,127.0767715
1255,옛날통닭,서울특별시 노원구 석계로3길 36,닭 / 오리 요리,만원 미만,1,,37.6163848,127.0629721
1256,사계절김밥,서울특별시 노원구 광운로 72 1F,기타 한식,만원 미만,1,,37.6235685,127.0602244
1257,노원목고기집,서울특별시 노원구 상계로 96,고기 요리,만원-2만원,22,4.2,37.65661,127.0655348
1258,땅코참숯구이,서울특별시 노원구 노해로85길 15-5,고기 요리,만원-2만원,12,4.2,37.6563426,127.0653296
1259,생선까시,서울특별시 노원구 동일로191가길 22,해산물 요리,만원-2만원,14,4.0,37.6259402,127.0714064
1260,또와순두부수제비,서울특별시 노원구 노해로85길 10-8 산호빌딩,탕 / 찌개 / 전골,만원-2만원,10,3.9,37.6558732,127.0655667
1261,더맛나곱창,서울특별시 노원구 동일로198길 36,고기 요리,만원-2만원,16,3.8,37.6289933,127.073632
1262,쭈꾸미달인,서울특별시 노원구 상계로 71-1,해산물 요리,만원-2만원,12,3.4,37.6566014,127.0629736
1263,대머리곱창,서울특별시 노원구 상계로1길 62-4,고기 요리,만원-2만원,9,3.4,37.6587254,127.0616424
1264,원조이모네연탄불곱창,서울특별시 노원구 동일로192길 46 송암빌딩,고기 요리,만원-2만원,21,3.3,37.62647370000001,127.0755972
1265,닭한마리,서울특별시 노원구 동일로 1020,닭 / 오리 요리,만원-2만원,14,3.1,37.62114450000001,127.0747999
1266,달밭소곱창,서울특별시 노원구 한글비석로 89,고기 요리,만원-2만원,10,,37.6392243,127.0715448
1267,쭈꾸미달인2,서울특별시 노원구 상계로5길 3,해산물 요리,만원-2만원,51,,37.6567642,127.0638464
1268,하나샤브샤브,서울특별시 노원구 동일로203가길 29 브라운스톤중계 1F,탕 / 찌개 / 전골,만원-2만원,6,,37.6400147,127.0642892
1269,마실,서울특별시 노원구 노원로 412,한정식 / 백반 / 정통 한식,만원-2만원,3,,37.653374,127.0680991
1270,만원수산,서울특별시 노원구 덕릉로115다길 74,해산물 요리,만원-2만원,2,,37.6695382,127.0790872
1271,새마을식당,서울특별시 노원구 노해로81길 12-20,고기 요리,만원-2만원,2,,37.6555504,127.0639444
1272,원조닭갈비,서울특별시 노원구 한글비석로36길 65,국수 / 면 요리,만원-2만원,3,,37.6641314,127.0725608
1273,서서방고깃집,서울특별시 노원구 동일로 1065 한빌딩,고기 요리,만원-2만원,2,,37.6251555,127.0727949
1274,봉추찜닭,서울특별시 노원구 노해로83길 4,닭 / 오리 요리,만원-2만원,5,,37.6554909,127.0645118
1275,감동식당,서울특별시 노원구 한글비석로47길 58 1F,고기 요리,만원-2만원,5,,37.6615836,127.0665469
1276,새우꺾기,서울특별시 노원구 동일로 1062,해산물 요리,만원-2만원,4,,37.6248592,127.073493
1277,선학쭈꾸미,서울특별시 노원구 상계로3길 29,해산물 요리,만원-2만원,3,,37.6575156,127.0623614
1278,싱싱오징어바다,서울특별시 노원구 동일로192길 30,해산물 요리,만원-2만원,5,,37.6260595,127.0750086
1279,공릉곱창,서울특별시 노원구 동일로 1062,고기 요리,만원-2만원,3,,37.6248592,127.073493
1280,늘해돈,서울특별시 노원구 공릉로 153 제1호동 제1호,기타 한식,만원-2만원,2,,37.6237048,127.0793459
1281,채선당,서울특별시 노원구 동일로 1700,탕 / 찌개 / 전골,만원-2만원,1,,37.6801286,127.0558065
1282,달재포차,서울특별시 노원구 동일로230다길 74 ,고기 요리,만원-2만원,3,,37.6744737,127.0580501
1283,고전한방삼계탕,서울특별시 노원구 노해로 517,탕 / 찌개 / 전골,만원-2만원,2,,37.6556456,127.0653791
1284,도리연닭도리탕,서울특별시 노원구 덕릉로83길 20-5,닭 / 오리 요리,만원-2만원,2,,37.6603144,127.0742573
1285,본가,서울특별시 노원구 노해로83길 10-4,고기 요리,만원-2만원,1,,37.6556645,127.0645822
1286,구석집,서울특별시 노원구 상계로1길 62-10 1F,해산물 요리,만원-2만원,3,,37.6587275,127.0619109
1287,윤씨네족보,서울특별시 노원구 노해로83길 18-10,고기 요리,만원-2만원,5,,37.6559856,127.0647357
1288,여우곱창,서울특별시 노원구 광운로 68 1F,고기 요리,만원-2만원,3,,37.6232768,127.0602564
1289,도리연닭도리탕,서울특별시 노원구 노해로85길 10-14 산호빌딩 2F,닭 / 오리 요리,만원-2만원,2,,37.6558974,127.0657692
1290,공릉모소리,서울특별시 노원구 동일로191가길 65  1F,고기 요리,만원-2만원,1,,37.6278699,127.0703379
1291,도리연닭도리탕,서울특별시 노원구 동일로192길 42,닭 / 오리 요리,만원-2만원,2,,37.6264176,127.0754006
1292,전봇대연탄불막창구이,서울특별시 노원구 동일로192길 45,고기 요리,만원-2만원,5,,37.6267218,127.0752428
1293,화포식당,서울특별시 노원구 상계로 72,고기 요리,만원-2만원,4,,37.6559951,127.062988
1294,세상만사뼈다귀,서울특별시 노원구 동일로 994,탕 / 찌개 / 전골,만원-2만원,2,,37.6189234,127.0755897
1295,용호낙지,서울특별시 노원구 동일로 1414 롯데백화점 노원점 9F,해산물 요리,만원-2만원,1,,37.6552207,127.0612826
1296,가장맛있는족발,서울특별시 노원구 동일로192길 46 송암빌딩,고기 요리,만원-2만원,6,,37.62647370000001,127.0755972
1297,호치킨,서울특별시 노원구 공릉로 211 1F,닭 / 오리 요리,만원-2만원,4,,37.628077,127.0768608
1298,백두한우곱창전문,서울특별시 노원구 상계로 92,고기 요리,만원-2만원,4,,37.6565174,127.0651007
1299,예향정,서울특별시 노원구 동일로217가길 31  2F,탕 / 찌개 / 전골,만원-2만원,2,,37.6531212,127.0586134
1300,진미숯불닭갈비,서울특별시 노원구 광운로 68,닭 / 오리 요리,만원-2만원,1,,37.6232768,127.0602564
1301,불타는생고기,서울특별시 노원구 동일로192길 10,고기 요리,만원-2만원,6,,37.6256606,127.0737764
1302,내가찜한닭,서울특별시 노원구 공릉로 211,고기 요리,만원-2만원,5,,37.628077,127.0768608
1303,불타는생고기,서울특별시 노원구 공릉로 203,고기 요리,만원-2만원,6,,37.6274646,127.0780454
1304,싹쓰리솥뚜껑김치삼겹살,서울특별시 노원구 동일로 1020,고기 요리,만원-2만원,6,,37.62114450000001,127.0747999
1305,돈통마늘보쌈,서울특별시 노원구 상계로7길 13,고기 요리,만원-2만원,2,,37.6572971,127.0650354
1306,장미삼계탕,서울특별시 노원구 화랑로 449-10,탕 / 찌개 / 전골,만원-2만원,1,,37.6187878,127.0772634
1307,삼덕식당,서울특별시 노원구 상계로5길 9,고기 요리,만원-2만원,2,,37.6569542,127.0638327
1308,안동찜닭 노원닭한마리,서울특별시 노원구 노해로79길 6-20,닭 / 오리 요리,만원-2만원,1,,37.6552824,127.0625277
1309,한티옥,서울특별시 노원구 동일로 1414 9F,탕 / 찌개 / 전골,만원-2만원,1,,37.6552101,127.0611517
1310,쟁반집8292,서울특별시 노원구 노해로81길 12-41,고기 요리,만원-2만원,1,,37.655781,127.0641648
1311,호치킨,서울특별시 노원구 상계로3길 29,닭 / 오리 요리,만원-2만원,2,,37.6575156,127.0623614
1312,원할머니보쌈족발,서울특별시 노원구 한글비석로 264 그랜드프라자,고기 요리,만원-2만원,1,,37.6508596,127.0770963
1313,다마식당,서울특별시 노원구 상계로5길 31,고기 요리,만원-2만원,3,,37.6567871,127.0629826
1314,우정낙지,서울특별시 노원구 동일로217가길 23,해산물 요리,만원-2만원,1,,37.6532418,127.0590584
1315,최대포소금구이,서울특별시 노원구 석계로7길 14,고기 요리,만원-2만원,1,,37.6163157,127.0635745
1316,쉐프의 그릴,서울특별시 노원구 동일로198길 78,고기 요리,만원-2만원,1,,37.6296244,127.0757461
1317,주가네서서갈비,서울특별시 노원구 노해로85길 22,고기 요리,만원-2만원,2,,37.6563599,127.065131
1318,청담미역,서울특별시 노원구 동일로217가길 17,한정식 / 백반 / 정통 한식,만원-2만원,1,,37.6532759,127.059373
1319,맛디아닭강정,서울특별시 노원구 화랑로 621 ,닭 / 오리 요리,만원-2만원,1,,37.6292222,127.0905514
1320,맛찬들왕소금구이,서울특별시 노원구 상계로 102,고기 요리,만원-2만원,2,,37.6566861,127.0661492
1321,신닭발닭날개,서울특별시 노원구 상계로3길 38-4,닭 / 오리 요리,만원-2만원,1,,37.6577282,127.0628087
1322,미가솥뚜껑삼겹살,서울특별시 노원구 동일로242길 2,고기 요리,만원-2만원,2,,37.6749848,127.0577785
1323,양철갈비,서울특별시 노원구 상계로 318,고기 요리,만원-2만원,2,,37.6702869,127.0805765
1324,원명품생태,서울특별시 노원구 노해로75길 14-27 태성빌딩 1F,해산물 요리,만원-2만원,2,,37.6547634,127.0589168
1325,반룡산,서울특별시 노원구 동일로 1414 롯데백화점노원점 B1,국수 / 면 요리,만원-2만원,2,,37.6552207,127.0612826
1326,풍년상회,서울특별시 노원구 노원로 468 1F 103호,고기 요리,만원-2만원,1,,37.6580631,127.0659529
1327,교촌치킨,서울특별시 노원구 한글비석로 245  두타빌B동 1F,닭 / 오리 요리,만원-2만원,1,,37.649542,127.0763583
1328,히딩크의추억,서울특별시 노원구 동일로 1048  1F,고기 요리,만원-2만원,1,,37.6236218,127.0739184
1329,족발야시장,서울특별시 노원구 한글비석로22길 40,고기 요리,만원-2만원,1,,37.6611441,127.0742379
1330,만남곱창,서울특별시 노원구 광운로12길 5,고기 요리,만원-2만원,2,,37.6211835,127.0594343
1331,소담촌,서울특별시 노원구 상계로 90 마블러스1 2F,탕 / 찌개 / 전골,만원-2만원,2,,37.6587754,127.0684857
1332,남자서른,서울특별시 노원구 공릉로37길 23,퓨전 한식,만원-2만원,4,,37.6233679,127.0780824
