,가게이름,가게 주소,음식 종류,가격 범위,리뷰개수,평점,lat,lng
1,김북순큰남비집,서울특별시 강남구 압구정로2길 15 신사아이빌 1F,한정식 / 백반 / 정통 한식,만원 미만,25,4.0,37.5206993,127.019975
2,두부공작소,서울특별시 강남구 강남대로160길 21,한정식 / 백반 / 정통 한식,만원 미만,16,3.8,37.5197664,127.020477
3,딸부자네불백,서울특별시 강남구 강남대로158길 21,고기 요리,만원 미만,15,3.8,37.5192314,127.0205123
4,빌라드스파이시,서울특별시 강남구 도산대로13길 14-3,기타 한식,만원 미만,38,3.6,37.5190268,127.0235489
5,목포집,서울특별시 강남구 강남대로152길 13,닭 / 오리 요리,만원 미만,11,3.6,37.5173418,127.0204895
6,스쿨푸드,서울특별시 강남구 도산대로 139,기타 한식,만원 미만,11,3.5,37.5182127,127.0237111
7,송옥,서울특별시 강남구 강남대로154길 43 2F,국수 / 면 요리,만원 미만,11,3.1,37.5186252,127.0223845
8,시골밥상,서울특별시 강남구 논현로175길 68,한정식 / 백반 / 정통 한식,만원 미만,9,,37.5240393,127.0234316
9,만복국수집,서울특별시 강남구 압구정로2길 60 1F,국수 / 면 요리,만원 미만,2,,37.5179117,127.0213044
10,삼백집,서울특별시 강남구 도산대로17길 6,탕 / 찌개 / 전골,만원 미만,5,,37.5191088,127.0250739
11,밀떡팩토리,서울특별시 강남구 도산대로11길 21,기타 한식,만원 미만,4,,37.5188018,127.0221559
12,소공동뚝배기집,서울특별시 강남구 도산대로25길 47,기타 한식,만원 미만,3,,37.5225061,127.0256598
13,딸부자네불백,서울특별시 강남구 압구정로10길 37,한정식 / 백반 / 정통 한식,만원 미만,2,,37.5211054,127.0222243
14,한분식,서울특별시 강남구 도산대로13길 14-4 102호,기타 한식,만원 미만,1,,37.5188361,127.0235899
15,원두막,서울특별시 강남구 강남대로152길 67,한정식 / 백반 / 정통 한식,만원 미만,2,,37.5189645,127.0245102
16,탄야,서울특별시 강남구 강남대로152길 42,고기 요리,만원 미만,1,,37.5179623,127.0227427
17,원조옛날순대전문점,서울특별시 강남구 압구정로2길 49,탕 / 찌개 / 전골,만원 미만,1,,37.5186441,127.0211863
18,우리식당,서울특별시 강남구 논현로175길 101,한정식 / 백반 / 정통 한식,만원 미만,1,,37.5226481,127.021152
19,강승월한식당,서울특별시 강남구 논현로175길 61 2F,한정식 / 백반 / 정통 한식,만원 미만,2,,37.52411379999999,127.0240596
20,함흥당,서울특별시 강남구 도산대로27길 36 1F,국수 / 면 요리,만원 미만,2,,37.5221765,127.0276473
21,산골,서울특별시 강남구 강남대로158길 13,한정식 / 백반 / 정통 한식,만원 미만,1,,37.5190306,127.0199844
22,김밥천국,서울특별시 강남구 압구정로2길 58,기타 한식,만원 미만,1,,37.5181323,127.0211839
23,우리김밥,서울특별시 강남구 압구정로18길 14,기타 한식,만원 미만,1,,37.5239142,127.0245396
24,창화당,서울특별시 강남구 도산대로1길 16,한정식 / 백반 / 정통 한식,만원 미만,3,,37.5176409,127.0200523
25,복자네,서울특별시 강남구 도산대로1길 62,탕 / 찌개 / 전골,만원 미만,2,,37.5207424,127.0194099
26,전주맛자랑,서울특별시 강남구 논현로151길 26,한정식 / 백반 / 정통 한식,만원 미만,1,,37.5198828,127.0260571
27,담소소사골순대육개장,서울특별시 강남구 압구정로2길 46,탕 / 찌개 / 전골,만원 미만,1,,37.518739,127.0206714
28,오토김밥,서울특별시 강남구 압구정로 108  110호,기타 한식,만원 미만,1,,37.5228498,127.0205872
29,고래감자탕,서울특별시 강남구 압구정로2길 46 17-18호,한정식 / 백반 / 정통 한식,만원 미만,2,,37.518739,127.0206714
30,장원식당,서울특별시 강남구 강남대로152길 67,한정식 / 백반 / 정통 한식,만원 미만,1,,37.5189645,127.0245102
31,돈불리제담,서울특별시 강남구 압구정로2길 46 강남상가 1F,고기 요리,만원-2만원,16,4.5,37.518739,127.0206714
32,목포집,서울특별시 강남구 강남대로152길 24,탕 / 찌개 / 전골,만원-2만원,114,4.2,37.5174493,127.0213987
33,신사모소리,서울특별시 강남구 도산대로1길 24,고기 요리,만원-2만원,17,4.1,37.5182242,127.0199825
34,샤블리,서울특별시 강남구 강남대로152길 35 2F,탕 / 찌개 / 전골,만원-2만원,15,3.9,37.5180487,127.0221861
35,닭한마리감자탕,서울특별시 강남구 강남대로152길 14 1F,닭 / 오리 요리,만원-2만원,29,3.8,37.5171118,127.0206859
36,달래해장,서울특별시 강남구 압구정로2길 46 강남시장 1F,탕 / 찌개 / 전골,만원-2만원,10,3.8,37.518739,127.0206714
37,청자매운소돼지갈비찜,서울특별시 강남구 강남대로158길 10,고기 요리,만원-2만원,14,3.8,37.51864070000001,127.0197881
38,양철지붕,서울특별시 강남구 도산대로17길 4,기타 한식,만원-2만원,13,3.5,37.5189515,127.0251235
39,신사소곱창,서울특별시 강남구 압구정로2길 62,고기 요리,만원-2만원,50,3.4,37.5177352,127.0214289
40,원조신사양곱창,서울특별시 강남구 압구정로2길 46 강남상가아파트,고기 요리,만원-2만원,9,3.4,37.5188471,127.0206571
41,대한곱창,서울특별시 강남구 강남대로152길 33,고기 요리,만원-2만원,5,3.3,37.5179815,127.022006
42,홍미닭발,서울특별시 강남구 도산대로1길 6 1F,닭 / 오리 요리,만원-2만원,21,3.1,37.5170398,127.0203633
43,꼬끄더그릴,서울특별시 강남구 강남대로154길 10,닭 / 오리 요리,만원-2만원,17,,37.5174867,127.0201437
44,해남집,서울특별시 강남구 강남대로160길 16,해산물 요리,만원-2만원,8,,37.5192844,127.0201632
45,일도씨곱창,서울특별시 강남구 도산대로17길 8,고기 요리,만원-2만원,9,,37.5192281,127.0250022
46,사람사는 고깃집 김일도,서울특별시 강남구 압구정로2길 46 강남상가 주상복합 1F 10-11호,고기 요리,만원-2만원,7,,37.518739,127.0206714
47,하남돼지집,서울특별시 강남구 강남대로152길 55 태영빌딩 1F,고기 요리,만원-2만원,2,,37.5186526,127.0236331
48,자주식당,서울특별시 강남구 강남대로156길 17,한정식 / 백반 / 정통 한식,만원-2만원,11,,37.5183683,127.0205179
49,동인동,서울특별시 강남구 강남대로156길 16 삼화불교대학 1F,고기 요리,만원-2만원,6,,37.518097,127.0205223
50,신사동가자,서울특별시 강남구 압구정로10길 30-5,고기 요리,만원-2만원,4,,37.5217915,127.0216214
51,스구식탁,서울특별시 강남구 도산대로11길 28,탕 / 찌개 / 전골,만원-2만원,2,,37.5193063,127.0225815
52,젠틀밥,서울특별시 강남구 논현로153길 59 다온빌딩,퓨전 한식,만원-2만원,3,,37.519958,127.0234814
53,오징어청춘,서울특별시 강남구 압구정로2길 62,해산물 요리,만원-2만원,4,,37.5177352,127.0214289
54,세광양대창,서울특별시 강남구 도산대로1길 24,고기 요리,만원-2만원,3,,37.5182242,127.0199825
55,낭만옵빠,서울특별시 강남구 강남대로156길 13,기타 한식,만원-2만원,3,,37.5181964,127.0202226
56,삼삼이네,서울특별시 강남구 도산대로11길 15 1F,고기 요리,만원-2만원,6,,37.5183656,127.0223641
57,교대이층집,서울특별시 강남구 강남대로152길 17 1-2F,고기 요리,만원-2만원,4,,37.5174605,127.0207933
58,열봉찜닭,서울특별시 강남구 도산대로15길 8 2F,닭 / 오리 요리,만원-2만원,4,,37.5188195,127.0240799
59,고반식당,서울특별시 강남구 강남대로156길 34,고기 요리,만원-2만원,5,,37.5186655,127.0219134
60,인사동촌,서울특별시 강남구 강남대로152길 29,한정식 / 백반 / 정통 한식,만원-2만원,3,,37.5179121,127.0216845
61,삼화식당 1972,서울특별시 강남구 강남대로152길 15,고기 요리,만원-2만원,1,,37.5173989,127.0206403
62,네모오징어,서울특별시 강남구 도산대로13길 19 2F,해산물 요리,만원-2만원,3,,37.5191501,127.022984
63,배제현의웰빙낙지한마리수제비,서울특별시 강남구 강남대로152길 21,해산물 요리,만원-2만원,3,,37.5176141,127.0210583
64,순수치킨,서울특별시 강남구 강남대로156길 31-9 2F,닭 / 오리 요리,만원-2만원,3,,37.5190352,127.0214006
65,봉추찜닭,서울특별시 강남구 도산대로13길 14-4,닭 / 오리 요리,만원-2만원,3,,37.5188361,127.0235899
66,골뱅이신사,서울특별시 강남구 강남대로156길 32,해산물 요리,만원-2만원,2,,37.5186152,127.0218246
67,우가네매찌닭,서울특별시 강남구 강남대로152길 44,고기 요리,만원-2만원,4,,37.5180165,127.0228641
68,순정족발,서울특별시 강남구 강남대로154길 25 1F,고기 요리,만원-2만원,2,,37.51808339999999,127.0210454
69,깐부치킨,서울특별시 강남구 압구정로14길 12,닭 / 오리 요리,만원-2만원,3,,37.5234764,127.0230339
70,달식당,서울특별시 강남구 논현로175길 101,한정식 / 백반 / 정통 한식,만원-2만원,1,,37.5226481,127.021152
71,청량리통골뱅이,서울특별시 강남구 강남대로156길 32,해산물 요리,만원-2만원,3,,37.5186152,127.0218246
72,이담,서울특별시 강남구 도산대로17길 6 2F,고기 요리,만원-2만원,1,,37.5191088,127.0250739
73,김치찜 신사,서울특별시 강남구 강남대로152길 23 B1,한정식 / 백반 / 정통 한식,만원-2만원,1,,37.5176433,127.021214
74,효도치킨,서울특별시 강남구 도산대로15길 9  1F,닭 / 오리 요리,만원-2만원,1,,37.5188412,127.0237697
75,치킨뱅이,서울특별시 강남구 도산대로11길 4,닭 / 오리 요리,만원-2만원,1,,37.5178538,127.0225902
76,신사만장어,서울특별시 강남구 도산대로1길 10,해산물 요리,만원-2만원,1,,37.5198194,127.0196893
77,원조마포소금구이,서울특별시 강남구 압구정로 110 ,고기 요리,만원-2만원,1,,37.5229557,127.0208697
78,본죽,서울특별시 강남구 도산대로11길 5 2F,기타 한식,만원-2만원,1,,37.5178115,127.0222661
79,88선수촌,서울특별시 강남구 압구정로10길 30-5 1F,고기 요리,만원-2만원,1,,37.5217915,127.0216214
80,문어집,서울특별시 강남구 강남대로152길 67 1F,해산물 요리,만원-2만원,1,,37.5189645,127.0245102
81,장흥집,서울특별시 강남구 압구정로2길 46  17-18호,고기 요리,만원-2만원,1,,37.518739,127.0206714
82,유쾌한접시,서울특별시 강남구 도산대로1길 16,고기 요리,만원-2만원,1,,37.5176409,127.0200523
83,신사돈,서울특별시 강남구 도산대로11길 21,고기 요리,만원-2만원,1,,37.5188018,127.0221559
84,효계,서울특별시 강남구 도산대로15길 15 1F,닭 / 오리 요리,2만원-3만원,10,4.4,37.51915990000001,127.0237361
85,오라방,서울특별시 강남구 도산대로17길 39,한정식 / 백반 / 정통 한식,2만원-3만원,10,4.3,37.52106,127.0237125
86,신사전,서울특별시 강남구 도산대로11길 18,한정식 / 백반 / 정통 한식,2만원-3만원,14,4.3,37.5185926,127.0226869
87,크라운돼지,서울특별시 강남구 강남대로156길 17-1,고기 요리,2만원-3만원,24,4.0,37.5184795,127.0204588
88,유쾌한접시,서울특별시 강남구 강남대로152길 70 1F,고기 요리,2만원-3만원,7,3.9,37.5189246,127.0248105
89,한남동그집,서울특별시 강남구 논현로175길 64 2F,퓨전 한식,2만원-3만원,7,3.9,37.5242131,127.0237517
90,우림황소양곱창,서울특별시 강남구 강남대로156길 28,고기 요리,2만원-3만원,7,3.7,37.5185317,127.0214275
91,경성팔일삼,서울특별시 강남구 도산대로11길 5,고기 요리,2만원-3만원,10,3.4,37.5178115,127.0222661
92,마산옥,서울특별시 강남구 강남대로152길 9,해산물 요리,2만원-3만원,15,3.3,37.517226,127.0202251
93,할머니현대낙지아구감자탕,서울특별시 강남구 압구정로14길 11,해산물 요리,2만원-3만원,10,,37.5235656,127.0233597
94,바다를훔친언니,서울특별시 강남구 강남대로154길 12 ,해산물 요리,2만원-3만원,3,,37.5175291,127.0203739
95,구르메,서울특별시 강남구 도산대로1길 24,해산물 요리,2만원-3만원,3,,37.5182242,127.0199825
96,바우식당,서울특별시 강남구 강남대로160길 16,해산물 요리,2만원-3만원,1,,37.5192844,127.0201632
97,통돼지찌개집,서울특별시 강남구 압구정로2길 60,고기 요리,2만원-3만원,3,,37.5179117,127.0213044
98,주육,서울특별시 강남구 압구정로14길 6  2F,고기 요리,2만원-3만원,2,,37.5238011,127.0229539
99,삼바리,서울특별시 강남구 압구정로2길 46,해산물 요리,2만원-3만원,3,,37.518739,127.0206714
100,영동소곱창,서울특별시 강남구 강남대로152길 23 1F 102호,고기 요리,2만원-3만원,4,,37.5176433,127.021214
101,조개신화,서울특별시 강남구 논현로175길 68,해산물 요리,2만원-3만원,1,,37.5240393,127.0234316
102,오늘잡은안동갈비,서울특별시 강남구 도산대로25길 47,고기 요리,2만원-3만원,1,,37.5225061,127.0256598
103,마시니까청춘이다,서울특별시 강남구 도산대로1길 12,해산물 요리,2만원-3만원,1,,37.5173679,127.0201622
104,신비갈비살,서울특별시 강남구 강남대로158길 15 1F,고기 요리,3만원-4만원,26,4.6,37.5190821,127.0201081
105,양식당더램키친,서울특별시 강남구 압구정로8길 5,고기 요리,3만원-4만원,35,4.3,37.5229876,127.0213388
106,산호,서울특별시 강남구 논현로175길 111,퓨전 한식,4만원 이상,10,4.0,37.5222931,127.0203885
107,문어집,서울특별시 강남구 압구정로2길 57 1F,해산물 요리,3만원-4만원,11,3.7,37.5182236,127.0214316
108,설로인,서울특별시 강남구 논현로 805,고기 요리,4만원 이상,3,,37.520597,127.0276598
109,오마카세육,서울특별시 강남구 강남대로 628  3F,고기 요리,4만원 이상,2,,37.517832,127.0194141
110,영동소금구이,서울특별시 강남구 강남대로156길 15,고기 요리,3만원-4만원,1,,37.5182791,127.0204127
111,소양탐정,서울특별시 강남구 도산대로15길 11 B1,고기 요리,3만원-4만원,1,,37.5190215,127.0237719
112,하루,서울특별시 강남구 언주로172길 56 서현빌딩,정통 일식 / 일반 일식,만원 미만,46,4.0,37.5267373,127.038285
113,신사랑,서울특별시 강남구 압구정로2길 35 1F,돈부리 / 일본 카레 / 벤토,만원 미만,6,4.0,37.5195285,127.0205842
114,지구당,서울특별시 강남구 압구정로14길 32,돈부리 / 일본 카레 / 벤토,만원 미만,58,3.5,37.5222206,127.0232811
115,사가라멘,서울특별시 강남구 강남대로154길 43,라멘 / 소바 / 우동,만원 미만,13,3.3,37.5186252,127.0223845
116,아비꼬,서울특별시 강남구 압구정로10길 37,돈부리 / 일본 카레 / 벤토,만원 미만,6,,37.5211054,127.0222243
117,몽글몽글,서울특별시 강남구 강남대로160길 50,돈부리 / 일본 카레 / 벤토,만원 미만,7,,37.5204156,127.0226043
118,열심식당,서울특별시 강남구 강남대로156길 8 1F,기타 일식,만원 미만,3,,37.51799889999999,127.019758
119,하하,서울특별시 강남구 논현로151길 24,라멘 / 소바 / 우동,만원 미만,2,,37.5199402,127.0261321
120,소노키라멘,서울특별시 강남구 논현로151길 29,라멘 / 소바 / 우동,만원 미만,1,,37.519605,127.0256953
121,이불덮밥,서울특별시 강남구 도산대로15길 8 102호,돈부리 / 일본 카레 / 벤토,만원 미만,1,,37.5188195,127.0240799
122,상진식감,서울특별시 강남구 도산대로11길 31-10 B1,까스 요리,만원-2만원,9,4.7,37.5192776,127.0216271
123,오사카카레콘유,서울특별시 강남구 강남대로160길 49 1F,돈부리 / 일본 카레 / 벤토,만원-2만원,25,4.3,37.520621,127.0225949
124,핫쵸,서울특별시 강남구 도산대로15길 32-10 B1,정통 일식 / 일반 일식,만원-2만원,17,4.2,37.520898,127.0235144
125,미미면가,서울특별시 강남구 강남대로160길 29,라멘 / 소바 / 우동,만원-2만원,230,4.1,37.5200355,127.0210889
126,우니도,서울특별시 강남구 압구정로2길 15 1F,돈부리 / 일본 카레 / 벤토,만원-2만원,10,4.0,37.5206993,127.019975
127,유노추보스시,서울특별시 강남구 압구정로10길 36,정통 일식 / 일반 일식,만원-2만원,48,3.9,37.5212119,127.0219242
128,은행골,서울특별시 강남구 도산대로12길 7,회 / 스시,만원-2만원,58,3.9,37.5171437,127.0236628
129,덴푸라키이로,서울특별시 강남구 논현로153길 51 102호,돈부리 / 일본 카레 / 벤토,만원-2만원,7,3.9,37.5202678,127.0241221
130,하나비카레,서울특별시 강남구 강남대로156길 22 1F,돈부리 / 일본 카레 / 벤토,만원-2만원,6,3.9,37.5182347,127.0209269
131,연남토마,서울특별시 강남구 도산대로15길 32-10,돈부리 / 일본 카레 / 벤토,만원-2만원,6,3.9,37.520898,127.0235144
132,모던오뎅,서울특별시 강남구 도산대로17길 10,이자카야 / 오뎅 / 꼬치,만원-2만원,24,3.8,37.5193417,127.024908
133,다이칸야마키친,서울특별시 강남구 압구정로10길 30-3 1F,퓨전 일식,만원-2만원,50,3.8,37.5216858,127.021702
134,와라쿠,서울특별시 강남구 압구정로4길 13-7,기타 일식,만원-2만원,22,3.7,37.5220939,127.0207068
135,우와,서울특별시 강남구 강남대로158길 17 1F,철판 요리,만원-2만원,18,3.7,37.5191471,127.0202317
136,신사연어,서울특별시 강남구 압구정로2길 60,회 / 스시,만원-2만원,29,3.5,37.5179117,127.0213044
137,갓덴스시,서울특별시 강남구 강남대로152길 40 1F,회 / 스시,만원-2만원,28,3.5,37.5179479,127.0225234
138,이끼롤까스,서울특별시 강남구 강남대로156길 35,까스 요리,만원-2만원,16,3.5,37.5189208,127.0218388
139,코다차야,서울특별시 강남구 압구정로14길 6,이자카야 / 오뎅 / 꼬치,만원-2만원,16,3.4,37.5238011,127.0229539
140,온기정,서울특별시 강남구 압구정로4길 13-9,돈부리 / 일본 카레 / 벤토,만원-2만원,18,3.1,37.5221565,127.0208655
141,그릴밥상,서울특별시 강남구 강남대로162길 41-20,정통 일식 / 일반 일식,만원-2만원,6,,37.5218832,127.0211564
142,아오이포켓,서울특별시 강남구 강남대로156길 40,기타 일식,만원-2만원,9,,37.5188454,127.0223137
143,마키진,서울특별시 강남구 강남대로156길 8 1F,돈부리 / 일본 카레 / 벤토,만원-2만원,10,,37.51799889999999,127.019758
144,경양카츠,서울특별시 강남구 강남대로160길 19 1F,까스 요리,만원-2만원,4,,37.5195879,127.020252
145,Lu307,서울특별시 강남구 압구정로10길 30-7 1F,이자카야 / 오뎅 / 꼬치,만원-2만원,1,,37.5218855,127.0215421
146,청담정스시,서울특별시 강남구 강남대로156길 36,회 / 스시,만원-2만원,4,,37.5187045,127.0220509
147,탐츠,서울특별시 강남구 강남대로154길 21 B1,까스 요리,만원-2만원,2,,37.5179761,127.020816
148,을지다락,서울특별시 강남구 압구정로10길 29 신성빌딩 2F,퓨전 일식,만원-2만원,1,,37.5216795,127.0221308
149,카즈랩,서울특별시 강남구 강남대로162길 41-15 B1,까스 요리,만원-2만원,3,,37.5216801,127.0210063
150,사케당,서울특별시 강남구 도산대로1길 78,이자카야 / 오뎅 / 꼬치,만원-2만원,2,,37.5216098,127.0198115
151,경양가츠,서울특별시 강남구 강남대로160길 19,까스 요리,만원-2만원,1,,37.5195879,127.020252
152,와라야키 쿠이신보,서울특별시 강남구 도산대로15길 6 대화빌딩,이자카야 / 오뎅 / 꼬치,2만원-3만원,98,4.6,37.5185754,127.0240888
153,야사이마끼 쿠이신보,서울특별시 강남구 강남대로152길 62,이자카야 / 오뎅 / 꼬치,2만원-3만원,15,4.5,37.5186497,127.0242496
154,정돈 프리미엄,서울특별시 강남구 강남대로160길 28,까스 요리,2만원-3만원,183,4.4,37.5197151,127.0210286
155,네기다이닝라운지,서울특별시 강남구 도산대로15길 18 4F,정통 일식 / 일반 일식,2만원-3만원,20,4.3,37.5194529,127.0239687
156,켄카,서울특별시 강남구 강남대로152길 63,이자카야 / 오뎅 / 꼬치,2만원-3만원,7,4.2,37.5188864,127.0242238
157,야키토리 요이사,서울특별시 강남구 논현로175길 101,이자카야 / 오뎅 / 꼬치,2만원-3만원,12,4.1,37.5226481,127.021152
158,코이에,서울특별시 강남구 논현로153길 43 B1,정통 일식 / 일반 일식,2만원-3만원,20,4.1,37.5203338,127.024696
159,진도켄이자카야,서울특별시 강남구 도산대로15길 9 B1,이자카야 / 오뎅 / 꼬치,2만원-3만원,6,4.1,37.5188412,127.0237697
160,콘유,서울특별시 강남구 도산대로11길 31-7,이자카야 / 오뎅 / 꼬치,2만원-3만원,5,3.4,37.5191535,127.0218708
161,가로수길 소소,서울특별시 강남구 강남대로154길 41,이자카야 / 오뎅 / 꼬치,2만원-3만원,8,3.2,37.5186206,127.0222601
162,사케츠바사,서울특별시 강남구 논현로157길 55 1F 102호,정통 일식 / 일반 일식,2만원-3만원,6,,37.5207534,127.0242199
163,스시사키,서울특별시 강남구 강남대로154길 21,회 / 스시,2만원-3만원,2,,37.5179761,127.020816
164,사이,서울특별시 강남구 압구정로2길 35 고황빌딩 1F,이자카야 / 오뎅 / 꼬치,2만원-3만원,5,,37.5195285,127.0205842
165,야키니쿠 규,서울특별시 강남구 강남대로 640,기타 일식,2만원-3만원,2,,37.51887809999999,127.0192986
166,보물선,서울특별시 강남구 강남대로152길 20,회 / 스시,2만원-3만원,8,,37.5173449,127.0210811
167,혼528,서울특별시 강남구 압구정로 108,기타 일식,2만원-3만원,2,,37.5228498,127.0205872
168,교텐,서울특별시 강남구 강남대로160길 23,이자카야 / 오뎅 / 꼬치,2만원-3만원,3,,37.5198433,127.0206219
169,변두리비스트로,서울특별시 강남구 도산대로1길 36,이자카야 / 오뎅 / 꼬치,2만원-3만원,2,,37.5190821,127.0196658
170,골드참치,서울특별시 강남구 압구정로10길 11 2F,회 / 스시,2만원-3만원,2,,37.522791,127.0219772
171,용이네술집,서울특별시 강남구 강남대로156길 8,이자카야 / 오뎅 / 꼬치,2만원-3만원,2,,37.51799889999999,127.019758
172,야키니쿠 킨세이,서울특별시 강남구 논현로151길 55 1F,정통 일식 / 일반 일식,2만원-3만원,1,,37.5194638,127.0236552
173,기세끼,서울특별시 강남구 강남대로152길 42 B1,이자카야 / 오뎅 / 꼬치,2만원-3만원,2,,37.5179623,127.0227427
174,이자카야화분,서울특별시 강남구 강남대로156길 31-3 B1,이자카야 / 오뎅 / 꼬치,2만원-3만원,1,,37.5188945,127.0214963
175,오호리준,서울특별시 강남구 강남대로158길 10,이자카야 / 오뎅 / 꼬치,2만원-3만원,3,,37.51864070000001,127.0197881
176,화담,서울특별시 강남구 도산대로25길 29,이자카야 / 오뎅 / 꼬치,2만원-3만원,1,,37.5214837,127.026465
177,신사베베,서울특별시 강남구 강남대로158길 10,이자카야 / 오뎅 / 꼬치,2만원-3만원,1,,37.51864070000001,127.0197881
178,미라이,서울특별시 강남구 논현로153길 24 끌레르빌 1F,이자카야 / 오뎅 / 꼬치,3만원-4만원,108,4.8,37.5210505,127.0261584
179,청우참치,서울특별시 강남구 강남대로 632,회 / 스시,4만원 이상,15,4.5,37.5182046,127.019356
180,야키토리묵,서울특별시 강남구 강남대로152길 23 B1,이자카야 / 오뎅 / 꼬치,3만원-4만원,9,4.4,37.5176433,127.021214
181,무아,서울특별시 강남구 논현로151길 33 2F,퓨전 일식,4만원 이상,6,4.3,37.51965680000001,127.0255329
182,스시오마주,서울특별시 강남구 강남대로152길 67 B1 102호,회 / 스시,4만원 이상,13,4.2,37.5189645,127.0245102
183,스시츠바사,서울특별시 강남구 강남대로156길 31-4 1F,회 / 스시,4만원 이상,15,3.8,37.5189822,127.0217486
184,쿠시토쿡,서울특별시 강남구 도산대로15길 32-8,정통 일식 / 일반 일식,4만원 이상,14,3.8,37.5208107,127.0237429
185,스킬렛,서울특별시 강남구 논현로161길 57,기타 일식,3만원-4만원,16,3.7,37.5222042,127.0236976
186,오레노 유메,서울특별시 강남구 압구정로2길 59,이자카야 / 오뎅 / 꼬치,4만원 이상,6,3.4,37.5180814,127.0215579
187,두사라,서울특별시 강남구 강남대로154길 13,정통 일식 / 일반 일식,4만원 이상,10,,37.5177619,127.0202985
188,료하나,서울특별시 강남구 압구정로12길 34-4,이자카야 / 오뎅 / 꼬치,3만원-4만원,3,,37.5216658,127.0224421
189,스시킨,서울특별시 강남구 선릉로161길 6,회 / 스시,4만원 이상,4,,37.5271222,127.0398629
190,우오하나,서울특별시 강남구 압구정로2길 29,이자카야 / 오뎅 / 꼬치,3만원-4만원,3,,37.5198705,127.0204293
191,히바치,서울특별시 강남구 강남대로152길 67 2F,회 / 스시,3만원-4만원,5,,37.5189645,127.0245102
192,이소젠네타,서울특별시 강남구 도산대로1길 10 고황빌딩 2F,회 / 스시,4만원 이상,1,,37.51734709999999,127.0201335
193,히게야,서울특별시 강남구 논현로175길 113,이자카야 / 오뎅 / 꼬치,3만원-4만원,4,,37.5221828,127.020235
194,완소,서울특별시 강남구 강남대로152길 68 세명빌딩,이자카야 / 오뎅 / 꼬치,3만원-4만원,1,,37.5188396,127.0246566
195,하나참치,서울특별시 강남구 강남대로152길 30 3F,회 / 스시,3만원-4만원,1,,37.5176186,127.0218241
196,달맞이,서울특별시 강남구 강남대로154길 21,회 / 스시,3만원-4만원,1,,37.5179761,127.020816
197,삼창교자,서울특별시 강남구 강남대로156길 33,딤섬 / 만두,만원 미만,97,4.5,37.5188793,127.021733
198,쮸즈,서울특별시 강남구 도산대로17길 13,딤섬 / 만두,만원 미만,301,4.2,37.5194634,127.0245919
199,송쉐프,서울특별시 강남구 도산대로1길 40,정통 중식 / 일반 중식,만원 미만,112,4.1,37.5192978,127.0196053
200,대가방,서울특별시 강남구 논현로175길 64,정통 중식 / 일반 중식,만원 미만,44,4.0,37.5242131,127.0237517
201,천미미,서울특별시 강남구 강남대로152길 11,정통 중식 / 일반 중식,만원 미만,17,3.8,37.5173682,127.020307
202,식당바이쮸즈,서울특별시 강남구 도산대로17길 9 B1,기타 중식,만원 미만,3,,37.5192243,127.0246618
203,희래등,서울특별시 강남구 도산대로1길 72,정통 중식 / 일반 중식,만원 미만,2,,37.5212689,127.0196677
204,홍콩반점0410,서울특별시 강남구 강남대로152길 43,정통 중식 / 일반 중식,만원 미만,2,,37.51827280000001,127.0228099
205,북경반점,서울특별시 강남구 강남대로152길 14,정통 중식 / 일반 중식,만원 미만,3,,37.5171118,127.0206859
206,Sogak,서울특별시 강남구 강남대로160길 17 1F,정통 중식 / 일반 중식,만원-2만원,22,4.3,37.519572,127.0200757
207,딩딤1968,서울특별시 강남구 강남대로160길 27,딤섬 / 만두,만원-2만원,80,4.0,37.5199521,127.0209271
208,라공방,서울특별시 강남구 도산대로11길 29,기타 중식,만원-2만원,14,3.7,37.519276,127.0221972
209,제메이양꼬치,서울특별시 강남구 강남대로152길 64,기타 중식,만원-2만원,4,,37.5187108,127.0244467
210,빠슈마라카오위,서울특별시 강남구 도산대로11길 15 201호,기타 중식,만원-2만원,3,,37.5183656,127.0223641
211,신사완쯔,서울특별시 강남구 강남대로154길 11 애경빌딩,퓨전 중식,만원-2만원,1,,37.5177031,127.020168
212,샤오당쟈마라탕,서울특별시 강남구 강남대로152길 30 2F,기타 중식,만원-2만원,5,,37.5176186,127.0218241
213,징관청훠궈,서울특별시 강남구 강남대로156길 35,정통 중식 / 일반 중식,만원-2만원,5,,37.5189208,127.0218388
214,콰이,서울특별시 강남구 강남대로162길 41-20,정통 중식 / 일반 중식,만원-2만원,1,,37.5218832,127.0211564
215,샤오싱푸,서울특별시 강남구 도산대로17길 33 2F,기타 중식,만원-2만원,1,,37.5207969,127.023932
216,레인보우테이블,서울특별시 강남구 도산대로17길 39,기타 중식,만원-2만원,1,,37.52106,127.0237125
217,신룽푸마라탕,서울특별시 강남구 도산대로15길 9,기타 중식,만원-2만원,1,,37.5188412,127.0237697
218,소성공자샤브샤브,서울특별시 강남구 강남대로152길 23,기타 중식,만원-2만원,1,,37.5176433,127.021214
219,채운,서울특별시 강남구 논현로175길 107,정통 중식 / 일반 중식,2만원-3만원,15,3.6,37.5223883,127.0207866
220,신사양꼬치,서울특별시 강남구 강남대로152길 33 2F,기타 중식,2만원-3만원,16,3.5,37.5179815,127.022006
221,라무진,서울특별시 강남구 논현로175길 59-4 의봉빌딩,기타 중식,2만원-3만원,6,,37.5240296,127.0241082
222,성하루,서울특별시 강남구 압구정로4길 13-17 2F,정통 중식 / 일반 중식,2만원-3만원,3,,37.5224836,127.0214178
223,웍,서울특별시 강남구 강남대로162길 43,정통 중식 / 일반 중식,2만원-3만원,3,,37.52104509999999,127.0217997
224,브루클린더버거조인트,서울특별시 강남구 도산대로15길 12 가로수빌딩,브런치 / 버거 / 샌드위치,만원 미만,226,4.0,37.5190355,127.0240567
225,스폰티니,서울특별시 강남구 가로수길 83,기타 양식,만원 미만,4,3.8,37.524609,127.022951
226,어게인리프레쉬,서울특별시 강남구 논현로153길 57 2F,기타 양식,만원 미만,17,3.6,37.5200103,127.0236017
227,에이커스,서울특별시 강남구 도산대로17길 30,기타 양식,만원 미만,12,3.4,37.5206621,127.0243025
228,피자익스프레스,서울특별시 강남구 압구정로10길 28 B1,기타 양식,만원 미만,12,3.1,37.5217163,127.0219029
229,포케올데이,서울특별시 강남구 도산대로17길 11,기타 양식,만원 미만,4,,37.5193707,127.0245954
230,롤링파스타,서울특별시 강남구 도산대로13길 16 2F,기타 양식,만원 미만,4,,37.5189774,127.0233448
231,스파게티스토리,서울특별시 강남구 압구정로18길 12,기타 양식,만원 미만,1,,37.5240297,127.0244589
232,알리파스타,서울특별시 강남구 논현로151길 29,기타 양식,만원 미만,2,,37.519605,127.0256953
233,맥도날드,서울특별시 강남구 도산대로 123 2F,브런치 / 버거 / 샌드위치,만원 미만,3,,37.5174146,127.021881
234,40days,서울특별시 강남구 강남대로158길 16,브런치 / 버거 / 샌드위치,만원 미만,3,,37.5188205,127.0201783
235,패티앤베지스,서울특별시 강남구 압구정로4길 11 1F,브런치 / 버거 / 샌드위치,만원-2만원,71,4.6,37.5220128,127.0202779
236,매덕스피자,서울특별시 강남구 도산대로15길 11 1F,기타 양식,만원-2만원,68,4.5,37.5190215,127.0237719
237,길버트버거앤프라이즈,서울특별시 강남구 도산대로15길 47 B1,브런치 / 버거 / 샌드위치,만원-2만원,171,4.3,37.521227,127.023199
238,오리지널팬케이크하우스,서울특별시 강남구 강남대로162길 41 동원빌딩 1F,브런치 / 버거 / 샌드위치,만원-2만원,153,4.3,37.5209749,127.0215913
239,지아니스나폴리,서울특별시 강남구 도산대로15길 15 2F,이탈리안,만원-2만원,113,4.3,37.51915990000001,127.0237361
240,오르비에토,서울특별시 강남구 도산대로19길 20,이탈리안,만원-2만원,29,4.3,37.519971,127.0252788
241,부자피자,서울특별시 강남구 압구정로10길 35-2,기타 양식,만원-2만원,82,4.2,37.5211201,127.0223678
242,온다,서울특별시 강남구 강남대로156길 39 1-2F,이탈리안,만원-2만원,5,4.2,37.5189948,127.0220776
243,세컨디포레스트,서울특별시 강남구 강남대로162길 32,이탈리안,만원-2만원,8,4.1,37.520435,127.0211357
244,세인트그릴,서울특별시 강남구 논현로175길 63,브런치 / 버거 / 샌드위치,만원-2만원,28,4.0,37.5239654,127.0238737
245,몽리비스트로,서울특별시 강남구 도산대로13길 14-3,이탈리안,만원-2만원,22,3.9,37.5190268,127.0235489
246,마치래빗,서울특별시 강남구 논현로153길 45,기타 양식,만원-2만원,34,3.7,37.5202792,127.0245202
247,이비티,서울특별시 강남구 논현로157길 55,이탈리안,만원-2만원,14,3.7,37.5207534,127.0242199
248,사루비아,서울특별시 강남구 논현로153길 57 1F,이탈리안,만원-2만원,13,3.7,37.5200103,127.0236017
249,더블트러블유니온,서울특별시 강남구 압구정로4길 27-2,브런치 / 버거 / 샌드위치,만원-2만원,13,3.7,37.5216286,127.0208825
250,메리고라운드,서울특별시 강남구 논현로175길 69,이탈리안,만원-2만원,29,3.5,37.5237934,127.0234438
251,어썸로즈,서울특별시 강남구 압구정로10길 40 B2,이탈리안,만원-2만원,16,3.5,37.5208909,127.0220008
252,르포트13,서울특별시 강남구 압구정로4길 13-13,브런치 / 버거 / 샌드위치,만원-2만원,8,3.5,37.5223298,127.02112
253,미드타운,서울특별시 강남구 도산대로11길 40 ,브런치 / 버거 / 샌드위치,만원-2만원,5,3.5,37.5200323,127.022451
254,카페에이블,서울특별시 강남구 압구정로14길 12,브런치 / 버거 / 샌드위치,만원-2만원,42,3.4,37.5234764,127.0230339
255,빠레뜨한남,서울특별시 강남구 논현로153길 61 2F,퓨전 양식,만원-2만원,17,2.8,37.5199298,127.0233505
256,파운드 (휴업중),서울특별시 강남구 강남대로162길 27-16 1F,퓨전 양식,만원-2만원,3,,37.52115250000001,127.0213854
257,필라델피아,서울특별시 강남구 가로수길 57-6  102호,스테이크 / 바베큐,만원-2만원,2,,37.524609,127.022951
258,일피아또,서울특별시 강남구 도산대로23길 7,이탈리안,만원-2만원,5,,37.5196043,127.0259385
259,어퍼웨스트,서울특별시 강남구 도산대로15길 25 1F,이탈리안,만원-2만원,5,,37.5197985,127.023592
260,홈즈,서울특별시 강남구 도산대로 135 3-4F,기타 양식,만원-2만원,1,,37.5179495,127.0231535
261,에드엣,서울특별시 강남구 압구정로10길 30-9 B1,브런치 / 버거 / 샌드위치,만원-2만원,4,,37.5220121,127.021493
262,핀치브런치바,서울특별시 강남구 압구정로4길 19,브런치 / 버거 / 샌드위치,만원-2만원,2,,37.521462,127.0205702
263,37.5시그니처,서울특별시 강남구 가로수길 31-3,브런치 / 버거 / 샌드위치,만원-2만원,1,,37.524609,127.022951
264,퍼블릭하우스,서울특별시 강남구 도산대로11길 22 3F,이탈리안,만원-2만원,5,,37.5188383,127.0226543
265,브레이브루스터스,서울특별시 강남구 강남대로156길 40 2F,브런치 / 버거 / 샌드위치,만원-2만원,2,,37.5188454,127.0223137
266,투헌드레드,서울특별시 강남구 강남대로158길 46,브런치 / 버거 / 샌드위치,만원-2만원,2,,37.5198245,127.0221618
267,바프플레이버스,서울특별시 강남구 강남대로158길 26 1F,퓨전 양식,만원-2만원,1,,37.5191456,127.0209116
268,에이넷,서울특별시 강남구 논현로159길 46-6 1F,퓨전 양식,만원-2만원,1,,37.5223952,127.0244497
269,올데이피자,서울특별시 강남구 도산대로23길 17,기타 양식,만원-2만원,1,,37.5201043,127.0259309
270,SOOT (휴업중),서울특별시 강남구 도산대로23길 7,퓨전 양식,2만원-3만원,60,4.4,37.5196043,127.0259385
271,피자네버슬립스,서울특별시 강남구 도산대로19길 50 2F,이탈리안,2만원-3만원,15,3.7,37.521748,127.024199
272,까사밀,서울특별시 강남구 도산대로1길 83,브런치 / 버거 / 샌드위치,2만원-3만원,5,3.4,37.5221501,127.0195533
273,테이블스타,서울특별시 강남구 논현로153길 62 1F,이탈리안,2만원-3만원,20,3.3,37.5200895,127.0232602
274,자매의부엌 어스,서울특별시 강남구 강남대로160길 49 상원빌딩 2F,이탈리안,2만원-3만원,11,,37.520621,127.0225949
275,마히나 비건 테이블,서울특별시 강남구 논현로175길 75 2F,기타 양식,2만원-3만원,6,,37.5236197,127.0230298
276,0000 seoul,서울특별시 강남구 도산대로1길 36 103호,프랑스 음식,2만원-3만원,7,,37.5190821,127.0196658
277,신사의바램,서울특별시 강남구 강남대로156길 16 1F,스테이크 / 바베큐,2만원-3만원,2,,37.5180718,127.0205161
278,양미가옥,서울특별시 강남구 도산대로11길 21,스테이크 / 바베큐,2만원-3만원,5,,37.5188018,127.0221559
279,에스토,서울특별시 강남구 압구정로10길 30-9 2F,퓨전 양식,2만원-3만원,1,,37.5220121,127.021493
280,비스트로하이드,서울특별시 강남구 논현로159길 47 2F,프랑스 음식,2만원-3만원,1,,37.521898,127.0244742
281,램브라튼,서울특별시 강남구 압구정로10길 30-10 1F,스테이크 / 바베큐,4만원 이상,36,4.2,37.52208,127.0216459
282,구스테이크 528,서울특별시 강남구 압구정로 108 덕산빌딩,스테이크 / 바베큐,4만원 이상,16,4.0,37.5228465,127.02055
283,피그닉,서울특별시 강남구 압구정로2길 46 강남상가아파트,스테이크 / 바베큐,3만원-4만원,10,3.8,37.5188471,127.0206571
284,마마논마마,서울특별시 강남구 논현로175길 101-3,이탈리안,3만원-4만원,8,,37.5225281,127.0212452
285,타코앤칠리,서울특별시 강남구 압구정로2길 28 1F,남미 음식,만원 미만,4,,37.5197896,127.0201226
286,마이하노이,서울특별시 강남구 압구정로10길 37,베트남 음식,만원 미만,6,,37.5211054,127.0222243
287,미분당,서울특별시 강남구 도산대로1길 18 1F,베트남 음식,만원 미만,3,,37.5178248,127.0200691
288,인딕 슬로우,서울특별시 강남구 압구정로4길 13 1F,인도 음식,만원-2만원,70,4.7,37.5218699,127.0203205
289,콴안다오,서울특별시 강남구 강남대로156길 28-2 1F,베트남 음식,만원-2만원,185,4.6,37.5184448,127.0214852
290,칙피스,서울특별시 강남구 강남대로152길 69,세계음식 기타,만원-2만원,50,4.5,37.5190769,127.0247078
291,신사치킨클럽,서울특별시 강남구 강남대로162길 40 1F,다국적 아시아 음식,만원-2만원,14,4.3,37.52071189999999,127.0219296
292,엘피노323,서울특별시 강남구 강남대로 652 신사스퀘어 205호,남미 음식,만원-2만원,32,4.1,37.519958,127.0189929
293,감성타코앤그릴,서울특별시 강남구 강남대로162길 31,남미 음식,만원-2만원,89,4.0,37.5206556,127.0209009
294,스몰디쉬빅쇼,서울특별시 강남구 강남대로162길 41-20 1F,다국적 아시아 음식,만원-2만원,25,4.0,37.5218832,127.0211564
295,마담타이,서울특별시 강남구 논현로151길 55,태국 음식,만원-2만원,10,4.0,37.5194638,127.0236552
296,마사타코,서울특별시 강남구 압구정로10길 30-8 1F,남미 음식,만원-2만원,53,3.8,37.5219591,127.0217278
297,꿍탈레,서울특별시 강남구 압구정로10길 14,태국 음식,만원-2만원,11,3.8,37.5227493,127.0217254
298,트라가,서울특별시 강남구 압구정로2길 18,세계음식 기타,만원-2만원,12,3.4,37.5204579,127.0196569
299,에머이,서울특별시 강남구 도산대로15길 8 1F,베트남 음식,만원-2만원,40,3.3,37.5188195,127.0240799
300,프레즈드로이,서울특별시 강남구 강남대로156길 41,다국적 퓨전,만원-2만원,6,3.3,37.519092,127.0221748
301,헥사곤,서울특별시 강남구 도산대로11길 15,남미 음식,만원-2만원,7,,37.5183656,127.0223641
302,북스테이지,서울특별시 강남구 압구정로 102 라까사호텔 동관 F9,다국적 퓨전,만원-2만원,2,,37.5223367,127.0196719
303,리틀인디아,서울특별시 강남구 압구정로10길 43 이로이벧,인도 음식,만원-2만원,5,,37.5207511,127.022316
304,감성아시아,서울특별시 강남구 도산대로13길 26 2F,다국적 아시아 음식,만원-2만원,9,,37.519591,127.0232407
305,감성타코,서울특별시 강남구 가로수길 26 3F,남미 음식,만원-2만원,3,,37.524609,127.022951
306,띠아우타이,서울특별시 강남구 도산대로13길 14-4,태국 음식,만원-2만원,1,,37.5188361,127.0235899
307,아이뽀유,서울특별시 강남구 도산대로 153,베트남 음식,2만원-3만원,25,4.3,37.51883420000001,127.0252121
308,스페인클럽,서울특별시 강남구 압구정로10길 26 1F,세계음식 기타,2만원-3만원,32,3.4,37.5218537,127.0218468
309,이안,서울특별시 강남구 논현로175길 101-3 3F,세계음식 기타,4만원 이상,1,,37.5225281,127.0212452
310,고메육가,서울특별시 강남구 언주로172길 56 2F,뷔페,3만원-4만원,1,,37.5267373,127.038285
311,새들러하우스,서울특별시 강남구 도산대로17길 10 B1,카페 / 디저트,만원 미만,104,4.4,37.5193417,127.024908
312,쇼토,서울특별시 강남구 압구정로18길 14-6 1F,베이커리,만원 미만,30,4.4,37.5238085,127.0242966
313,테일러커피,서울특별시 강남구 강남대로160길 31 1F,카페 / 디저트,만원 미만,10,4.3,37.5201201,127.0211953
314,컨플릭트 스토어,서울특별시 강남구 논현로159길 46-5,카페 / 디저트,만원 미만,5,4.3,37.5223137,127.0243003
315,비파티세리,서울특별시 강남구 압구정로14길 36,베이커리,만원 미만,106,4.2,37.5219689,127.023247
316,마일스톤커피,서울특별시 강남구 논현로159길 49,카페 / 디저트,만원 미만,69,4.2,37.5218057,127.0243227
317,우유니아이스크림,서울특별시 강남구 압구정로8길 5 1F,카페 / 디저트,만원 미만,146,4.1,37.5229876,127.0213388
318,에뚜왈,서울특별시 강남구 압구정로10길 35 B1,베이커리,만원 미만,142,4.1,37.5212755,127.0222051
319,마카롱쿠튀르,서울특별시 강남구 논현로175길 109,카페 / 디저트,만원 미만,28,4.1,37.5222786,127.0205958
320,카카오빈,서울특별시 강남구 도산대로17길 43 1F,카페 / 디저트,만원 미만,19,4.1,37.5212328,127.02357
321,청수당갤러리,서울특별시 강남구 도산대로15길 32-4 1F,카페 / 디저트,만원 미만,40,4.0,37.5205992,127.0238803
322,노이에아트멍,서울특별시 강남구 도산대로23길 19,카페 / 디저트,만원 미만,23,4.0,37.5202186,127.0259147
323,이치서울,서울특별시 강남구 강남대로158길 21 2F,카페 / 디저트,만원 미만,21,4.0,37.5192314,127.0205123
324,이웃집통통이,서울특별시 강남구 논현로157길 29 101호,카페 / 디저트,만원 미만,7,4.0,37.5218987,127.0258634
325,레이브릭스,서울특별시 강남구 논현로153길 46,카페 / 디저트,만원 미만,79,3.9,37.5204794,127.024426
326,샌드커피논탄토,서울특별시 강남구 도산대로17길 35,카페 / 디저트,만원 미만,45,3.9,37.5208649,127.0238723
327,그레이 그리스트밀,서울특별시 강남구 압구정로2길 15,카페 / 디저트,만원 미만,29,3.9,37.5206993,127.019975
328,당옥,서울특별시 강남구 강남대로162길 22,카페 / 디저트,만원 미만,22,3.9,37.520066,127.0204278
329,나따오비까,서울특별시 강남구 압구정로2길 37 1F,카페 / 디저트,만원 미만,37,3.9,37.519349,127.0206691
330,웻커피,서울특별시 강남구 강남대로162길 18 1F,카페 / 디저트,만원 미만,21,3.9,37.519888,127.0200399
331,벤스쿠키,서울특별시 강남구 도산대로11길 33 1F,카페 / 디저트,만원 미만,22,3.9,37.5196015,127.0222168
332,랜디스도넛,서울특별시 강남구 도산대로15길 16,카페 / 디저트,만원 미만,17,3.9,37.5193161,127.0239954
333,빵어니스타,서울특별시 강남구 도산대로25길 43 1F,카페 / 디저트,만원 미만,13,3.9,37.5222902,127.0258154
334,오르랔베이커리,서울특별시 강남구 압구정로14길 39,베이커리,만원 미만,5,3.9,37.521779,127.0235934
335,오버더카운터,서울특별시 강남구 도산대로15길 9,카페 / 디저트,만원 미만,8,3.9,37.5188412,127.0237697
336,올데이사운드바,서울특별시 강남구 도산대로11길 34 1F,카페 / 디저트,만원 미만,4,3.9,37.51969589999999,127.0225244
337,르알래스카,서울특별시 강남구 압구정로14길 15,베이커리,만원 미만,51,3.8,37.5233446,127.0233264
338,카페그라쎄,서울특별시 강남구 도산대로17길 19,카페 / 디저트,만원 미만,21,3.8,37.5198285,127.0243914
339,이코복스커피,서울특별시 강남구 압구정로10길 37,카페 / 디저트,만원 미만,28,3.8,37.5211054,127.0222243
340,윌비,서울특별시 강남구 강남대로158길 26 M스페이스빌딩 1F 101호,카페 / 디저트,만원 미만,10,3.8,37.5191456,127.0209116
341,immute,서울특별시 강남구 논현로157길 36 1F,카페 / 디저트,만원 미만,10,3.8,37.5219502,127.0251161
342,듀자미,서울특별시 강남구 도산대로11길 28,카페 / 디저트,만원 미만,88,3.7,37.5193063,127.0225815
343,더앨리,서울특별시 강남구 압구정로12길 16,카페 / 디저트,만원 미만,73,3.7,37.5228819,127.0224036
344,하이 헤이 헬로우,서울특별시 강남구 도산대로15길 18,카페 / 디저트,만원 미만,27,3.7,37.5194529,127.0239687
345,식물학,서울특별시 강남구 강남대로154길 33 1F,카페 / 디저트,만원 미만,31,3.6,37.5183829,127.0216263
346,마망갸또,서울특별시 강남구 압구정로10길 30-12 마먕가또하우스,카페 / 디저트,만원 미만,41,3.6,37.5222286,127.0215263
347,아트씨,서울특별시 강남구 압구정로12길 34-5,카페 / 디저트,만원 미만,20,3.6,37.5214242,127.0223106
348,플라워베이커리,서울특별시 강남구 압구정로2길 45,베이커리,만원 미만,15,3.6,37.5188822,127.0210994
349,마치마치,서울특별시 강남구 도산대로11길 25,카페 / 디저트,만원 미만,11,3.6,37.5191057,127.0222979
350,C27,서울특별시 강남구 도산대로15길 39,카페 / 디저트,만원 미만,15,3.5,37.5206956,127.0232308
351,겟썸커피,서울특별시 강남구 논현로159길 46-6,카페 / 디저트,만원 미만,36,3.5,37.5223952,127.0244497
352,고디바,서울특별시 강남구 압구정로12길 45,카페 / 디저트,만원 미만,29,3.5,37.5209767,127.0230054
353,아러바우트,서울특별시 강남구 도산대로15길 36,카페 / 디저트,만원 미만,11,3.5,37.5206407,127.0235618
354,쿠라우니,서울특별시 강남구 강남대로156길 39 B1,베이커리,만원 미만,9,3.5,37.5189948,127.0220776
355,바오밥나무커피,서울특별시 강남구 도산대로17길 10 2F,카페 / 디저트,만원 미만,8,3.5,37.5193417,127.024908
356,아우어베이커리,서울특별시 강남구 강남대로162길 39,카페 / 디저트,만원 미만,31,3.4,37.5209207,127.0214676
357,카페뮬라,서울특별시 강남구 압구정로4길 13-12,카페 / 디저트,만원 미만,27,3.4,37.521923,127.0212939
358,카페키츠네,서울특별시 강남구 도산대로13길 23,카페 / 디저트,만원 미만,29,3.4,37.5196129,127.0227279
359,르사이트,서울특별시 강남구 도산대로11길 22,카페 / 디저트,만원 미만,14,3.4,37.5188383,127.0226543
360,빈스빈스,서울특별시 강남구 압구정로12길 50 태명빌딩 2F,카페 / 디저트,만원 미만,9,3.4,37.5206467,127.0227563
361,비비드,서울특별시 강남구 도산대로17길 44 104호,카페 / 디저트,만원 미만,6,3.4,37.5214242,127.0238401
362,콘센트커피바,서울특별시 강남구 압구정로2길 53,카페 / 디저트,만원 미만,11,3.3,37.5184597,127.0213278
363,도레도레,서울특별시 강남구 도산대로15길 40,카페 / 디저트,만원 미만,60,3.2,37.5208603,127.0234187
364,소진담,서울특별시 강남구 논현로161길 51,카페 / 디저트,만원 미만,26,3.2,37.5224355,127.0242036
365,피르마,서울특별시 강남구 논현로153길 28 1F,카페 / 디저트,만원 미만,4,3.0,37.52084850000001,127.0258092
366,에딸프,서울특별시 강남구 논현로161길 39 4F,카페 / 디저트,만원 미만,16,,37.5228517,127.0249562
367,트리타,서울특별시 강남구 강남대로162길 41-22 101호,카페 / 디저트,만원 미만,3,,37.5220364,127.0210537
368,카페포엠,서울특별시 강남구 압구정로4길 13-11,카페 / 디저트,만원 미만,6,,37.5222709,127.0209714
369,티이,서울특별시 강남구 강남대로162길 20  1F,카페 / 디저트,만원 미만,1,,37.51996140000001,127.0203059
370,스티머스커피팩토리,서울특별시 강남구 압구정로4길 10,카페 / 디저트,만원 미만,4,,37.5219712,127.0199255
371,나이스웨더,서울특별시 강남구 강남대로162길 39,카페 / 디저트,만원 미만,4,,37.5209207,127.0214676
372,미노스,서울특별시 강남구 압구정로12길 11,카페 / 디저트,만원 미만,9,,37.523188,127.0226926
373,카페드파리,서울특별시 강남구 논현로161길 59 2F,카페 / 디저트,만원 미만,5,,37.5221399,127.0235468
374,Arki Coffee,서울특별시 강남구 압구정로18길 10 1F,카페 / 디저트,만원 미만,4,,37.52414539999999,127.0243828
375,라에스키모,서울특별시 강남구 강남대로158길 42,카페 / 디저트,만원 미만,6,,37.5197467,127.0220124
376,소르비,서울특별시 강남구 압구정로2길 11,카페 / 디저트,만원 미만,2,,37.5208755,127.0197125
377,언더핑크 커피,서울특별시 강남구 도산대로15길 24,카페 / 디저트,만원 미만,4,,37.5198116,127.0238668
378,바잇미,서울특별시 강남구 강남대로156길 39,카페 / 디저트,만원 미만,4,,37.5189948,127.0220776
379,카페앤젤라또,서울특별시 강남구 가로수길 69 하이스트리트이탈리아 1F,카페 / 디저트,만원 미만,1,,37.524609,127.022951
380,카페봉수아,서울특별시 강남구 압구정로14길 42,카페 / 디저트,만원 미만,3,,37.5216025,127.0233875
381,RDBK 가로수,서울특별시 강남구 가로수길 62 3F,카페 / 디저트,만원 미만,3,,37.524609,127.022951
382,아르켓카페,서울특별시 강남구 가로수길 30,카페 / 디저트,만원 미만,3,,37.524609,127.022951
383,카페312,서울특별시 강남구 압구정로2길 57,카페 / 디저트,만원 미만,3,,37.5182236,127.0214316
384,도봉관,서울특별시 강남구 강남대로 628 비율라빌딩,카페 / 디저트,만원 미만,4,,37.517832,127.0194141
385,아카이브25,서울특별시 강남구 압구정로8길 3 1F,카페 / 디저트,만원 미만,1,,37.5230595,127.0212191
386,모드드비,서울특별시 강남구 압구정로2길 46 1F,카페 / 디저트,만원 미만,5,,37.518739,127.0206714
387,에픽,서울특별시 강남구 강남대로156길 13,카페 / 디저트,만원 미만,1,,37.5181964,127.0202226
388,스타벅스,서울특별시 강남구 가로수길 59,카페 / 디저트,만원 미만,2,,37.524609,127.022951
389,크림슨젤라또,서울특별시 강남구 도산대로11길 33 화성빌라,카페 / 디저트,만원 미만,3,,37.5196015,127.0222168
390,텅플래닛 신사,서울특별시 강남구 도산대로11길 31 4F,카페 / 디저트,만원 미만,3,,37.5194895,127.0219626
391,올드페리도넛,서울특별시 강남구 강남대로162길 35  1F,카페 / 디저트,만원 미만,3,,37.5207243,127.0211421
392,스타벅스,서울특별시 강남구 논현로175길 94,카페 / 디저트,만원 미만,2,,37.5231593,127.021625
393,니블스,서울특별시 강남구 논현로161길 57 103호,카페 / 디저트,만원 미만,3,,37.5222042,127.0236976
394,플래시커피,서울특별시 강남구 압구정로8길 20 B1-1F,카페 / 디저트,만원 미만,1,,37.522359,127.0220348
395,핑크멜로우,서울특별시 강남구 강남대로158길 27 1-2F,카페 / 디저트,만원 미만,1,,37.5194552,127.0208725
396,미야갤러리카페,서울특별시 강남구 도산대로11길 25 2F,카페 / 디저트,만원 미만,3,,37.5191057,127.0222979
397,더플랫로스터스,서울특별시 강남구 논현로153길 59,카페 / 디저트,만원 미만,2,,37.519958,127.0234814
398,VVS,서울특별시 강남구 강남대로160길 37 1F,카페 / 디저트,만원 미만,3,,37.5203064,127.0215944
399,크렘크럼블,서울특별시 강남구 도산대로17길 41,카페 / 디저트,만원 미만,1,,37.5211523,127.0236457
400,슈만드젠,서울특별시 강남구 도산대로11길 43,카페 / 디저트,만원 미만,2,,37.5201773,127.0221086
401,빈터커피,서울특별시 강남구 강남대로162길 41-22 101호,카페 / 디저트,만원 미만,5,,37.5220364,127.0210537
402,보나르떼플라워카페,서울특별시 강남구 논현로161길 41,카페 / 디저트,만원 미만,3,,37.5227619,127.0247831
403,미엘드파리,서울특별시 강남구 도산대로15길 6 대화빌딩 3F 301호,카페 / 디저트,만원 미만,3,,37.5185754,127.0240888
404,매머드커피,서울특별시 강남구 논현로159길 34,카페 / 디저트,만원 미만,1,,37.5225996,127.0253102
405,굿투고,서울특별시 강남구 논현로157길 41 101-202호,카페 / 디저트,만원 미만,1,,37.5214235,127.0248458
406,로우앤하이,서울특별시 강남구 논현로157길 55 1F,카페 / 디저트,만원 미만,1,,37.5207534,127.0242199
407,배스킨라빈스,서울특별시 강남구 도산대로11길 15,카페 / 디저트,만원 미만,4,,37.5183656,127.0223641
408,웜브라운 베이커리카페,서울특별시 강남구 논현로159길 41 ,카페 / 디저트,만원 미만,3,,37.5221516,127.0249563
409,유니드마이요거트,서울특별시 강남구 강남대로162길 27-6 ,카페 / 디저트,만원 미만,1,,37.520736,127.0207008
410,D.BETTY,서울특별시 강남구 도산대로11길 31-8 B1,카페 / 디저트,만원 미만,1,,37.5193489,127.0217472
411,퍼플래빗,서울특별시 강남구 압구정로8길 5 B1,카페 / 디저트,만원 미만,2,,37.5229876,127.0213388
412,라르고템포,서울특별시 강남구 도산대로15길 32-10 3F,카페 / 디저트,만원 미만,1,,37.520898,127.0235144
413,라떼킹,서울특별시 강남구 강남대로160길 21,카페 / 디저트,만원 미만,0,,37.5197664,127.020477
414,블루오너,서울특별시 강남구 논현로153길 54 1F,카페 / 디저트,만원 미만,3,,37.520353,127.0238518
415,캔디드샷커피,서울특별시 강남구 논현로161길 39 202호,카페 / 디저트,만원 미만,1,,37.5228517,127.0249562
416,빈스드림,서울특별시 강남구 도산대로1길 36 1F,카페 / 디저트,만원 미만,2,,37.5190821,127.0196658
417,립합,서울특별시 강남구 압구정로4길 14-14 ,카페 / 디저트,만원 미만,2,,37.5210425,127.0197442
418,코지아일랜드,서울특별시 강남구 가로수길 31-5,카페 / 디저트,만원 미만,1,,37.524609,127.022951
419,카페노티드,서울특별시 강남구 압구정로10길 30-1  신사옐로우바켓 B1,카페 / 디저트,만원 미만,1,,37.52159,127.0217745
420,트루라이트,서울특별시 강남구 도산대로17길 22,카페 / 디저트,만원 미만,2,,37.5200068,127.0245995
421,야카모즈로스팅,서울특별시 강남구 논현로151길 32,카페 / 디저트,만원 미만,1,,37.5198135,127.0255206
422,캔플,서울특별시 강남구 도산대로17길 37-1,카페 / 디저트,만원 미만,1,,37.5209107,127.0236296
423,체크플리즈,서울특별시 강남구 강남대로162길 39  1F,카페 / 디저트,만원 미만,1,,37.5209207,127.0214676
424,투썸플레이스,서울특별시 강남구 강남대로152길 22,카페 / 디저트,만원 미만,1,,37.5180262,127.0224203
425,라이크커피,서울특별시 강남구 도산대로15길 11 102호,카페 / 디저트,만원 미만,1,,37.5190215,127.0237719
426,하프커피,서울특별시 강남구 압구정로 110 ,카페 / 디저트,만원 미만,1,,37.5229557,127.0208697
427,카페에이빈,서울특별시 강남구 도산대로17길 44,카페 / 디저트,만원 미만,1,,37.5214242,127.0238401
428,평화다방,서울특별시 강남구 강남대로158길 45,카페 / 디저트,만원 미만,1,,37.5200295,127.0221094
429,그레인바운더리,서울특별시 강남구 도산대로17길 37-1,카페 / 디저트,만원 미만,1,,37.5209107,127.0236296
430,11빌리지팩토리,서울특별시 강남구 압구정로14길 42,카페 / 디저트,만원 미만,1,,37.5216025,127.0233875
431,릴트,서울특별시 강남구 강남대로156길 27 1F,카페 / 디저트,만원 미만,1,,37.5187091,127.0213042
432,아르넬,서울특별시 강남구 압구정로4길 14-10 1F,카페 / 디저트,만원 미만,1,,37.5212238,127.0198731
433,삐아프,서울특별시 강남구 논현로175길 109  1F,카페 / 디저트,만원-2만원,56,4.7,37.5222786,127.0205958
434,소나,서울특별시 강남구 강남대로162길 40 2F 201호,카페 / 디저트,만원-2만원,112,4.2,37.5205699,127.0216509
435,맥파이앤타이거 신사티룸,서울특별시 강남구 논현로153길 44 클레어스서울 2F,카페 / 디저트,만원-2만원,5,4.0,37.5204975,127.0246407
436,르브런쉭,서울특별시 강남구 강남대로162길 41-22 오로라빌,카페 / 디저트,만원-2만원,73,3.8,37.5220364,127.0210537
437,도쿄수플레,서울특별시 강남구 압구정로10길 34-1,카페 / 디저트,만원-2만원,11,2.7,37.5213383,127.0218434
438,라빠뜨,서울특별시 강남구 도산대로19길 49,카페 / 디저트,만원-2만원,4,,37.5216574,127.0240373
439,아카시아,서울특별시 강남구 도산대로13길 31-1,카페 / 디저트,만원-2만원,2,,37.5199235,127.0226899
440,빌라레코드,서울특별시 강남구 도산대로15길 18 B2,카페 / 디저트,2만원-3만원,3,,37.5194529,127.0239687
441,안주집,서울특별시 강남구 도산대로11길 34,일반 주점,만원 미만,5,3.8,37.51969589999999,127.0225244
442,막이오름,서울특별시 강남구 도산대로13길 10 2F,전통 주점 / 포차,만원 미만,10,3.4,37.5185204,127.0234356
443,Glo Bar,서울특별시 강남구 압구정로12길 43,칵테일 / 와인,만원 미만,4,,37.5210803,127.0230063
444,오늘와인한잔,서울특별시 강남구 강남대로156길 40,칵테일 / 와인,만원 미만,6,,37.5188454,127.0223137
445,리커테이션,서울특별시 강남구 압구정로10길 13 마사빌딩 B1,칵테일 / 와인,만원-2만원,12,4.3,37.522596,127.0220385
446,한잔의추억,서울특별시 강남구 논현로175길 68,치킨 / 호프 / 펍,만원-2만원,105,4.1,37.5240393,127.0234316
447,뻐꾸기,서울특별시 강남구 도산대로17길 4,전통 주점 / 포차,만원-2만원,31,4.1,37.5189515,127.0251235
448,무지개포차,서울특별시 강남구 강남대로 628  2F,전통 주점 / 포차,만원-2만원,5,4.1,37.517832,127.0194141
449,로프트,서울특별시 강남구 강남대로152길 62 2F,칵테일 / 와인,만원-2만원,41,4.0,37.5186497,127.0242496
450,하이볼가든,서울특별시 강남구 논현로161길 39,치킨 / 호프 / 펍,만원-2만원,27,3.9,37.5228517,127.0249562
451,온달집,서울특별시 강남구 강남대로152길 28,전통 주점 / 포차,만원-2만원,21,3.7,37.5175681,127.0217037
452,가로수브루잉컴퍼니,서울특별시 강남구 도산대로11길 31-4,치킨 / 호프 / 펍,만원-2만원,37,3.6,37.5194895,127.0219626
453,미켈러바서울,서울특별시 강남구 도산대로17길 33,치킨 / 호프 / 펍,만원-2만원,39,3.4,37.5207969,127.023932
454,컬렉션라운지,서울특별시 강남구 압구정로10길 33,칵테일 / 와인,만원-2만원,29,3.4,37.5214267,127.0221794
455,해밥상달주막,서울특별시 강남구 압구정로2길 46,전통 주점 / 포차,만원-2만원,11,3.3,37.518739,127.0206714
456,고향역,서울특별시 강남구 강남대로152길 34 1F,전통 주점 / 포차,만원-2만원,8,,37.5177227,127.0220931
457,레드클라우드,서울특별시 강남구 압구정로10길 30-11,치킨 / 호프 / 펍,만원-2만원,9,,37.5221562,127.0213802
458,일곱잔,서울특별시 강남구 도산대로11길 5 2F 202호,칵테일 / 와인,만원-2만원,4,,37.5178115,127.0222661
459,데노체,서울특별시 강남구 압구정로2길 46 1F,칵테일 / 와인,만원-2만원,5,,37.518739,127.0206714
460,So What,서울특별시 강남구 도산대로17길 22,칵테일 / 와인,만원-2만원,2,,37.5200068,127.0245995
461,고성,서울특별시 강남구 도산대로17길 8,일반 주점,만원-2만원,2,,37.5192281,127.0250022
462,김작가의이중생활,서울특별시 강남구 강남대로152길 21,일반 주점,만원-2만원,8,,37.5176141,127.0210583
463,퀸실내포차,서울특별시 강남구 강남대로158길 12,전통 주점 / 포차,만원-2만원,5,,37.5187111,127.0199184
464,매니아스트리트,서울특별시 강남구 압구정로2길 57 1F,칵테일 / 와인,만원-2만원,2,,37.5182236,127.0214316
465,태공치킨,서울특별시 강남구 압구정로2길 59,일반 주점,만원-2만원,1,,37.5180814,127.0215579
466,금별맥주,서울특별시 강남구 압구정로2길 49 1F,일반 주점,만원-2만원,3,,37.5186441,127.0211863
467,영국포차,서울특별시 강남구 논현로159길 65 B1,일반 주점,만원-2만원,3,,37.5213807,127.0231483
468,룰라톤,서울특별시 강남구 압구정로4길 13-9,칵테일 / 와인,만원-2만원,2,,37.5221565,127.0208655
469,호야,서울특별시 강남구 압구정로2길 46,전통 주점 / 포차,만원-2만원,1,,37.518739,127.0206714
470,후문,서울특별시 강남구 강남대로162길 21,일반 주점,만원-2만원,2,,37.5201873,127.0201706
471,김봉남포장마차,서울특별시 강남구 도산대로17길 12,전통 주점 / 포차,만원-2만원,1,,37.5194755,127.0248497
472,유어네이키드치즈,서울특별시 강남구 압구정로10길 35-1 4F,칵테일 / 와인,만원-2만원,2,,37.52129559999999,127.0223451
473,크레이지놈,서울특별시 강남구 강남대로156길 46 B1,칵테일 / 와인,만원-2만원,1,,37.5189658,127.0225984
474,FOUR LOUNGE,서울특별시 강남구 압구정로4길 13-11,칵테일 / 와인,만원-2만원,1,,37.5222709,127.0209714
475,하이드어웨이,서울특별시 강남구 도산대로17길 4 1F,칵테일 / 와인,만원-2만원,1,,37.5189515,127.0251235
476,획,서울특별시 강남구 강남대로156길 31,칵테일 / 와인,2만원-3만원,6,4.3,37.5187663,127.0215738
477,복싱타이거,서울특별시 강남구 강남대로156길 13 B1,칵테일 / 와인,2만원-3만원,17,4.1,37.5181964,127.0202226
478,심퍼티쿠시,서울특별시 강남구 강남대로154길 16 1F 101호,칵테일 / 와인,2만원-3만원,13,4.1,37.51757569999999,127.0205532
479,바챕터원,서울특별시 강남구 논현로175길 101,칵테일 / 와인,2만원-3만원,23,4.0,37.5226481,127.021152
480,개미집,서울특별시 강남구 압구정로 110,전통 주점 / 포차,2만원-3만원,33,3.1,37.5229557,127.0208697
481,서울러,서울특별시 강남구 강남대로152길 69 B1,칵테일 / 와인,2만원-3만원,2,,37.5190769,127.0247078
482,헬로우,서울특별시 강남구 논현로151길 55 호경빌딩 B1,칵테일 / 와인,2만원-3만원,10,,37.5194638,127.0236552
483,오월의가로수,서울특별시 강남구 도산대로15길 34,전통 주점 / 포차,2만원-3만원,7,,37.5205208,127.0236607
484,하우스오브알케미,서울특별시 강남구 압구정로 102 라까사호텔,칵테일 / 와인,2만원-3만원,5,,37.5223367,127.0196719
485,레 부르주아,서울특별시 강남구 강남대로152길 46 2F,칵테일 / 와인,2만원-3만원,2,,37.5181354,127.0229678
486,보바베어,서울특별시 강남구 압구정로12길 13 2F,칵테일 / 와인,2만원-3만원,5,,37.5230363,127.0227636
487,유희,서울특별시 강남구 도산대로11길 31-8  B1,칵테일 / 와인,2만원-3만원,3,,37.5193489,127.0217472
488,포자카야가로수,서울특별시 강남구 강남대로154길 43 상전빌딩,전통 주점 / 포차,2만원-3만원,3,,37.5186252,127.0223845
489,프레젠티,서울특별시 강남구 도산대로11길 31-7,칵테일 / 와인,2만원-3만원,3,,37.5191535,127.0218708
490,문빔,서울특별시 강남구 압구정로2길 35,칵테일 / 와인,2만원-3만원,1,,37.5195285,127.0205842
491,버틀러,서울특별시 강남구 논현로151길 41 상운빌딩 102호,칵테일 / 와인,2만원-3만원,3,,37.4924339,127.0402156
492,취향의공간,서울특별시 강남구 도산대로1길 16 1F,일반 주점,2만원-3만원,1,,37.5176409,127.0200523
493,휘공,서울특별시 강남구 강남대로158길 26  1F,일반 주점,2만원-3만원,2,,37.5191456,127.0209116
494,퍼시픽 스탠다드,서울특별시 강남구 압구정로4길 27-6 B1,칵테일 / 와인,2만원-3만원,1,,37.5217422,127.0207872
495,샤블리스바,서울특별시 강남구 강남대로152길 31,칵테일 / 와인,2만원-3만원,2,,37.5179036,127.021852
496,러스티블루,서울특별시 강남구 압구정로10길 13 203호,칵테일 / 와인,2만원-3만원,1,,37.522596,127.0220385
497,신사몽,서울특별시 강남구 강남대로160길 49  2F,일반 주점,2만원-3만원,1,,37.520621,127.0225949
498,서리달,서울특별시 강남구 도산대로1길 36 1F,일반 주점,2만원-3만원,1,,37.5190821,127.0196658
499,신사숙녀,서울특별시 강남구 강남대로152길 13 1F,전통 주점 / 포차,2만원-3만원,1,,37.5173418,127.0204895
500,탐라포차,서울특별시 강남구 압구정로2길 62 1F,일반 주점,2만원-3만원,1,,37.5177352,127.0214289
501,봄의정원,서울특별시 강남구 압구정로2길 58 B1,칵테일 / 와인,2만원-3만원,1,,37.5181323,127.0211839
502,춘식당,서울특별시 강남구 도산대로23길 17 1F,전통 주점 / 포차,3만원-4만원,12,3.9,37.5201043,127.0259309
503,페타테,서울특별시 강남구 압구정로14길 32 2F,칵테일 / 와인,3만원-4만원,8,,37.5222206,127.0232811
504,뮤즈온,서울특별시 강남구 도산대로15길 32,일반 주점,3만원-4만원,4,,37.5202935,127.0237406
505,노퍼블릭 하우스,서울특별시 강남구 논현로159길 65 3F,칵테일 / 와인,3만원-4만원,3,,37.5213807,127.0231483
506,TASS,서울특별시 강남구 도산대로1길 78 B1,칵테일 / 와인,4만원 이상,1,,37.5216098,127.0198115
507,프레임 다이닝바,서울특별시 강남구 도산대로11길 32 2F,칵테일 / 와인,3만원-4만원,1,,37.5195674,127.0225566
