,가게이름,가게 주소,음식 종류,가격 범위,리뷰개수,평점,lat,lng
1,예삐네집,서울특별시 강남구 학동로4길 31,탕 / 찌개 / 전골,만원 미만,4,4.3,37.5094313,127.0238368
2,한성칼국수,서울특별시 강남구 언주로 735 관세개발원빌딩,국수 / 면 요리,만원 미만,34,4.0,37.52078180000001,127.0337693
3,롤리폴리 꼬또,서울특별시 강남구 봉은사로51길 19,퓨전 한식,만원 미만,9,4.0,37.5112342,127.0423219
4,육개옥,서울특별시 강남구 봉은사로 167 ,탕 / 찌개 / 전골,만원 미만,8,3.9,37.5072082,127.0322447
5,신사면옥,서울특별시 강남구 도산대로46길 11,국수 / 면 요리,만원 미만,8,3.9,37.521248,127.0366212
6,논현손칼국수,서울특별시 강남구 논현로111길 16,국수 / 면 요리,만원 미만,18,3.7,37.5075674,127.032205
7,봉평본가메밀촌,서울특별시 강남구 선릉로129길 23,국수 / 면 요리,만원 미만,14,3.7,37.515777,127.0396281
8,압구정변강쇠떡볶이,서울특별시 강남구 도산대로46길 21 B1,기타 한식,만원 미만,40,3.6,37.5206817,127.037115
9,손국시,서울특별시 강남구 도산대로 310,국수 / 면 요리,만원 미만,15,3.6,37.5214918,127.0354608
10,이모가있는집,서울특별시 강남구 언주로134길 31,탕 / 찌개 / 전골,만원 미만,16,3.4,37.5171698,127.0380458
11,가나기사식당,서울특별시 강남구 언주로 608,기타 한식,만원 미만,15,3.4,37.5098824,127.037748
12,맛짱떡볶이,서울특별시 강남구 강남대로122길 17,기타 한식,만원 미만,11,3.4,37.5082107,127.0244216
13,개성집,서울특별시 강남구 봉은사로1길 6,고기 요리,만원 미만,3,3.2,37.5052205,127.0252342
14,동대문엽기떡볶이,서울특별시 강남구 선릉로131길 8 1F,기타 한식,만원 미만,5,2.9,37.5179438,127.0402667
15,육일점by한옥집김치찜,서울특별시 강남구 언주로148길 6 우미빌딩 1F,한정식 / 백반 / 정통 한식,만원 미만,9,,37.5201804,127.0351319
16,다모아,서울특별시 강남구 논현로150길 41,기타 한식,만원 미만,6,,37.5201173,127.0318879
17,막뚱이치킨,서울특별시 강남구 학동로4길 41 1F,닭 / 오리 요리,만원 미만,5,,37.50876,127.0241702
18,디히랑,서울특별시 강남구 언주로121길 4-3,탕 / 찌개 / 전골,만원 미만,2,,37.5118354,127.0350455
19,두성전주콩나물국밥,서울특별시 강남구 선릉로131길 12  1F,탕 / 찌개 / 전골,만원 미만,2,,37.5175614,127.0395155
20,더수제비,서울특별시 강남구 논현로132길 29,국수 / 면 요리,만원 미만,6,,37.5155154,127.0327369
21,푸드2900,서울특별시 강남구 도산대로50길 16,기타 한식,만원 미만,4,,37.5213335,127.0373781
22,한남동24시뼈다귀감자탕,서울특별시 강남구 언주로134길 35 2F,탕 / 찌개 / 전골,만원 미만,1,,37.5172356,127.038381
23,남다른감자탕,서울특별시 강남구 논현로 750 선주빌딩 1F,탕 / 찌개 / 전골,만원 미만,4,,37.5187933,127.0287749
24,춘하추동밀면,서울특별시 강남구 언주로148길 14 나동 109호,국수 / 면 요리,만원 미만,6,,37.5202946,127.0359457
25,서울왕돈까스,서울특별시 강남구 언주로125길 5,기타 한식,만원 미만,4,,37.5128881,127.0347435
26,맹그르브고기집,서울특별시 강남구 학동로2길 43,고기 요리,만원 미만,2,,37.5087265,127.0234954
27,남다른감자탕,서울특별시 강남구 선릉로145길 21,탕 / 찌개 / 전골,만원 미만,3,,37.5210496,127.0378082
28,강남옛날돈까스즉석떡볶이,서울특별시 강남구 학동로 223 대영빌딩 2F,기타 한식,만원 미만,1,,37.5143253,127.0329808
29,나비식탁,서울특별시 강남구 언주로114길 23,한정식 / 백반 / 정통 한식,만원 미만,5,,37.510395,127.0393996
30,이태리부대찌개,서울특별시 강남구 논현로149길 73,탕 / 찌개 / 전골,만원 미만,5,,37.5164402,127.0228202
31,민주식당,서울특별시 강남구 강남대로128길 6 1F,고기 요리,만원 미만,2,,37.5096928,127.0227781
32,전주콩뿌리콩나물국밥,서울특별시 강남구 언주로134길 25 1F 1호,탕 / 찌개 / 전골,만원 미만,2,,37.5170008,127.0376543
33,탕탕집,서울특별시 강남구 학동로4길 12,탕 / 찌개 / 전골,만원 미만,5,,37.5106058,127.0230173
34,복성맛집,서울특별시 강남구 학동로4길 29,한정식 / 백반 / 정통 한식,만원 미만,2,,37.5097043,127.023736
35,명인만두,서울특별시 강남구 선릉로 705,기타 한식,만원 미만,3,,37.51791619999999,127.0407455
36,박실장떡볶이,서울특별시 강남구 학동로30길 13 이담빌딩 1F,기타 한식,만원 미만,3,,37.513318,127.0322212
37,수제돈까스,서울특별시 강남구 선릉로111길 10,기타 한식,만원 미만,4,,37.5107747,127.0425472
38,송탄부대찌개,서울특별시 강남구 도산대로 166,탕 / 찌개 / 전골,만원 미만,2,,37.5186427,127.0267927
39,닭장수후라이드,서울특별시 강남구 선릉로 717,닭 / 오리 요리,만원 미만,2,,37.5186512,127.0404872
40,부자떡볶이,서울특별시 강남구 언주로136길 27 1F,기타 한식,만원 미만,8,,37.5176437,127.0377094
41,고흥집,서울특별시 강남구 학동로4길 28 영동시장,탕 / 찌개 / 전골,만원 미만,2,,37.5095916,127.023509
42,무미유미김밥,서울특별시 강남구 선릉로119길 13,기타 한식,만원 미만,2,,37.5132654,127.0414679
43,짱군떡볶이,서울특별시 강남구 강남대로116길 8 노랑통닭앞 포장마차,기타 한식,만원 미만,1,,37.5060616,127.024738
44,BBQ,서울특별시 강남구 언주로136길 10,닭 / 오리 요리,만원 미만,1,,37.5171236,127.0363553
45,한교방 서울면옥,서울특별시 강남구 학동로45길 8,국수 / 면 요리,만원 미만,3,,37.5167961,127.0380778
46,이태리부대찌개,서울특별시 강남구 봉은사로49길 6 1F,탕 / 찌개 / 전골,만원 미만,4,,37.5103174,127.0422646
47,미월당,서울특별시 강남구 강남대로124길 12,기타 한식,만원 미만,1,,37.5088364,127.0236025
48,손국시,서울특별시 강남구 학동로2길 19,국수 / 면 요리,만원 미만,2,,37.51002039999999,127.0229469
49,황금식당,서울특별시 강남구 강남대로136길 5-4,한정식 / 백반 / 정통 한식,만원 미만,1,,37.5133047,127.0213159
50,삼계향,서울특별시 강남구 언주로146길 3,한정식 / 백반 / 정통 한식,만원 미만,1,,37.5198413,127.0350465
51,무아국수,서울특별시 강남구 학동로 338 강남파라곤 B114호,국수 / 면 요리,만원 미만,5,,37.5164665,127.0404191
52,괴다한국순대,서울특별시 강남구 선릉로129길 13 1F,탕 / 찌개 / 전골,만원 미만,4,,37.5160445,127.0404923
53,스쿨푸드,서울특별시 강남구 봉은사로25길 18 B1,퓨전 한식,만원 미만,3,,37.5083126,127.0323265
54,청국장,서울특별시 강남구 언주로148길 14,탕 / 찌개 / 전골,만원 미만,2,,37.5202946,127.0359457
55,막내네,서울특별시 강남구 도산대로30길 21,한정식 / 백반 / 정통 한식,만원 미만,1,,37.5185225,127.0300273
56,방일해장국,서울특별시 강남구 봉은사로37길 31,탕 / 찌개 / 전골,만원 미만,1,,37.5101178,127.0355665
57,쏭스핫도그,서울특별시 강남구 강남대로122길 50 상명빌딩,기타 한식,만원 미만,2,,37.5088758,127.0270586
58,팔각도,서울특별시 강남구 강남대로128길 6 1F,닭 / 오리 요리,만원 미만,2,,37.5096928,127.0227781
59,부산할매돼지국밥두레반,서울특별시 강남구 선릉로 713,탕 / 찌개 / 전골,만원 미만,2,,37.5185372,127.0405498
60,우원돈가스,서울특별시 강남구 학동로3길 6,기타 한식,만원 미만,3,,37.511898,127.022703
61,밥짓는카페,서울특별시 강남구 논현로139길 3,기타 한식,만원 미만,1,,37.5165818,127.0290682
62,완성식당,서울특별시 강남구 선릉로125길 7,한정식 / 백반 / 정통 한식,만원 미만,1,,37.5148018,127.0413702
63,무쇠막김치찌개 김치삼겹살,서울특별시 강남구 학동로1길 18,탕 / 찌개 / 전골,만원 미만,1,,37.5125283,127.0217853
64,신사김밥수제비,서울특별시 강남구 도산대로8길 9,기타 한식,만원 미만,1,,37.5158713,127.0223714
65,한양김밥,서울특별시 강남구 학동로4길 28,기타 한식,만원 미만,1,,37.5095916,127.023509
66,논현오뎅,서울특별시 강남구 학동로6길 55,기타 한식,만원 미만,1,,37.5090425,127.0269512
67,류창희국수,서울특별시 강남구 선릉로121길 11 향원빌딩 101호,국수 / 면 요리,만원 미만,1,,37.5137647,127.0414796
68,백암왕순대,서울특별시 강남구 선릉로129길 5,탕 / 찌개 / 전골,만원 미만,3,,37.5161975,127.04103
69,명동칼국수,서울특별시 강남구 논현로132길 8,탕 / 찌개 / 전골,만원 미만,1,,37.5147442,127.0311022
70,양평해장국,서울특별시 강남구 학동로 158 율암빌딩,탕 / 찌개 / 전골,만원 미만,1,,37.5129034,127.0282439
71,팔당충무김밥국수,서울특별시 강남구 언주로134길 29 1F,기타 한식,만원 미만,2,,37.5170588,127.0379115
72,강남통닭,서울특별시 강남구 언주로150길 24,닭 / 오리 요리,만원 미만,2,,37.5212746,127.0362272
73,버텍스,서울특별시 강남구 강남대로124길 74,퓨전 한식,만원 미만,1,,37.5112704,127.0275603
74,만복국수집,서울특별시 강남구 강남대로122길 16,국수 / 면 요리,만원 미만,1,,37.5079012,127.0243691
75,부대찌개매니아돈돌,서울특별시 강남구 선릉로127길 5,탕 / 찌개 / 전골,만원 미만,1,,37.5154864,127.0413354
76,눈치까스,서울특별시 강남구 논현로136길 5-5 1F,기타 한식,만원 미만,1,,37.5162603,127.0301821
77,부산아지매국밥,서울특별시 강남구 학동로 165 마일스디오빌,탕 / 찌개 / 전골,만원 미만,2,,37.5137366,127.0289383
78,두릉도원북촌순두부,서울특별시 강남구 학동로4길 15 동화상가,탕 / 찌개 / 전골,만원 미만,1,,37.5092726,127.0239086
79,올래밥상,서울특별시 강남구 논현로 613,한정식 / 백반 / 정통 한식,만원 미만,1,,37.5084752,127.0329228
80,밀양손만두,서울특별시 강남구 봉은사로37길 43,한정식 / 백반 / 정통 한식,만원 미만,1,,37.5108681,127.0350919
81,다다돈까스,서울특별시 강남구 봉은사로33길 12,기타 한식,만원 미만,1,,37.5088388,127.0356236
82,죠스익스프레스,서울특별시 강남구 논현로114길 22,기타 한식,만원 미만,1,,37.5088582,127.0352445
83,담소소사골순대육개장,서울특별시 강남구 선릉로131길 25,탕 / 찌개 / 전골,만원 미만,1,,37.5171263,127.0389061
84,문스낵,서울특별시 강남구 언주로125길 11 1F,기타 한식,만원 미만,1,,37.5128201,127.0343598
85,길동우동,서울특별시 강남구 강남대로 594,기타 한식,만원 미만,2,,37.514757,127.0203185
86,쭈꾸미한상,서울특별시 강남구 강남대로128길 10 2F,해산물 요리,만원 미만,1,,37.5097195,127.0230639
87,담미온,서울특별시 강남구 논현로 712,탕 / 찌개 / 전골,만원 미만,1,,37.5156699,127.0302712
88,다옴분식,서울특별시 강남구 학동로 223 대영빌딩,기타 한식,만원 미만,1,,37.5143253,127.0329808
89,갈현동할머니떡볶이,서울특별시 강남구 강남대로118길 12,기타 한식,만원 미만,2,,37.5062573,127.024766
90,부산아지매국밥,서울특별시 강남구 봉은사로 177 1F,탕 / 찌개 / 전골,만원 미만,1,,37.5073302,127.0331751
91,떡순튀,서울특별시 강남구 봉은사로11길 12 논현 e편한세상 B1 103호,기타 한식,만원 미만,1,,37.5066597,127.0289875
92,강남불백,서울특별시 강남구 언주로134길 9,고기 요리,만원 미만,1,,37.5167461,127.0363579
93,아바이왕순대,서울특별시 강남구 논현로111길 20,탕 / 찌개 / 전골,만원 미만,1,,37.5074728,127.0318838
94,선정돈가스,서울특별시 강남구 선릉로111길 10,기타 한식,만원 미만,1,,37.5107747,127.0425472
95,마리야,서울특별시 강남구 학동로 지하180,기타 한식,만원 미만,1,,37.5148554,127.033969
96,낭풍,서울특별시 강남구 선릉로127길 5 대진빌딩,탕 / 찌개 / 전골,만원 미만,1,,37.5154864,127.0413354
97,스피드박스,서울특별시 강남구 논현로153길 24,기타 한식,만원 미만,1,,37.5210505,127.0261584
98,국수와 전,서울특별시 강남구 선릉로131길 4,국수 / 면 요리,만원 미만,1,,37.5179327,127.0405643
99,명동칼국수,서울특별시 강남구 언주로129길 20,국수 / 면 요리,만원 미만,1,,37.5141876,127.0335595
100,행복밥상,서울특별시 강남구 논현로149길 77,탕 / 찌개 / 전골,만원 미만,1,,37.5162886,127.022467
101,맛짱조개,서울특별시 강남구 언주로136길 10,해산물 요리,만원-2만원,51,4.8,37.5171236,127.0363553
102,진미평양냉면,서울특별시 강남구 학동로 305-3,국수 / 면 요리,만원-2만원,257,4.5,37.5161072,127.0360301
103,은화계,서울특별시 강남구 도산대로 152,닭 / 오리 요리,만원-2만원,21,4.4,37.5181233,127.025218
104,영동소금구이,서울특별시 강남구 강남대로124길 10 1F,고기 요리,만원-2만원,19,4.4,37.5088173,127.0234738
105,효도치킨 (휴업중),서울특별시 강남구 도산대로46길 21 한진로즈힐아파트상가 101동 120호,닭 / 오리 요리,만원-2만원,52,4.3,37.5206804,127.0371595
106,토영자갈치곰장어,서울특별시 강남구 학동로2길 20 창빌딩 1F,해산물 요리,만원-2만원,9,4.3,37.5100101,127.0225783
107,첨벙아구찜,서울특별시 강남구 강남대로150길 12,한정식 / 백반 / 정통 한식,만원-2만원,7,4.3,37.5158143,127.0209042
108,리북집,서울특별시 강남구 학동로2길 45,고기 요리,만원-2만원,81,4.2,37.5086695,127.0235753
109,함지곱창,서울특별시 강남구 학동로2길 33,고기 요리,만원-2만원,53,4.1,37.5092372,127.0232523
110,대삼식당,서울특별시 강남구 학동로41길 23,고기 요리,만원-2만원,10,4.1,37.5174516,127.0361406
111,송포갈비,서울특별시 강남구 강남대로114길 23,고기 요리,만원-2만원,11,4.1,37.5062414,127.0261144
112,봉산평양냉면,서울특별시 강남구 학동로1길 21,국수 / 면 요리,만원-2만원,11,4.1,37.5127731,127.0216396
113,신촌황소곱창,서울특별시 강남구 강남대로128길 10,고기 요리,만원-2만원,11,4.1,37.5097195,127.0230639
114,해몽,서울특별시 강남구 학동로41길 32,고기 요리,만원-2만원,32,4.0,37.5180734,127.0363645
115,가람,서울특별시 강남구 언주로135길 13 1F,국수 / 면 요리,만원-2만원,13,4.0,37.5167545,127.0340806
116,용삼계탕,서울특별시 강남구 학동로4길 8,탕 / 찌개 / 전골,만원-2만원,11,4.0,37.5108874,127.0228598
117,게방식당,서울특별시 강남구 선릉로131길 17 1F,한정식 / 백반 / 정통 한식,만원-2만원,22,3.9,37.5172783,127.0394223
118,삼육가,서울특별시 강남구 강남대로114길 8,고기 요리,만원-2만원,13,3.9,37.5056529,127.0250046
119,사람사는 고깃집 김일도,서울특별시 강남구 강남대로118길 26 성신빌딩  1F,고기 요리,만원-2만원,5,3.9,37.5067339,127.025521
120,류몽민,서울특별시 강남구 학동로25길 11,닭 / 오리 요리,만원-2만원,9,3.8,37.5143611,127.0287769
121,돼지연구소,서울특별시 강남구 논현로114길 14,고기 요리,만원-2만원,6,3.8,37.5086453,127.0345573
122,평양면옥,서울특별시 강남구 논현로150길 6,국수 / 면 요리,만원-2만원,36,3.7,37.5189036,127.0291479
123,장남식당,서울특별시 강남구 봉은사로5길 10,고기 요리,만원-2만원,14,3.7,37.5057503,127.0262215
124,삼미숯불갈비,서울특별시 강남구 학동로2길 30,고기 요리,만원-2만원,8,3.7,37.50943340000001,127.0229003
125,부산아구,서울특별시 강남구 강남대로150길 10,해산물 요리,만원-2만원,23,3.4,37.5157405,127.0206925
126,한신포차,서울특별시 강남구 강남대로118길 11,닭 / 오리 요리,만원-2만원,17,3.4,37.5066789,127.0245309
127,슈퍼집,서울특별시 강남구 언주로130길 14 화림빌딩 1F,기타 한식,만원-2만원,22,3.3,37.5148766,127.0367099
128,땅코참숯구이,서울특별시 강남구 언주로134길 13,고기 요리,만원-2만원,6,3.3,37.5168273,127.0367098
129,팔당닭발,서울특별시 강남구 학동로45길 3,닭 / 오리 요리,만원-2만원,8,3.3,37.5164757,127.0377946
130,호텔카푸치노 시그니처도시락,서울특별시 강남구 봉은사로 155 1F,기타 한식,만원-2만원,4,,37.506801,127.0314853
131,고향집,서울특별시 강남구 언주로134길 17,해산물 요리,만원-2만원,2,,37.5168955,127.037003
132,영동그집,서울특별시 강남구 봉은사로1길 42-8,고기 요리,만원-2만원,5,,37.5074285,127.0244205
133,김천재의 육회반한연어,서울특별시 강남구 강남대로118길 47 2F,고기 요리,만원-2만원,4,,37.507476,127.0267895
134,진전복삼계탕,서울특별시 강남구 선릉로129길 21 B1,탕 / 찌개 / 전골,만원-2만원,9,,37.51581669999999,127.0397408
135,자연석돌구이,서울특별시 강남구 언주로148길 9,고기 요리,만원-2만원,9,,37.5206031,127.0353252
136,옥면가,서울특별시 강남구 학동로50길 14 1F,국수 / 면 요리,만원-2만원,3,,37.5156556,127.0398718
137,세종한우,서울특별시 강남구 논현로 642,고기 요리,만원-2만원,7,,37.5108893,127.0325093
138,외가집,서울특별시 강남구 강남대로122길 28 ,고기 요리,만원-2만원,2,,37.5082169,127.0252846
139,마장동박현규,서울특별시 강남구 강남대로128길 27 새호시티라이프빌딩,고기 요리,만원-2만원,3,,37.5104036,127.0243833
140,강남곱창이야기,서울특별시 강남구 봉은사로1길 42,고기 요리,만원-2만원,14,,37.5074326,127.0241434
141,마포숯불갈비,서울특별시 강남구 도산대로 232 청학아파트 A동,고기 요리,만원-2만원,2,,37.5205692,127.0328266
142,만구기네화로불닭발,서울특별시 강남구 도산대로50길 37,닭 / 오리 요리,만원-2만원,3,,37.5199431,127.0378077
143,이모왕곱창,서울특별시 강남구 강남대로122길 6,고기 요리,만원-2만원,7,,37.5074751,127.0238408
144,깐부치킨,서울특별시 강남구 학동로 224 삼환아르누보3차,닭 / 오리 요리,만원-2만원,6,,37.51445880000001,127.0332712
145,춘이네닭도리탕,서울특별시 강남구 강남대로118길 20,닭 / 오리 요리,만원-2만원,5,,37.5065462,127.0250496
146,골목길,서울특별시 강남구 언주로147길 9-3,해산물 요리,만원-2만원,2,,37.51969709999999,127.0337192
147,포크댄스,서울특별시 강남구 강남대로118길 31 B1,고기 요리,만원-2만원,3,,37.5070645,127.025623
148,하남돼지집,서울특별시 강남구 강남대로118길 17,고기 요리,만원-2만원,7,,37.5067975,127.0248235
149,달수네소곱창,서울특별시 강남구 논현로149길 73,고기 요리,만원-2만원,2,,37.5164402,127.0228202
150,삼촌네고깃집,서울특별시 강남구 학동로4길 45,고기 요리,만원-2만원,6,,37.5085007,127.0243059
151,노랑통닭,서울특별시 강남구 강남대로116길 8,닭 / 오리 요리,만원-2만원,2,,37.5060616,127.024738
152,곱창선생,서울특별시 강남구 강남대로122길 10 영흥빌딩,고기 요리,만원-2만원,6,,37.5075984,127.0240778
153,밤을걷는선비,서울특별시 강남구 강남대로122길 17,닭 / 오리 요리,만원-2만원,3,,37.5082107,127.0244216
154,논현동조개전골,서울특별시 강남구 학동로4길 20,해산물 요리,만원-2만원,6,,37.51003,127.0232318
155,롸버트치킨,서울특별시 강남구 언주로 604 아크로힐스논현 103호,닭 / 오리 요리,만원-2만원,1,,37.5196689,127.0379979
156,깐부치킨,서울특별시 강남구 언주로146길 3,닭 / 오리 요리,만원-2만원,1,,37.5198413,127.0350465
157,깐부치킨,서울특별시 강남구 선릉로131길 12,닭 / 오리 요리,만원-2만원,1,,37.5175614,127.0395155
158,팔당족발,서울특별시 강남구 학동로45길 7,고기 요리,만원-2만원,4,,37.51672,127.0378039
159,만덕식당,서울특별시 강남구 도산대로8길 10,고기 요리,만원-2만원,4,,37.5161526,127.0220333
160,수라선,서울특별시 강남구 학동로 343 더피나클강남 B1 B102-103호,한정식 / 백반 / 정통 한식,만원-2만원,3,,37.517398,127.0406221
161,주지육림,서울특별시 강남구 언주로148길 14 라동 113호,고기 요리,만원-2만원,2,,37.5202946,127.0359457
162,초심한우,서울특별시 강남구 언주로148길 27,고기 요리,만원-2만원,2,,37.5209673,127.036669
163,통큰생고기,서울특별시 강남구 언주로136길 10,고기 요리,만원-2만원,2,,37.5171236,127.0363553
164,영암집,서울특별시 강남구 강남대로124길 49,한정식 / 백반 / 정통 한식,만원-2만원,2,,37.51003960000001,127.0260357
165,구청갈비,서울특별시 강남구 선릉로129길 9-6,고기 요리,만원-2만원,1,,37.5157951,127.0407467
166,이층집닭도리탕,서울특별시 강남구 강남대로124길 10 2F,닭 / 오리 요리,만원-2만원,8,,37.5088173,127.0234738
167,광개토정육식당,서울특별시 강남구 강남대로114길 22,고기 요리,만원-2만원,2,,37.5063548,127.026888
168,강남쪽갈비,서울특별시 강남구 선릉로131길 24 1F,고기 요리,만원-2만원,4,,37.5173828,127.0389707
169,청평숯불갈비,서울특별시 강남구 봉은사로1길 16,고기 요리,만원-2만원,2,,37.5058325,127.0249288
170,만득이곱창,서울특별시 강남구 강남대로124길 3-8 1F,고기 요리,만원-2만원,3,,37.5091724,127.0229308
171,제주몬트락,서울특별시 강남구 학동로2길 50,고기 요리,만원-2만원,2,,37.5082833,127.0234027
172,본가설렁탕,서울특별시 강남구 언주로148길 14 나동 105-106호,탕 / 찌개 / 전골,만원-2만원,2,,37.5202946,127.0359457
173,원할머니국수보쌈,서울특별시 강남구 강남대로120길 9,고기 요리,만원-2만원,1,,37.5070967,127.0242744
174,팔당닭발,서울특별시 강남구 학동로45길 7,닭 / 오리 요리,만원-2만원,2,,37.51672,127.0378039
175,한우리소나무,서울특별시 강남구 언주로150길 7,탕 / 찌개 / 전골,만원-2만원,2,,37.5210697,127.0349775
176,전나라쭈꾸미,서울특별시 강남구 선릉로131길 20,해산물 요리,만원-2만원,2,,37.5174847,127.0393167
177,머드내갈비살,서울특별시 강남구 선릉로131길 18,고기 요리,만원-2만원,3,,37.5175456,127.0394912
178,홍도야지,서울특별시 강남구 학동로 224,고기 요리,만원-2만원,2,,37.5144457,127.0334894
179,천사곱창,서울특별시 강남구 학동로2길 56,고기 요리,만원-2만원,2,,37.5078806,127.0236206
180,독도쭈꾸미,서울특별시 강남구 언주로 604 ACROHILLS논현,해산물 요리,만원-2만원,3,,37.509934,127.038679
181,만구기네화로불닭발,서울특별시 강남구 강남대로122길 30,닭 / 오리 요리,만원-2만원,2,,37.5082853,127.0253844
182,청담주먹고기,서울특별시 강남구 도산대로50길 25,고기 요리,만원-2만원,1,,37.5207262,127.0377049
183,육회공작소,서울특별시 강남구 학동로2길 43,고기 요리,만원-2만원,2,,37.5087265,127.0234954
184,진오돌뼈,서울특별시 강남구 논현로136길 5-7 1F,고기 요리,만원-2만원,2,,37.5163277,127.03005
185,하남돼지집,서울특별시 강남구 언주로133길 18,고기 요리,만원-2만원,1,,37.5163305,127.0336891
186,생김치오겹살,서울특별시 강남구 선릉로145길 22,고기 요리,만원-2만원,4,,37.5212818,127.0376627
187,사람사는고깃집김일도,서울특별시 강남구 봉은사로37길 10,고기 요리,만원-2만원,2,,37.5090588,127.0369702
188,쏭쏭문어,서울특별시 강남구 학동로2길 51 1F,해산물 요리,만원-2만원,1,,37.5083976,127.0238141
189,세광양대창,서울특별시 강남구 강남대로118길 12,고기 요리,만원-2만원,2,,37.5062573,127.024766
190,꼬추장,서울특별시 강남구 언주로113길 15 논현빌라,고기 요리,만원-2만원,1,,37.5092499,127.0359519
191,왕소금구이,서울특별시 강남구 언주로148길 14,고기 요리,만원-2만원,1,,37.5202946,127.0359457
192,최전방부대찌개닭갈비,서울특별시 강남구 언주로148길 14,닭 / 오리 요리,만원-2만원,1,,37.5202946,127.0359457
193,3일한우국밥,서울특별시 강남구 선릉로131길 21  1F 2호,탕 / 찌개 / 전골,만원-2만원,1,,37.5171953,127.0391858
194,제주탐하리,서울특별시 강남구 학동로1길 5,고기 요리,만원-2만원,1,,37.5117662,127.0218054
195,영동원삼겹살,서울특별시 강남구 강남대로 520 1F,고기 요리,만원-2만원,2,,37.5085698,127.0230676
196,제주올레,서울특별시 강남구 강남대로112길 15,한정식 / 백반 / 정통 한식,만원-2만원,1,,37.5056594,127.0255802
197,장성생태전문점,서울특별시 강남구 언주로149길 7,해산물 요리,만원-2만원,1,,37.5203739,127.0335136
198,팔덕식당,서울특별시 강남구 강남대로112길 31 1F,고기 요리,만원-2만원,2,,37.505989,127.0268642
199,마산아구찜해물탕,서울특별시 강남구 강남대로124길 3-6 호은빌딩,해산물 요리,만원-2만원,1,,37.5090789,127.0229546
200,닭치고디집고,서울특별시 강남구 강남대로122길 15,닭 / 오리 요리,만원-2만원,1,,37.5080815,127.02417
201,내수족발,서울특별시 강남구 언주로134길 33,한정식 / 백반 / 정통 한식,만원-2만원,2,,37.5171488,127.0382305
202,곱창의전설,서울특별시 강남구 논현로114길 22,고기 요리,만원-2만원,2,,37.5088582,127.0352445
203,우리돼지집,서울특별시 강남구 논현로150길 38,고기 요리,만원-2만원,1,,37.5197748,127.031657
204,대포집,서울특별시 강남구 강남대로114길 15 1F,고기 요리,만원-2만원,1,,37.5060527,127.0255174
205,무교동유정낙지,서울특별시 강남구 언주로 615 논현아이파크103동 109호,해산물 요리,만원-2만원,1,,37.51047,127.0357802
206,응급실밥상술상&쭈상낙원,서울특별시 강남구 봉은사로1길 27  1F,해산물 요리,만원-2만원,1,,37.5064578,127.0242771
207,종로계림닭도리탕원조,서울특별시 강남구 학동로4길 20 명진빌딩 104호,닭 / 오리 요리,만원-2만원,1,,37.51003,127.0232318
208,하남돼지집,서울특별시 강남구 선릉로 647 영광빌딩,고기 요리,만원-2만원,3,,37.5143087,127.0420021
209,청담머구리,서울특별시 강남구 언주로150길 45 1F,해산물 요리,만원-2만원,2,,37.5221205,127.0378624
210,치킨버스,서울특별시 강남구 학동로 224 삼환아르누보3,닭 / 오리 요리,만원-2만원,2,,37.51445880000001,127.0332712
211,어사출또,서울특별시 강남구 학동로2길 54 1-2F,해산물 요리,만원-2만원,1,,37.5081092,127.023483
212,지랄닭발,서울특별시 강남구 강남대로124길 36,닭 / 오리 요리,만원-2만원,2,,37.5092696,127.0255424
213,할매숯불닭갈비,서울특별시 강남구 강남대로 520 영동빌딩,닭 / 오리 요리,만원-2만원,2,,37.4872446,127.0327813
214,동대문닭한마리칼국수,서울특별시 강남구 언주로148길 14,닭 / 오리 요리,만원-2만원,3,,37.5202946,127.0359457
215,논골집,서울특별시 강남구 강남대로122길 12,고기 요리,만원-2만원,1,,37.5077807,127.0241841
216,논골집,서울특별시 강남구 도산대로8길 19,탕 / 찌개 / 전골,만원-2만원,2,,37.5156777,127.0224648
217,마켓정정육식당,서울특별시 강남구 강남대로128길 6,고기 요리,만원-2만원,2,,37.5096928,127.0227781
218,이대팔쭈꾸미,서울특별시 강남구 봉은사로1길 34,해산물 요리,만원-2만원,1,,37.5069181,127.0243706
219,마포숯불갈비,서울특별시 강남구 학동로2길 29,고기 요리,만원-2만원,1,,37.5095341,127.0230912
220,육화몽,서울특별시 강남구 학동로2길 17 1F,고기 요리,만원-2만원,2,,37.5102075,127.0228019
221,비어라이제,서울특별시 강남구 강남대로124길 3-9,닭 / 오리 요리,만원-2만원,1,,37.5092858,127.0228117
222,계열사,서울특별시 강남구 언주로113길 16 ,닭 / 오리 요리,만원-2만원,2,,37.5093245,127.0359567
223,지코바,서울특별시 강남구 언주로125길 10 105호,닭 / 오리 요리,만원-2만원,1,,37.5130875,127.0343315
224,진전복삼계탕,서울특별시 강남구 언주로133길 18,탕 / 찌개 / 전골,만원-2만원,1,,37.5163305,127.0336891
225,얌얌닭발숯닭갈비,서울특별시 강남구 논현로150길 13 1F,닭 / 오리 요리,만원-2만원,1,,37.5193954,127.0295623
226,한울닭갈비,서울특별시 강남구 학동로2길 29,닭 / 오리 요리,만원-2만원,1,,37.5095341,127.0230912
227,최강달인춘천닭갈비막국수,서울특별시 강남구 선릉로 657,닭 / 오리 요리,만원-2만원,2,,37.5152586,127.0416913
228,오징어청춘,서울특별시 강남구 봉은사로1길 29,해산물 요리,만원-2만원,3,,37.5065792,127.0242404
229,치킨뱅이,서울특별시 강남구 학동로23길 7,닭 / 오리 요리,만원-2만원,1,,37.513866,127.0281838
230,까미막창,서울특별시 강남구 학동로6길 29 1F,고기 요리,만원-2만원,1,,37.510278,127.025113
231,꼼터,서울특별시 강남구 언주로134길 35,해산물 요리,만원-2만원,1,,37.5172356,127.038381
232,옥수동묵은지김치찜,서울특별시 강남구 학동로34길 24  1F,한정식 / 백반 / 정통 한식,만원-2만원,1,,37.5129508,127.0337089
233,순살만공격,서울특별시 강남구 봉은사로33길 13,닭 / 오리 요리,만원-2만원,1,,37.5089037,127.0354068
234,왕빈자삼파전,서울특별시 강남구 강남대로124길 3-6 호은빌딩 1F,한정식 / 백반 / 정통 한식,만원-2만원,1,,37.5090789,127.0229546
235,꽃삼살롱,서울특별시 강남구 학동로45길 8  101B호,고기 요리,만원-2만원,1,,37.5167961,127.0380778
236,유쾌한접시,서울특별시 강남구 강남대로122길 20,고기 요리,만원-2만원,1,,37.5080139,127.0245995
237,교동전선생,서울특별시 강남구 논현로131길 6 1F,한정식 / 백반 / 정통 한식,만원-2만원,1,,37.5145982,127.0297794
238,지안정,서울특별시 강남구 선릉로127길 10 ,한정식 / 백반 / 정통 한식,만원-2만원,1,,37.5155607,127.0408379
239,60계치킨,서울특별시 강남구 강남대로118길 14,닭 / 오리 요리,만원-2만원,1,,37.5064437,127.0247512
240,노란상소갈비,서울특별시 강남구 선릉로131길 22 1F,고기 요리,2만원-3만원,64,4.4,37.5174781,127.0391663
241,호루몬규상,서울특별시 강남구 언주로148길 14 다동 103호,고기 요리,2만원-3만원,18,4.4,37.5202946,127.0359457
242,논현장어,서울특별시 강남구 학동로 106,해산물 요리,2만원-3만원,16,4.4,37.51108000000001,127.0226118
243,아낙,서울특별시 강남구 학동로20길 30,한정식 / 백반 / 정통 한식,2만원-3만원,7,4.3,37.5114721,127.0279818
244,우정양곱창,서울특별시 강남구 도산대로30길 23 1F,고기 요리,2만원-3만원,31,4.2,37.518396,127.0300945
245,돌곰네,서울특별시 강남구 언주로146길 18,해산물 요리,2만원-3만원,31,4.2,37.5193601,127.0366998
246,보물섬,서울특별시 강남구 강남대로120길 40,해산물 요리,2만원-3만원,11,4.0,37.507594,127.0265685
247,짱이네산곰장어,서울특별시 강남구 언주로 605,해산물 요리,2만원-3만원,11,3.9,37.5093304,127.0372438
248,강남어시장,서울특별시 강남구 강남대로 512,해산물 요리,2만원-3만원,6,3.9,37.50798899999999,127.0233263
249,갯벌의진주,서울특별시 강남구 학동로2길 55 2F,해산물 요리,2만원-3만원,19,3.8,37.5080746,127.0238726
250,아나고야,서울특별시 강남구 강남대로124길 3-9,해산물 요리,2만원-3만원,6,3.7,37.5092858,127.0228117
251,달맞이,서울특별시 강남구 강남대로128길 10 1F,해산물 요리,2만원-3만원,14,3.6,37.5097195,127.0230639
252,화랑불닭,서울특별시 강남구 강남대로118길 19,닭 / 오리 요리,2만원-3만원,14,3.5,37.5068498,127.0249336
253,홈수끼,서울특별시 강남구 언주로 708 경원빌딩,탕 / 찌개 / 전골,2만원-3만원,7,3.1,37.5162461,127.0357071
254,삼다연,서울특별시 강남구 논현로149길 6,고기 요리,2만원-3만원,4,,37.5187643,127.0277696
255,소풍,서울특별시 강남구 언주로150길 48,고기 요리,2만원-3만원,12,,37.5218642,127.0380342
256,도산뚝배기,서울특별시 강남구 도산대로54길 18,탕 / 찌개 / 전골,2만원-3만원,4,,37.5215111,127.038601
257,나고집,서울특별시 강남구 언주로149길 10 1F,고기 요리,2만원-3만원,3,,37.5205544,127.0332183
258,가리비야,서울특별시 강남구 강남대로114길 11,해산물 요리,2만원-3만원,2,,37.5059166,127.0251912
259,육회먹은연어,서울특별시 강남구 강남대로122길 10 스파타크빌딩 1F,고기 요리,2만원-3만원,5,,37.5076157,127.0240663
260,늘푸른정육식당,서울특별시 강남구 학동로4길 33,고기 요리,2만원-3만원,6,,37.5093155,127.0238983
261,소제이,서울특별시 강남구 강남대로114길 13  1F,고기 요리,2만원-3만원,1,,37.5060061,127.0253269
262,더바른정육식당,서울특별시 강남구 강남대로 482,고기 요리,2만원-3만원,6,,37.5053921,127.0245194
263,심연한우,서울특별시 강남구 학동로4길 15 동화상가 101호,고기 요리,2만원-3만원,4,,37.5092726,127.0239086
264,반포등심,서울특별시 강남구 언주로148길 14,고기 요리,2만원-3만원,1,,37.5202946,127.0359457
265,봉산집,서울특별시 강남구 도산대로 232,고기 요리,2만원-3만원,4,,37.5205398,127.0326528
266,독집,서울특별시 강남구 언주로149길 5,고기 요리,2만원-3만원,1,,37.5204671,127.0336776
267,그때그집,서울특별시 강남구 선릉로129길 17,고기 요리,2만원-3만원,7,,37.5159325,127.0401295
268,문어야,서울특별시 강남구 강남대로118길 20,해산물 요리,2만원-3만원,8,,37.5065462,127.0250496
269,이층고깃집,서울특별시 강남구 선릉로129길 9-4,고기 요리,2만원-3만원,1,,37.5159371,127.0406939
270,창우수산,서울특별시 강남구 학동로 338 107-108호,해산물 요리,2만원-3만원,4,,37.5164665,127.0404191
271,삼호짱뚱이,서울특별시 강남구 도산대로34길 11,해산물 요리,2만원-3만원,2,,37.51959009999999,127.0309988
272,강남고기집신칠성집,서울특별시 강남구 논현로150길 16,고기 요리,2만원-3만원,1,,37.5191753,127.0298718
273,150,서울특별시 강남구 도산대로46길 8,고기 요리,2만원-3만원,1,,37.5214355,127.0360803
274,세꼬시닷컴,서울특별시 강남구 봉은사로1길 9,해산물 요리,2만원-3만원,1,,37.5053712,127.0248217
275,연탄구이,서울특별시 강남구 강남대로118길 67,고기 요리,2만원-3만원,3,,37.5072801,127.0282714
276,조개사냥,서울특별시 강남구 강남대로122길 24 1F 101호,해산물 요리,2만원-3만원,1,,37.508123,127.024934
277,제이제이가리비,서울특별시 강남구 봉은사로1길 42-8,해산물 요리,2만원-3만원,1,,37.5074285,127.0244205
278,아리양,서울특별시 강남구 봉은사로 317 아모제논현빌딩,고기 요리,2만원-3만원,3,,37.5099434,127.0415941
279,빽돈,서울특별시 강남구 학동로2길 58,고기 요리,2만원-3만원,2,,37.5077304,127.023661
280,광주섬진강,서울특별시 강남구 언주로148길 6 우미빌딩 2F,해산물 요리,2만원-3만원,2,,37.5201804,127.0351319
281,광명수산,서울특별시 강남구 강남대로122길 9 1F,해산물 요리,2만원-3만원,2,,37.5078226,127.0239155
282,영번지,서울특별시 강남구 강남대로118길 67 1F,해산물 요리,2만원-3만원,4,,37.5072801,127.0282714
283,영동곱창,서울특별시 강남구 학동로34길 17,고기 요리,2만원-3만원,2,,37.5134015,127.0337223
284,동화양대창,서울특별시 강남구 논현로150길 13 혜창빌딩,고기 요리,2만원-3만원,1,,37.5192107,127.029024
285,화포식당,서울특별시 강남구 논현로131길 12,고기 요리,2만원-3만원,4,,37.514417,127.0292264
286,한우리한정식,서울특별시 강남구 도산대로 308 한서빌딩 3-5F,한정식 / 백반 / 정통 한식,2만원-3만원,1,,37.5214732,127.0351771
287,두어마리,서울특별시 강남구 언주로148길 14,해산물 요리,2만원-3만원,3,,37.5202946,127.0359457
288,언양불고기,서울특별시 강남구 강남대로 518,고기 요리,2만원-3만원,1,,37.5084318,127.0231588
289,유장원보쌈,서울특별시 강남구 학동로28길 5,고기 요리,2만원-3만원,4,,37.5132911,127.0302579
290,창신한우,서울특별시 강남구 학동로 338,고기 요리,2만원-3만원,1,,37.5164665,127.0404191
291,도산시장,서울특별시 강남구 언주로148길 14 1F,해산물 요리,2만원-3만원,2,,37.5202946,127.0359457
292,미우가,서울특별시 강남구 언주로113길 14 1F,고기 요리,2만원-3만원,1,,37.5093652,127.0362073
293,제국한우짝갈비,서울특별시 강남구 언주로148길 14  나동 2F,고기 요리,2만원-3만원,1,,37.5202946,127.0359457
294,남도이모네,서울특별시 강남구 선릉로131길 8 ,해산물 요리,2만원-3만원,1,,37.5179438,127.0402667
295,소가게,서울특별시 강남구 도산대로24길 4 2F,고기 요리,2만원-3만원,1,,37.5183928,127.026314
296,영동민물장어,서울특별시 강남구 언주로148길 8 B1,해산물 요리,4만원 이상,30,4.3,37.5202787,127.0353237
297,노들강,서울특별시 강남구 강남대로114길 19,해산물 요리,4만원 이상,6,4.3,37.5061534,127.0258181
298,투뿔등심,서울특별시 강남구 언주로148길 19,고기 요리,4만원 이상,30,4.2,37.5210137,127.0360575
299,새우의진수,서울특별시 강남구 강남대로118길 61,해산물 요리,3만원-4만원,10,4.2,37.5073554,127.027904
300,수묵당,서울특별시 강남구 학동로53길 20,퓨전 한식,4만원 이상,18,4.1,37.5184075,127.0399926
301,배꼽집,서울특별시 강남구 강남대로128길 22,고기 요리,3만원-4만원,45,4.0,37.5100919,127.0240737
302,한우리,서울특별시 강남구 도산대로 304,고기 요리,4만원 이상,30,4.0,37.5211001,127.0347283
303,남서울민물장어,서울특별시 강남구 봉은사로 137,해산물 요리,3만원-4만원,17,3.9,37.5062433,127.0295121
304,프로간장새우,서울특별시 강남구 강남대로122길 20,해산물 요리,3만원-4만원,10,3.8,37.5080139,127.0245995
305,토말,서울특별시 강남구 선릉로121길 13,한정식 / 백반 / 정통 한식,3만원-4만원,6,3.6,37.5136552,127.041196
306,해랑,서울특별시 강남구 봉은사로1길 39 유성빌딩 2F,해산물 요리,4만원 이상,12,3.5,37.5072384,127.0238756
307,진대감,서울특별시 강남구 학동로38길 38,고기 요리,4만원 이상,8,3.5,37.5124089,127.034433
308,토담골,서울특별시 강남구 봉은사로 227 태양빌딩,한정식 / 백반 / 정통 한식,3만원-4만원,9,3.3,37.5084619,127.0369258
309,크래버대게나라,서울특별시 강남구 언주로 620 현대인텔렉스빌딩 1F,해산물 요리,4만원 이상,14,3.1,37.5115897,127.0362884
310,현해,서울특별시 강남구 도산대로 318,해산물 요리,4만원 이상,5,,37.5219756,127.0363404
311,원강,서울특별시 강남구 학동로6길 16,고기 요리,4만원 이상,3,,37.5106925,127.0240308
312,정육공방,서울특별시 강남구 도산대로30길 24,고기 요리,4만원 이상,4,,37.51828769999999,127.0298629
313,네모집,서울특별시 강남구 논현로149길 12 1F,고기 요리,4만원 이상,10,,37.5185325,127.0272997
314,육덕등심,서울특별시 강남구 학동로4길 49 1F,고기 요리,3만원-4만원,5,,37.5084077,127.0245005
315,장어의전설,서울특별시 강남구 강남대로114길 17,해산물 요리,3만원-4만원,1,,37.506134,127.0256498
316,한미옥,서울특별시 강남구 봉은사로 319,고기 요리,4만원 이상,3,,37.509902,127.0418186
317,비플리끄그릴,서울특별시 강남구 언주로148길 29 한원빌딩 1F,고기 요리,3만원-4만원,2,,37.5210136,127.0368817
318,화춘옥,서울특별시 강남구 도산대로50길 15 ,고기 요리,4만원 이상,1,,37.5214442,127.0376991
319,대가원,서울특별시 강남구 언주로130길 8,고기 요리,3만원-4만원,7,,37.5146635,127.0361052
320,통영다찌,서울특별시 강남구 논현로136길 12,한정식 / 백반 / 정통 한식,3만원-4만원,5,,37.5159459,127.0310651
321,화다인,서울특별시 강남구 학동로2길 56 원창빌딩 401호,고기 요리,4만원 이상,3,,37.5079317,127.0236056
322,대게만찬,서울특별시 강남구 도산대로 176 1F 101호,해산물 요리,4만원 이상,2,,37.5190405,127.0279402
323,다온바이뱀부,서울특별시 강남구 학동로25길 39,고기 요리,4만원 이상,3,,37.5159708,127.0277402
324,현복집,서울특별시 강남구 도산대로50길 14,해산물 요리,3만원-4만원,2,,37.52146279999999,127.037321
325,청담소,서울특별시 강남구 언주로148길 7,고기 요리,4만원 이상,2,,37.5205577,127.0351708
326,다왕래,서울특별시 강남구 선릉로129길 21 기성빌딩 2F,해산물 요리,3만원-4만원,2,,37.51581669999999,127.0397408
327,김선생조개찜,서울특별시 강남구 강남대로114길 14,탕 / 찌개 / 전골,3만원-4만원,3,,37.5057769,127.0254023
328,우도,서울특별시 강남구 도산대로 154-4 102호,고기 요리,3만원-4만원,1,,37.5180145,127.0254637
329,신선양곱창,서울특별시 강남구 언주로150길 43,고기 요리,3만원-4만원,2,,37.5220168,127.0377506
330,김돈이,서울특별시 강남구 봉은사로33길 13,고기 요리,4만원 이상,1,,37.5089037,127.0354068
331,울트라멘,서울특별시 강남구 강남대로122길 14 1F,라멘 / 소바 / 우동,만원 미만,47,3.8,37.5077909,127.0243332
332,마이니치라멘,서울특별시 강남구 언주로115길 15,라멘 / 소바 / 우동,만원 미만,31,3.8,37.5098429,127.0354411
333,멘야산다이메,서울특별시 강남구 강남대로114길 23 에스코빌딩,라멘 / 소바 / 우동,만원 미만,35,3.5,37.5062414,127.0261144
334,토라레스토랑,서울특별시 강남구 학동로38길 46,돈부리 / 일본 카레 / 벤토,만원 미만,10,3.3,37.5119041,127.0346216
335,아부라소바,서울특별시 강남구 학동로43길 8  B동 1F,라멘 / 소바 / 우동,만원 미만,2,,37.5165928,127.0374503
336,리퀴드참프루,서울특별시 강남구 봉은사로49길 5 1F,라멘 / 소바 / 우동,만원 미만,11,,37.5101891,127.0420083
337,코마츠,서울특별시 강남구 학동로31길 15  1F,라멘 / 소바 / 우동,만원 미만,1,,37.51559,127.0316161
338,부엉이식당,서울특별시 강남구 학동로12길 8 1F,까스 요리,만원 미만,4,,37.5117167,127.0252968
339,카레와,서울특별시 강남구 봉은사로 129 거평타운 B1,돈부리 / 일본 카레 / 벤토,만원 미만,1,,37.5058765,127.0283552
340,히로야,서울특별시 강남구 학동로33길 27 1F 102호,라멘 / 소바 / 우동,만원 미만,3,,37.5166219,127.0318629
341,유타로,서울특별시 강남구 봉은사로29길 8 유정빌딩,라멘 / 소바 / 우동,만원 미만,3,,37.5083044,127.0347392
342,헤야,서울특별시 강남구 논현로138길 4,이자카야 / 오뎅 / 꼬치,만원 미만,2,,37.5164322,127.0300464
343,마호의테이블,서울특별시 강남구 도산대로8길 17 2F,정통 일식 / 일반 일식,만원 미만,2,,37.5158429,127.0224015
344,미야기,서울특별시 강남구 학동로34길 25,까스 요리,만원 미만,2,,37.5129322,127.0339659
345,미다래,서울특별시 강남구 학동로 342 신성빌딩,라멘 / 소바 / 우동,만원 미만,1,,37.516722,127.0408208
346,홍대돈부리,서울특별시 강남구 학동로 343 더피나클강남 B105-2호,돈부리 / 일본 카레 / 벤토,만원 미만,1,,37.517398,127.0406221
347,카바동,서울특별시 강남구 논현로149길 52,돈부리 / 일본 카레 / 벤토,만원-2만원,27,4.4,37.51726,127.0243276
348,해목,서울특별시 강남구 선릉로145길 14,정통 일식 / 일반 일식,만원-2만원,29,4.4,37.5214472,127.0382828
349,136길육미,서울특별시 강남구 언주로136길 9 2F,퓨전 일식,만원-2만원,86,4.3,37.5173415,127.0363366
350,토가라시,서울특별시 강남구 학동로25길 14,이자카야 / 오뎅 / 꼬치,만원-2만원,15,4.1,37.51459699999999,127.0289786
351,상무초밥,서울특별시 강남구 봉은사로 111 ES타워 1F,회 / 스시,만원-2만원,14,3.9,37.50516289999999,127.0256851
352,난바우동,서울특별시 강남구 강남대로114길 10,라멘 / 소바 / 우동,만원-2만원,5,3.5,37.5057139,127.0251871
353,단스시,서울특별시 강남구 언주로 652 2F,회 / 스시,만원-2만원,8,3.4,37.5150951,127.0357716
354,김태완스시,서울특별시 강남구 봉은사로1길 40,회 / 스시,만원-2만원,17,3.3,37.5073173,127.0241539
355,왓어바웃,서울특별시 강남구 학동로43길 38 논현웰스톤 B2 주방11호,회 / 스시,만원-2만원,3,,37.5184174,127.0380027
356,스시롭다,서울특별시 강남구 학동로2길 49,회 / 스시,만원-2만원,5,,37.5084814,127.0237055
357,도리토리,서울특별시 강남구 선릉로127길 5,이자카야 / 오뎅 / 꼬치,만원-2만원,4,,37.5154864,127.0413354
358,고부시,서울특별시 강남구 논현로136길 5-3,이자카야 / 오뎅 / 꼬치,만원-2만원,2,,37.5161092,127.0302124
359,풍,서울특별시 강남구 강남대로118길 20,이자카야 / 오뎅 / 꼬치,만원-2만원,1,,37.5065462,127.0250496
360,육다시오,서울특별시 강남구 도산대로 154-4,이자카야 / 오뎅 / 꼬치,만원-2만원,3,,37.5180145,127.0254637
361,무적의돈까스,서울특별시 강남구 도산대로12길 6,까스 요리,만원-2만원,1,,37.5170609,127.0234592
362,쿠시텐,서울특별시 강남구 봉은사로1길 38 2F,기타 일식,만원-2만원,1,,37.5072007,127.0242176
363,누리초밥참치,서울특별시 강남구 강남대로116길 8  3F,회 / 스시,만원-2만원,2,,37.5060616,127.024738
364,고YORI,서울특별시 강남구 언주로 605 1F 5호,퓨전 일식,만원-2만원,1,,37.5093304,127.0372438
365,라멘카미,서울특별시 강남구 언주로148길 14,라멘 / 소바 / 우동,만원-2만원,1,,37.5202946,127.0359457
366,하쿠시 (휴업중),서울특별시 강남구 도산대로16길 6-10,정통 일식 / 일반 일식,2만원-3만원,17,4.4,37.5172231,127.023784
367,이자카야나무,서울특별시 강남구 봉은사로1길 40,이자카야 / 오뎅 / 꼬치,2만원-3만원,6,3.1,37.5073173,127.0241539
368,히까리,서울특별시 강남구 강남대로 506 광명빌딩,이자카야 / 오뎅 / 꼬치,2만원-3만원,9,,37.517298,127.02397
369,모모코,서울특별시 강남구 도산대로26길 55,이자카야 / 오뎅 / 꼬치,2만원-3만원,5,,37.5155709,127.0291775
370,모토,서울특별시 강남구 언주로147길 45,이자카야 / 오뎅 / 꼬치,2만원-3만원,5,,37.5189294,127.0307505
371,카이수산,서울특별시 강남구 봉은사로37길 29 뜨레빌 빌라 103호,이자카야 / 오뎅 / 꼬치,2만원-3만원,2,,37.5099018,127.0357061
372,아카라,서울특별시 강남구 봉은사로43길 14,이자카야 / 오뎅 / 꼬치,2만원-3만원,4,,37.5101803,127.0399249
373,스시히나타,서울특별시 강남구 학동로4길 24,회 / 스시,2만원-3만원,2,,37.5098801,127.0233061
374,기세끼,서울특별시 강남구 강남대로118길 8 1F,이자카야 / 오뎅 / 꼬치,2만원-3만원,3,,37.5061376,127.0244543
375,모토이시,서울특별시 강남구 언주로150길 24 1F,기타 일식,2만원-3만원,4,,37.5212746,127.0362272
376,히까루,서울특별시 강남구 봉은사로 117 이건빌딩,이자카야 / 오뎅 / 꼬치,2만원-3만원,2,,37.5052783,127.0264493
377,아지토,서울특별시 강남구 강남대로150길 11,이자카야 / 오뎅 / 꼬치,2만원-3만원,2,,37.5160007,127.0207841
378,가라사대,서울특별시 강남구 학동로2길 57,이자카야 / 오뎅 / 꼬치,2만원-3만원,2,,37.5079205,127.0238769
379,그림나베,서울특별시 강남구 논현로132길 29 두원빌딩 1F,기타 일식,2만원-3만원,3,,37.5155154,127.0327369
380,쿠시라쿠,서울특별시 강남구 도산대로16길 16,이자카야 / 오뎅 / 꼬치,2만원-3만원,2,,37.5169436,127.02486
381,우마이,서울특별시 강남구 강남대로122길 16 2F,이자카야 / 오뎅 / 꼬치,2만원-3만원,1,,37.5079012,127.0243691
382,논현194,서울특별시 강남구 봉은사로13길 10  1F,이자카야 / 오뎅 / 꼬치,2만원-3만원,1,,37.5067872,127.029591
383,음 로바타야끼,서울특별시 강남구 논현로149길 36 진성빌딩 1F,이자카야 / 오뎅 / 꼬치,2만원-3만원,1,,37.5178209,127.0255861
384,다복수산,서울특별시 강남구 봉은사로37길 7-14,정통 일식 / 일반 일식,2만원-3만원,1,,37.5086779,127.0360001
385,스시코우지,서울특별시 강남구 도산대로 318 SB타워 어넥스B동 3F,회 / 스시,4만원 이상,58,4.4,37.5219756,127.0363404
386,스시 나미키,서울특별시 강남구 학동로 338 강남파라곤 S동 1F 103호,회 / 스시,4만원 이상,36,4.4,37.5164665,127.0404191
387,모노로그,서울특별시 강남구 논현로149길 31,회 / 스시,4만원 이상,10,4.3,37.5177083,127.0260209
388,와슈다이닝 슈토,서울특별시 강남구 논현로134길 9,이자카야 / 오뎅 / 꼬치,4만원 이상,12,4.3,37.5156825,127.0309203
389,음,서울특별시 강남구 논현로149길 51,기타 일식,4만원 이상,20,4.3,37.5171399,127.0245181
390,우제홍참치,서울특별시 강남구 학동로2길 50 2F,회 / 스시,3만원-4만원,21,4.3,37.5082833,127.0234027
391,호별관,서울특별시 강남구 논현로114길 22 1F,돈부리 / 일본 카레 / 벤토,3만원-4만원,14,4.3,37.5088582,127.0352445
392,스시타츠,서울특별시 강남구 도산대로28길 18 청림빌딩 1F,정통 일식 / 일반 일식,4만원 이상,12,4.2,37.5180272,127.0281988
393,김수사,서울특별시 강남구 도산대로 132 해정빌딩 1F,회 / 스시,4만원 이상,54,4.1,37.5215969,127.0357429
394,시오,서울특별시 강남구 도산대로54길 33,퓨전 일식,4만원 이상,7,4.1,37.520541,127.0391949
395,카메스시,서울특별시 강남구 선릉로121길 7,정통 일식 / 일반 일식,4만원 이상,18,4.0,37.5138254,127.0417458
396,구루메스시,서울특별시 강남구 학동로4길 15 116호,회 / 스시,4만원 이상,17,4.0,37.5092726,127.0239086
397,해월,서울특별시 강남구 언주로150길 24 2F,회 / 스시,4만원 이상,6,3.9,37.5212746,127.0362272
398,스시도우,서울특별시 강남구 선릉로129길 13,회 / 스시,4만원 이상,30,3.8,37.5160445,127.0404923
399,스시레이와,서울특별시 강남구 언주로147길 18 영동빌딩 1F,회 / 스시,4만원 이상,6,,37.519781,127.0327509
400,배정철어도,서울특별시 강남구 선릉로145길 21,회 / 스시,3만원-4만원,3,,37.5210496,127.0378082
401,와사이진,서울특별시 강남구 언주로 615 상가 (구 강남YMCH자리) 1F 103호,정통 일식 / 일반 일식,4만원 이상,5,,37.51047,127.0357802
402,쿠시마사,서울특별시 강남구 논현로150길 35,정통 일식 / 일반 일식,4만원 이상,7,,37.5199208,127.031335
403,이끼 이자카야,서울특별시 강남구 선릉로119길 5,이자카야 / 오뎅 / 꼬치,3만원-4만원,1,,37.5133882,127.0420466
404,철화,서울특별시 강남구 언주로149길 8 3F,철판 요리,4만원 이상,1,,37.5203159,127.0333041
405,마구로림,서울특별시 강남구 학동로25길 11,회 / 스시,4만원 이상,2,,37.5143611,127.0287769
406,마구로다찌,서울특별시 강남구 언주로150길 48,정통 일식 / 일반 일식,3만원-4만원,5,,37.5218642,127.0380342
407,모로미,서울특별시 강남구 봉은사로1길 29,이자카야 / 오뎅 / 꼬치,3만원-4만원,3,,37.5065792,127.0242404
408,큰물참치,서울특별시 강남구 강남대로128길 10 신도빌딩 1F,회 / 스시,3만원-4만원,1,,37.5097195,127.0230639
409,청담이상,서울특별시 강남구 봉은사로 219 두남빌딩,이자카야 / 오뎅 / 꼬치,3만원-4만원,5,,37.5082096,127.0360211
410,이강인참치도매상,서울특별시 강남구 학동로4길 10 102호,회 / 스시,3만원-4만원,1,,37.5107268,127.0229399
411,오가고,서울특별시 강남구 학동로 338,정통 일식 / 일반 일식,3만원-4만원,1,,37.5164665,127.0404191
412,혼마찌,서울특별시 강남구 언주로113길 22,회 / 스시,3만원-4만원,1,,37.5091453,127.0355371
413,홍명,서울특별시 강남구 논현로131길 10,정통 중식 / 일반 중식,만원 미만,93,4.4,37.51449,127.0294426
414,항차이,서울특별시 강남구 논현로150길 8,기타 중식,만원 미만,23,4.1,37.51896139999999,127.0292716
415,취영루,서울특별시 강남구 학동로2길 11,정통 중식 / 일반 중식,만원 미만,12,4.0,37.5105033,127.0227257
416,향방,서울특별시 강남구 강남대로150길 10,정통 중식 / 일반 중식,만원 미만,5,3.9,37.5157405,127.0206925
417,논현중화식당,서울특별시 강남구 강남대로128길 6 ,정통 중식 / 일반 중식,만원 미만,1,,37.5096928,127.0227781
418,나향반점,서울특별시 강남구 선릉로111길 43,정통 중식 / 일반 중식,만원 미만,5,,37.5098599,127.0400716
419,홍리마라탕,서울특별시 강남구 학동로 343,기타 중식,만원 미만,3,,37.517398,127.0406221
420,댄싱홍콩,서울특별시 강남구 강남대로122길 16  1F,기타 중식,만원 미만,1,,37.5079012,127.0243691
421,차이신,서울특별시 강남구 선릉로129길 13,정통 중식 / 일반 중식,만원 미만,2,,37.5160445,127.0404923
422,신삼국지,서울특별시 강남구 언주로134길 6 1F,정통 중식 / 일반 중식,만원 미만,1,,37.5163935,127.0361124
423,주래등,서울특별시 강남구 언주로150길 24,정통 중식 / 일반 중식,만원 미만,1,,37.5212746,127.0362272
424,대가방,서울특별시 강남구 선릉로145길 13 럭스웨이 1F,정통 중식 / 일반 중식,만원-2만원,83,4.3,37.5211149,127.0385258
425,논현양꼬치,서울특별시 강남구 학동로6길 37,기타 중식,만원-2만원,11,4.1,37.50988,127.0256973
426,코스모왕양꼬치,서울특별시 강남구 봉은사로1길 34 2F,기타 중식,만원-2만원,16,4.0,37.5069181,127.0243706
427,상해루,서울특별시 강남구 강남대로 512 일렉트로마트 B1,정통 중식 / 일반 중식,만원-2만원,28,3.9,37.50798899999999,127.0233263
428,킹박스,서울특별시 강남구 강남대로140길 9,기타 중식,만원-2만원,7,3.9,37.5140633,127.0211907
429,위징쉔,서울특별시 강남구 학동로2길 45 2F,딤섬 / 만두,만원-2만원,10,3.7,37.5086695,127.0235753
430,주방류,서울특별시 강남구 강남대로124길 27,정통 중식 / 일반 중식,만원-2만원,2,,37.5094004,127.0247941
431,더램양꼬치,서울특별시 강남구 학동로2길 34,기타 중식,만원-2만원,8,,37.5092254,127.0230285
432,공리,서울특별시 강남구 선릉로129길 24,정통 중식 / 일반 중식,만원-2만원,3,,37.5160229,127.0395051
433,매화양꼬치,서울특별시 강남구 학동로2길 51 1F,기타 중식,만원-2만원,5,,37.5083976,127.0238141
434,신신양꼬치,서울특별시 강남구 학동로48길 13,기타 중식,만원-2만원,3,,37.5155162,127.0395761
435,유진양꼬치,서울특별시 강남구 선릉로127길 6,기타 중식,만원-2만원,4,,37.5156702,127.0412279
436,양군,서울특별시 강남구 도산대로46길 21 한진로즈힐,기타 중식,만원-2만원,1,,37.5206804,127.0371595
437,크레이지마라,서울특별시 강남구 논현로150길 37 2F,기타 중식,만원-2만원,1,,37.5199763,127.0315119
438,마봉양꼬치,서울특별시 강남구 봉은사로29길 13,기타 중식,만원-2만원,1,,37.5085867,127.0343318
439,인량,서울특별시 강남구 강남대로140길 9 비피유빌딩 B1,기타 중식,2만원-3만원,22,4.2,37.5140633,127.0211907
440,북해도목장,서울특별시 강남구 학동로2길 34,기타 중식,2만원-3만원,14,4.2,37.5092254,127.0230285
441,양식당더램키친,서울특별시 강남구 언주로150길 48,기타 중식,2만원-3만원,12,4.0,37.5218642,127.0380342
442,일일향,서울특별시 강남구 봉은사로 167,정통 중식 / 일반 중식,2만원-3만원,35,3.6,37.5072082,127.0322447
443,불이아,서울특별시 강남구 언주로 711 B1,기타 중식,2만원-3만원,10,3.4,37.5173236,127.034148
444,라무진,서울특별시 강남구 강남대로120길 12 1F,기타 중식,2만원-3만원,2,,37.5069545,127.0247377
445,양꽃,서울특별시 강남구 강남대로122길 10  영흥빌딩 6F,기타 중식,2만원-3만원,1,,37.5075984,127.0240778
446,메종드램,서울특별시 강남구 언주로148길 35,기타 중식,2만원-3만원,1,,37.5211578,127.037377
447,왕스덕,서울특별시 강남구 도산대로 130 하림타워 B1,정통 중식 / 일반 중식,3만원-4만원,21,4.6,37.5171528,127.0229665
448,제이에스가든,서울특별시 강남구 도산대로 318,정통 중식 / 일반 중식,4만원 이상,25,4.0,37.5219756,127.0363404
449,천산,서울특별시 강남구 언주로 640,정통 중식 / 일반 중식,4만원 이상,2,,37.514021,127.0358805
450,제이에스가든 블랙,서울특별시 강남구 언주로150길 32 천지일가,정통 중식 / 일반 중식,3만원-4만원,1,,37.5214561,127.0369466
451,화이브앤투버거저니,서울특별시 강남구 언주로115길 18,브런치 / 버거 / 샌드위치,만원 미만,23,3.9,37.5099171,127.0351539
452,알로하포케,서울특별시 강남구 논현로 705,기타 양식,만원 미만,28,3.9,37.5149168,127.0299574
453,잭슨피자,서울특별시 강남구 선릉로 711 1F 102호,기타 양식,만원 미만,5,3.7,37.5183528,127.0405793
454,이삭버거,서울특별시 강남구 강남대로 594,브런치 / 버거 / 샌드위치,만원 미만,5,3.4,37.514757,127.0203185
455,모스버거익스프레스,서울특별시 강남구 학동로 339 1F,브런치 / 버거 / 샌드위치,만원 미만,6,,37.51710240000001,127.04017
456,맥도날드,서울특별시 강남구 선릉로 667 성우빌딩,브런치 / 버거 / 샌드위치,만원 미만,3,,37.5162358,127.0413134
457,502세컨즈카페,서울특별시 강남구 학동로20길 32 1F,브런치 / 버거 / 샌드위치,만원 미만,1,,37.5113663,127.0279402
458,테이크파이브,서울특별시 강남구 논현로149길 56 윈빌딩 1F,기타 양식,만원 미만,2,,37.5171204,127.024007
459,노스트레스버거,서울특별시 강남구 학동로43길 38 B2 주방40호,브런치 / 버거 / 샌드위치,만원 미만,3,,37.5184174,127.0380027
460,에그셀런트,서울특별시 강남구 봉은사로1길 35 1F,브런치 / 버거 / 샌드위치,만원 미만,4,,37.506983,127.0240361
461,맥도날드,서울특별시 강남구 논현로 667 진우빌딩,브런치 / 버거 / 샌드위치,만원 미만,2,,37.4774914,127.0465765
462,버거킹,서울특별시 강남구 봉은사로 179  H-Tower B1,브런치 / 버거 / 샌드위치,만원 미만,1,,37.507432,127.0333898
463,달링스테이크,서울특별시 강남구 선릉로131길 19,스테이크 / 바베큐,만원 미만,3,,37.5172359,127.0393063
464,원디쉬파스타,서울특별시 강남구 선릉로129길 20 2F,기타 양식,만원 미만,2,,37.516077,127.0398381
465,그린벨,서울특별시 강남구 선릉로 717  103호,기타 양식,만원 미만,1,,37.5186512,127.0404872
466,곰스603,서울특별시 강남구 논현로 613 B1,브런치 / 버거 / 샌드위치,만원 미만,2,,37.5084752,127.0329228
467,그린레시피,서울특별시 강남구 강남대로120길 31,브런치 / 버거 / 샌드위치,만원 미만,3,,37.5075867,127.0256819
468,에그드랍,서울특별시 강남구 학동로 343 B108호,브런치 / 버거 / 샌드위치,만원 미만,3,,37.517398,127.0406221
469,스파게티스토리,서울특별시 강남구 강남대로122길 52,이탈리안,만원 미만,1,,37.5089757,127.0271546
470,브루버거,서울특별시 강남구 학동로50길 16,브런치 / 버거 / 샌드위치,만원 미만,1,,37.5155354,127.0399468
471,오샐러드,서울특별시 강남구 봉은사로29길 6 1F,기타 양식,만원 미만,1,,37.5081636,127.0348214
472,끼니위드팜,서울특별시 강남구 강남대로124길 67,기타 양식,만원 미만,1,,37.51107289999999,127.0270018
473,노브랜드버거,서울특별시 강남구 학동로 215,브런치 / 버거 / 샌드위치,만원 미만,1,,37.5148554,127.033969
474,맘스터치,서울특별시 강남구 강남대로120길 47,브런치 / 버거 / 샌드위치,만원 미만,1,,37.5079103,127.0272227
475,자가제빵선명희피자,서울특별시 강남구 학동로20길 46,기타 양식,만원 미만,1,,37.510726,127.0273287
476,바베네,서울특별시 강남구 강남대로136길 6,이탈리안,만원-2만원,96,4.3,37.5128342,127.0211807
477,난장캠프,서울특별시 강남구 강남대로114길 10,스테이크 / 바베큐,만원-2만원,9,4.0,37.5057139,127.0251871
478,에비바,서울특별시 강남구 논현로146길 12 1F,이탈리안,만원-2만원,12,3.9,37.5180419,127.029995
479,달링키친,서울특별시 강남구 언주로126길 25 1F,퓨전 양식,만원-2만원,16,3.8,37.5139721,127.0375122
480,더플레이트,서울특별시 강남구 논현로139길 8 can사옥,이탈리안,만원-2만원,25,3.4,37.5166415,127.0286568
481,곰스키친,서울특별시 강남구 논현로 613,이탈리안,만원-2만원,3,,37.5084752,127.0329228
482,비스트로논현,서울특별시 강남구 강남대로122길 39,기타 양식,만원-2만원,5,,37.5087061,127.026044
483,낭만식당,서울특별시 강남구 선릉로127길 7,스테이크 / 바베큐,만원-2만원,6,,37.5154331,127.0410997
484,굿사마리안레시피,서울특별시 강남구 논현로139길 12,퓨전 양식,만원-2만원,7,,37.516645,127.0283107
485,파사드인파사드,서울특별시 강남구 언주로133길 15,이탈리안,만원-2만원,7,,37.5160218,127.0340629
486,비바 비보,서울특별시 강남구 논현로136길 5-3 103호,이탈리안,만원-2만원,2,,37.5161092,127.0302124
487,서오릉피자,서울특별시 강남구 학동로 330,기타 양식,만원-2만원,1,,37.5161895,127.0390516
488,그린,서울특별시 강남구 학동로43길 38 1F 101호,브런치 / 버거 / 샌드위치,만원-2만원,3,,37.5184174,127.0380027
489,두지엠아라크렘,서울특별시 강남구 논현로142길 13,이탈리안,만원-2만원,2,,37.5174343,127.0303966
490,도프피자베이커스,서울특별시 강남구 논현로145길 40-3 101호,기타 양식,만원-2만원,1,,37.516902,127.0254895
491,민혁이네외국포차,서울특별시 강남구 학동로2길 56 원창빌딩 201호,퓨전 양식,만원-2만원,3,,37.5079317,127.0236056
492,쿠치나 파스타,서울특별시 강남구 도산대로8길 9,기타 양식,만원-2만원,2,,37.5158713,127.0223714
493,피자나폴리,서울특별시 강남구 선릉로131길 21 B1,기타 양식,만원-2만원,1,,37.5171953,127.0391858
494,타타타,서울특별시 강남구 강남대로118길 15 1F,기타 양식,만원-2만원,2,,37.50674600000001,127.0246941
495,바리,서울특별시 강남구 선릉로115길 39 1F,기타 양식,만원-2만원,2,,37.51138359999999,127.0398632
496,라운지엘오소,서울특별시 강남구 도산대로 126-12,스테이크 / 바베큐,만원-2만원,1,,37.51660270000001,127.0225285
497,올드캡,서울특별시 강남구 논현로114길 10,브런치 / 버거 / 샌드위치,만원-2만원,1,,37.5085334,127.0341956
498,보니스피자펍,서울특별시 강남구 봉은사로37길 11,기타 양식,만원-2만원,3,,37.5089885,127.0365221
499,22Feb,서울특별시 강남구 선릉로119길 6,퓨전 양식,만원-2만원,2,,37.5136152,127.0420403
500,빨간모자,서울특별시 강남구 학동로6길 30 1F,이탈리안,만원-2만원,2,,37.5101173,127.0249658
501,스타일비건,서울특별시 강남구 선릉로135길 6 2F,브런치 / 버거 / 샌드위치,만원-2만원,1,,37.518742,127.0400302
502,샐러딧,서울특별시 강남구 봉은사로 227 1F,기타 양식,만원-2만원,1,,37.5084619,127.0369258
503,드렁큰칠리스,서울특별시 강남구 봉은사로1길 42 2F,기타 양식,만원-2만원,1,,37.5074326,127.0241434
504,쿠스퀘어,서울특별시 강남구 언주로130길 13,스테이크 / 바베큐,만원-2만원,1,,37.5150907,127.0365613
505,파스타스타,서울특별시 강남구 강남대로118길 21 2F,기타 양식,만원-2만원,1,,37.5068905,127.0250643
506,아메리칸피자,서울특별시 강남구 강남대로114길 20 ,기타 양식,만원-2만원,1,,37.5059068,127.0258575
507,피자아이코닉,서울특별시 강남구 언주로 615 B131호,기타 양식,2만원-3만원,4,4.5,37.51047,127.0357802
508,일치,서울특별시 강남구 언주로149길 8,이탈리안,2만원-3만원,27,3.7,37.5203159,127.0333041
509,홍신애솔트,서울특별시 강남구 학동로 223-9,이탈리안,2만원-3만원,6,3.7,37.5151606,127.0333229
510,마켓오,서울특별시 강남구 도산대로 310,패밀리 레스토랑,2만원-3만원,44,3.5,37.5214918,127.0354608
511,루나,서울특별시 강남구 논현로149길 13,퓨전 양식,2만원-3만원,1,,37.5182867,127.0274353
512,아트마켓,서울특별시 강남구 봉은사로 223 슈메르호텔,브런치 / 버거 / 샌드위치,2만원-3만원,2,,37.5083545,127.0363515
513,알라프리마,서울특별시 강남구 학동로17길 13 1F,이탈리안,4만원 이상,68,4.8,37.5136919,127.0263101
514,디도 (휴업중),서울특별시 강남구 논현로146길 11 2F,퓨전 양식,4만원 이상,7,4.1,37.5181809,127.0299073
515,레스토랑핫이슈,서울특별시 강남구 봉은사로 155 호텔 카푸치노 17F,이탈리안,3만원-4만원,8,,37.5067961,127.0315248
516,다이닝포레,서울특별시 강남구 논현로146길 21,기타 양식,4만원 이상,1,,37.5184907,127.0307743
517,제이피셰프다이어리,서울특별시 강남구 학동로3길 30,이탈리안,3만원-4만원,3,,37.5136912,127.022071
518,미아사이공,서울특별시 강남구 도산대로30길 29,베트남 음식,만원 미만,6,3.5,37.5180174,127.030303
519,동남아식당,서울특별시 강남구 논현로149길 51 1F,베트남 음식,만원 미만,1,,37.5169961,127.0244543
520,슬로우캘리,서울특별시 강남구 강남대로118길 60,세계음식 기타,만원 미만,2,,37.5071531,127.027625
521,원디그리노스,서울특별시 강남구 학동로43길 8,다국적 아시아 음식,만원-2만원,4,4.1,37.5165928,127.0374503
522,반피차이,서울특별시 강남구 강남대로124길 23,태국 음식,만원-2만원,48,3.8,37.5093367,127.0244964
523,포쿠치나,서울특별시 강남구 도산대로50길 25 1F,베트남 음식,만원-2만원,4,,37.5207262,127.0377049
524,반포식스,서울특별시 강남구 선릉로 603 2F,베트남 음식,만원-2만원,5,,37.510736,127.0434401
525,레몬그라스타이,서울특별시 강남구 학동로 338,태국 음식,2만원-3만원,4,,37.5164665,127.0404191
526,엄마손한식뷔페,서울특별시 강남구 학동로4길 38,뷔페,만원 미만,1,,37.5089147,127.0238006
527,회식의달인,서울특별시 강남구 학동로2길 39 2F,뷔페,2만원-3만원,1,,37.508991,127.0234388
528,패밀리아,서울특별시 강남구 언주로 640 1F,뷔페,4만원 이상,7,,37.514021,127.0358805
529,쎄쎄종,서울특별시 강남구 언주로146길 39 주영빌딩 1F,카페 / 디저트,만원 미만,49,4.5,37.5206526,127.0380761
530,구테로이테,서울특별시 강남구 선릉로131길 16,카페 / 디저트,만원 미만,34,4.3,37.5176135,127.0396385
531,쁠로13,서울특별시 강남구 도산대로8길 13 1F,베이커리,만원 미만,61,4.2,37.5161037,127.0223291
532,이디야커피랩,서울특별시 강남구 논현로 636,카페 / 디저트,만원 미만,77,4.1,37.5104381,127.032971
533,티티엠,서울특별시 강남구 언주로133길 11,카페 / 디저트,만원 미만,11,4.0,37.5160703,127.0342659
534,투썸플레이스,서울특별시 강남구 강남대로 476 1F,카페 / 디저트,만원 미만,15,3.9,37.5048707,127.0247761
535,맷카페,서울특별시 강남구 학동로50길 42,카페 / 디저트,만원 미만,12,3.9,37.5139316,127.0406178
536,라이프커피,서울특별시 강남구 선릉로 741,카페 / 디저트,만원 미만,21,3.9,37.5204309,127.0398457
537,에이앤아더,서울특별시 강남구 학동로 313 1F,카페 / 디저트,만원 미만,8,3.9,37.516224,127.0374234
538,오묘한 과자점,서울특별시 강남구 삼성로149길 1F,카페 / 디저트,만원 미만,14,3.9,37.5230978,127.0463578
539,카페베이직먼트,서울특별시 강남구 언주로150길 35 2F,카페 / 디저트,만원 미만,7,3.9,37.5217864,127.0371211
540,원더시티 뉴욕컵케이크,서울특별시 강남구 강남대로 556 논현빌딩 1F,카페 / 디저트,만원 미만,90,3.8,37.5111861,127.020743
541,카페 델 꼬또네,서울특별시 강남구 선릉로 711  103호,카페 / 디저트,만원 미만,6,3.8,37.5183528,127.0405793
542,아우어베이커리,서울특별시 강남구 선릉로 629 싸이더스HQ타워 A동 1F,베이커리,만원 미만,51,3.7,37.5128684,127.0425125
543,세익스피어 베케이션,서울특별시 강남구 논현로136길 19,카페 / 디저트,만원 미만,14,3.7,37.5163188,127.0315954
544,김록훈베이커리,서울특별시 강남구 도산대로8길 23,베이커리,만원 미만,12,3.7,37.5153805,127.0225987
545,Orner,서울특별시 강남구 봉은사로 327 1F,카페 / 디저트,만원 미만,5,3.7,37.5101538,127.0426456
546,외계인방앗간,서울특별시 강남구 논현로149길 19 ,베이커리,만원 미만,13,3.6,37.518064,127.0268703
547,해피해피케이크,서울특별시 강남구 선릉로111길 5,카페 / 디저트,만원 미만,18,3.6,37.5107646,127.0431898
548,천장지구,서울특별시 강남구 언주로150길 51 2F,카페 / 디저트,만원 미만,8,3.6,37.5221261,127.038334
549,Sweet Planet,서울특별시 강남구 선릉로131길 23,카페 / 디저트,만원 미만,39,3.5,37.5171683,127.0390753
550,마츄피츄,서울특별시 강남구 선릉로121길 15,카페 / 디저트,만원 미만,21,3.5,37.5136671,127.0410001
551,수목금토,서울특별시 강남구 강남대로136길 63,카페 / 디저트,만원 미만,12,3.5,37.51366489999999,127.023287
552,커피휘엘,서울특별시 강남구 논현로149길 62,카페 / 디저트,만원 미만,7,3.5,37.5169547,127.0235884
553,마르케,서울특별시 강남구 강남대로124길 5,베이커리,만원 미만,12,3.4,37.5088361,127.0231286
554,우나스,서울특별시 강남구 도산대로 318 SB타워상가동 2F,카페 / 디저트,만원 미만,4,3.4,37.5219756,127.0363404
555,지유가오카핫초메,서울특별시 강남구 강남대로118길 59,카페 / 디저트,만원 미만,5,,37.5074078,127.0278049
556,체임버 커피,서울특별시 강남구 강남대로 512,카페 / 디저트,만원 미만,2,,37.50798899999999,127.0233263
557,터치카페,서울특별시 강남구 논현로131길 12 1F,카페 / 디저트,만원 미만,4,,37.514417,127.0292264
558,벤앤제리스,서울특별시 강남구 학동로43길 38 B1 20호,카페 / 디저트,만원 미만,6,,37.5184174,127.0380027
559,백미당공방,서울특별시 강남구 언주로149길 8,카페 / 디저트,만원 미만,6,,37.5203159,127.0333041
560,파리바게뜨,서울특별시 강남구 강남대로118길 12 부경빌딩,베이커리,만원 미만,3,,37.5062573,127.024766
561,인터랙트,서울특별시 강남구 강남대로118길 16,카페 / 디저트,만원 미만,2,,37.5065248,127.0248564
562,공부차,서울특별시 강남구 학동로18길 21,카페 / 디저트,만원 미만,1,,37.5114459,127.0276485
563,해나마카롱,서울특별시 강남구 논현로136길 3,카페 / 디저트,만원 미만,3,,37.5159272,127.0303244
564,오브젝티브 커피로스터스,서울특별시 강남구 언주로134길 25 1F,카페 / 디저트,만원 미만,5,,37.5170008,127.0376543
565,벨뷰그릭요거트 ,서울특별시 강남구 언주로147길 37,카페 / 디저트,만원 미만,5,,37.5190623,127.0312454
566,카페카푸치노,서울특별시 강남구 봉은사로 155 호텔 카푸치노 1F,카페 / 디저트,만원 미만,1,,37.5067961,127.0315248
567,서울호떡,서울특별시 강남구 논현로149길 19,카페 / 디저트,만원 미만,2,,37.518064,127.0268703
568,아티제,서울특별시 강남구 도산대로12길 13 포바강남타워,카페 / 디저트,만원 미만,2,,37.5169306,127.02416
569,디저트39,서울특별시 강남구 학동로 208,카페 / 디저트,만원 미만,1,,37.5140368,127.0319744
570,바나프레소,서울특별시 강남구 도산대로 158,카페 / 디저트,만원 미만,1,,37.51846630000001,127.026054
571,디초콜릿커피앤드,서울특별시 강남구 강남대로 556 논현빌딩 1F,카페 / 디저트,만원 미만,3,,37.5111861,127.020743
572,드립 팩토리,서울특별시 강남구 논현로122길 18 1F,카페 / 디저트,만원 미만,1,,37.5119756,127.0335665
573,바세츠아이스크림,서울특별시 강남구 강남대로114길 13 광명빌딩 1F,카페 / 디저트,만원 미만,1,,37.5060061,127.0253269
574,카페더스노우,서울특별시 강남구 강남대로118길 40,카페 / 디저트,만원 미만,3,,37.5070464,127.0264818
575,태기커피,서울특별시 강남구 학동로 313 1F,카페 / 디저트,만원 미만,1,,37.516224,127.0374234
576,커피렉라보,서울특별시 강남구 도산대로46길 16 1-2F,카페 / 디저트,만원 미만,1,,37.5209513,127.0363694
577,파이굽는집,서울특별시 강남구 언주로147길 4 1F,카페 / 디저트,만원 미만,1,,37.5201144,127.0338507
578,카페코너,서울특별시 강남구 논현로136길 3,카페 / 디저트,만원 미만,1,,37.5159272,127.0303244
579,오씨씨,서울특별시 강남구 봉은사로29길 10 1-2F,카페 / 디저트,만원 미만,1,,37.5084259,127.0347128
580,투썸플레이스,서울특별시 강남구 학동로 335 다른타워,카페 / 디저트,만원 미만,1,,37.5169404,127.0396415
581,북카페레벤,서울특별시 강남구 학동로 116,카페 / 디저트,만원 미만,3,,37.5115481,127.0236486
582,카페써드,서울특별시 강남구 선릉로131길 11,카페 / 디저트,만원 미만,2,,37.5173618,127.0398296
583,홀리데이세븐,서울특별시 강남구 학동로 158 율암빌딩 108호,카페 / 디저트,만원 미만,3,,37.5129034,127.0282439
584,마이미에뜨,서울특별시 강남구 논현로149길 35 동보빌딩 3F 303호,카페 / 디저트,만원 미만,3,,37.5175833,127.0257227
585,경성꽈배기,서울특별시 강남구 강남대로124길 10,카페 / 디저트,만원 미만,1,,37.5088173,127.0234738
586,일레븐바이원,서울특별시 강남구 논현로149길 53,카페 / 디저트,만원 미만,1,,37.5169894,127.0242927
587,전광수커피하우스,서울특별시 강남구 언주로148길 31,카페 / 디저트,만원 미만,3,,37.5210796,127.0370657
588,크로마커피,서울특별시 강남구 강남대로 516 제아메디컬빌딩 1F 102호,카페 / 디저트,만원 미만,1,,37.5082306,127.0231252
589,할리스커피,서울특별시 강남구 강남대로 478,카페 / 디저트,만원 미만,2,,37.5050679,127.024656
590,끌레르 봉봉,서울특별시 강남구 논현로113길 13 103호,카페 / 디저트,만원 미만,1,,37.5082456,127.032065
591,카페1257,서울특별시 강남구 학동로 146 와일리타워 1F,카페 / 디저트,만원 미만,1,,37.5124788,127.0269236
592,웨스트커프하우스,서울특별시 강남구 도산대로54길 10 1F,카페 / 디저트,만원 미만,1,,37.52197630000001,127.0384174
593,코버커피,서울특별시 강남구 언주로125길 11,카페 / 디저트,만원 미만,2,,37.5128201,127.0343598
594,N646,서울특별시 강남구 논현로 646 1F,카페 / 디저트,만원 미만,2,,37.5113768,127.032399
595,더벤티,서울특별시 강남구 선릉로 705 남산빌딩,카페 / 디저트,만원 미만,2,,37.51791619999999,127.0407455
596,버뮤다 드링크트럭,서울특별시 강남구 학동로2길 19 세일빌딩 101-5호,카페 / 디저트,만원 미만,1,,37.51002039999999,127.0229469
597,바나프레소,서울특별시 강남구 학동로 205,카페 / 디저트,만원 미만,1,,37.5144154,127.0313372
598,씨벨커피,서울특별시 강남구 논현로136길 26 1F,카페 / 디저트,만원 미만,1,,37.5162552,127.032086
599,투투원비,서울특별시 강남구 학동로43길 6,카페 / 디저트,만원 미만,2,,37.5163673,127.0374204
600,카페코너,서울특별시 강남구 선릉로 725,카페 / 디저트,만원 미만,2,,37.5193092,127.0401937
601,휙휙쉐이크,서울특별시 강남구 봉은사로29길 35 B2 21호,카페 / 디저트,만원 미만,2,,37.5096909,127.0334919
602,버터풀앤크리멀러스,서울특별시 강남구 도산대로 214 논현빌딩 1F,베이커리,만원 미만,1,,37.5165672,127.021503
603,빠삐용빵,서울특별시 강남구 도산대로24길 29 모스스튜디오 1F,베이커리,만원 미만,1,,37.51768510000001,127.0267055
604,스타벅스,서울특별시 강남구 도산대로 134 2F,카페 / 디저트,만원 미만,1,,37.5172519,127.0233424
605,이에나파이,서울특별시 강남구 도산대로50길 9,카페 / 디저트,만원 미만,3,,37.5217122,127.0376255
606,더테이블,서울특별시 강남구 강남대로132길 12,카페 / 디저트,만원 미만,1,,37.5122011,127.0222059
607,홍콩다방,서울특별시 강남구 학동로 343 B1 B104호,카페 / 디저트,만원 미만,1,,37.517398,127.0406221
608,H MARKET,서울특별시 강남구 선릉로 739,베이커리,만원 미만,2,,37.52021209999999,127.0398654
609,데쎄르룸,서울특별시 강남구 봉은사로51길 13,카페 / 디저트,만원 미만,1,,37.51089109999999,127.0424597
610,네버랜드,서울특별시 강남구 봉은사로7길 32 1F,카페 / 디저트,만원 미만,1,,37.5075978,127.0272448
611,에스프레소진,서울특별시 강남구 논현로114길 10,카페 / 디저트,만원 미만,1,,37.5085334,127.0341956
612,스타벅스,서울특별시 강남구 강남대로 538 정일빌딩,카페 / 디저트,만원 미만,3,,37.5101814,127.0222168
613,그린마일커피,서울특별시 강남구 선릉로127길 11 다인빌딩,카페 / 디저트,만원 미만,1,,37.5153709,127.040881
614,볼트커피바,서울특별시 강남구 봉은사로25길 28 1F 101호,카페 / 디저트,만원 미만,2,,37.5087903,127.0322299
615,컴앤쉽,서울특별시 강남구 강남대로124길 45 ,카페 / 디저트,만원 미만,2,,37.5098187,127.0258022
616,커피플리즈,서울특별시 강남구 학동로 117 1F,카페 / 디저트,만원 미만,1,,37.5120408,127.0236366
617,골드레이블커피,서울특별시 강남구 도산대로6길 8 B1,카페 / 디저트,만원 미만,1,,37.5161192,127.0213719
618,제이콥스라운지커피,서울특별시 강남구 논현로 660,카페 / 디저트,만원 미만,1,,37.5128782,127.0316636
619,파퓰러커피,서울특별시 강남구 강남대로128길 69 1F,카페 / 디저트,만원 미만,1,,37.5122451,127.0269855
620,소소한구움,서울특별시 강남구 강남대로122길 30-10,베이커리,만원 미만,1,,37.5077441,127.0255294
621,너티너티,서울특별시 강남구 도산대로30길 32 ,카페 / 디저트,만원 미만,1,,37.5178499,127.0300937
622,카페바이아우어,서울특별시 강남구 학동로34길 14  1F,카페 / 디저트,만원 미만,1,,37.5136741,127.0333432
623,디저트앤커피 언커먼,서울특별시 강남구 논현로142길 32  B1,카페 / 디저트,만원 미만,1,,37.517691,127.0317009
624,맥널티커피팩토리,서울특별시 강남구 언주로114길 19,카페 / 디저트,만원 미만,1,,37.510307,127.0392175
625,테그42,서울특별시 강남구 도산대로 332 문화빌딩,카페 / 디저트,만원 미만,2,,37.5224857,127.0382427
626,와리가리커피,서울특별시 강남구 학동로20길 42,카페 / 디저트,만원 미만,1,,37.5108693,127.0275451
627,로지브라운,서울특별시 강남구 봉은사로37길 7-8 1F,카페 / 디저트,만원 미만,1,,37.5087613,127.0361755
628,엘리에나 카페,서울특별시 강남구 논현로 645,카페 / 디저트,만원 미만,1,,37.5110945,127.0313812
629,엔커피스튜디오,서울특별시 강남구 강남대로 492 2F,카페 / 디저트,만원 미만,1,,37.5061581,127.0240989
630,스타벅스,서울특별시 강남구 선릉로 669 상경빌딩,카페 / 디저트,만원 미만,3,,37.5165849,127.0412433
631,로시망고,서울특별시 강남구 강남대로118길 7,카페 / 디저트,만원 미만,1,,37.5063493,127.0243316
632,굄519카페,서울특별시 강남구 논현로149길 50,카페 / 디저트,만원 미만,1,,37.5173245,127.0245055
633,로칼커피,서울특별시 강남구 선릉로111길 11 1F,카페 / 디저트,만원 미만,1,,37.5105318,127.0426
634,슈퍼커피,서울특별시 강남구 선릉로 713,카페 / 디저트,만원 미만,1,,37.5185372,127.0405498
635,스무디킹,서울특별시 강남구 강남대로 512,카페 / 디저트,만원 미만,1,,37.50798899999999,127.0233263
636,어멍떡집,서울특별시 강남구 언주로 604,카페 / 디저트,만원 미만,1,,37.5093526,127.0388621
637,화이티코,서울특별시 강남구 학동로 342 B1 B103호,카페 / 디저트,만원 미만,1,,37.516722,127.0408208
638,해머스미스커피,서울특별시 강남구 학동로25길 11 씨플레이스 102호,카페 / 디저트,만원 미만,1,,37.5143611,127.0287769
639,황제꽈배기,서울특별시 강남구 학동로4길 32 ,카페 / 디저트,만원 미만,1,,37.509398,127.0236246
640,뚜레쥬르,서울특별시 강남구 강남대로 524,베이커리,만원 미만,1,,37.5089907,127.0227567
641,메구제과,서울특별시 강남구 학동로42길 67,카페 / 디저트,만원 미만,1,,37.511265,127.037461
642,스타벅스,서울특별시 강남구 도산대로 328,카페 / 디저트,만원 미만,1,,37.52236449999999,127.0379543
643,모스가든,서울특별시 강남구 논현로139길 12,카페 / 디저트,만원-2만원,3,,37.516645,127.0283107
644,파타티파타타,서울특별시 강남구 학동로 338  상가동 B2,카페 / 디저트,만원-2만원,1,,37.5164665,127.0404191
645,델리아마도르,서울특별시 강남구 언주로 640 1F,카페 / 디저트,2만원-3만원,1,,37.514021,127.0358805
646,후문,서울특별시 강남구 강남대로120길 28,전통 주점 / 포차,만원 미만,8,3.9,37.5073463,127.0258105
647,오늘와인한잔,서울특별시 강남구 봉은사로1길 33 논현빌딩 1F,칵테일 / 와인,만원 미만,2,,37.5070577,127.0249143
648,낭만옵빠,서울특별시 강남구 강남대로124길 12,일반 주점,만원 미만,2,,37.5088364,127.0236025
649,타임머신,서울특별시 강남구 논현로150길 41 ,치킨 / 호프 / 펍,만원 미만,2,,37.5201173,127.0318879
650,필스너하우스,서울특별시 강남구 언주로148길 35,치킨 / 호프 / 펍,만원 미만,1,,37.5211578,127.037377
651,오늘맥주한잔,서울특별시 강남구 학동로2길 56 103호,치킨 / 호프 / 펍,만원 미만,1,,37.5078806,127.0236206
652,송씨해물점,서울특별시 강남구 강남대로122길 24 1F,전통 주점 / 포차,만원 미만,1,,37.508123,127.024934
653,임바이브,서울특별시 강남구 강남대로124길 3-9 B1,칵테일 / 와인,만원-2만원,8,4.3,37.5092858,127.0228117
654,장미술상,서울특별시 강남구 학동로2길 34,일반 주점,만원-2만원,7,4.3,37.5092254,127.0230285
655,윤세영선술,서울특별시 강남구 도산대로34길 38 2F,일반 주점,만원-2만원,5,4.3,37.5178893,127.0314914
656,장생건강원,서울특별시 강남구 강남대로124길 23,칵테일 / 와인,만원-2만원,46,4.1,37.5093367,127.0244964
657,봉쥬르와인살롱,서울특별시 강남구 강남대로122길 5 유창빌딩,칵테일 / 와인,만원-2만원,9,4.1,37.5076129,127.0237225
658,브루하하,서울특별시 강남구 언주로148길 14,치킨 / 호프 / 펍,만원-2만원,6,4.0,37.5202946,127.0359457
659,역전할머니맥주,서울특별시 강남구 봉은사로1길 38,치킨 / 호프 / 펍,만원-2만원,6,3.9,37.5072007,127.0242176
660,우기식당,서울특별시 강남구 강남대로 520 1F,일반 주점,만원-2만원,9,3.6,37.5085698,127.0230676
661,광주육전,서울특별시 강남구 학동로4길 45,일반 주점,만원-2만원,7,3.4,37.5085007,127.0243059
662,소로길,서울특별시 강남구 논현로149길 52 1F,일반 주점,만원-2만원,6,,37.51726,127.0243276
663,유로포차,서울특별시 강남구 봉은사로1길 39,일반 주점,만원-2만원,6,,37.5072384,127.0238756
664,야야,서울특별시 강남구 봉은사로1길 16 2F,치킨 / 호프 / 펍,만원-2만원,6,,37.5058325,127.0249288
665,판치야,서울특별시 강남구 학동로53길 29 대림빌딩,칵테일 / 와인,만원-2만원,1,,37.5189596,127.0395308
666,안채,서울특별시 강남구 봉은사로33길 6,전통 주점 / 포차,만원-2만원,4,,37.5084192,127.0358779
667,느린마을양조장,서울특별시 강남구 강남대로118길 23,전통 주점 / 포차,만원-2만원,6,,37.5069248,127.0251815
668,봉남 부추꼬꼬,서울특별시 강남구 학동로4길 15,일반 주점,만원-2만원,3,,37.5092726,127.0239086
669,사랑방,서울특별시 강남구 봉은사로1길 9,전통 주점 / 포차,만원-2만원,6,,37.5053712,127.0248217
670,와쏘골뱅이탕,서울특별시 강남구 논현로150길 34,일반 주점,만원-2만원,4,,37.5196656,127.0311958
671,OPNNG,서울특별시 강남구 도산대로34길 22 빌딩모노폴 B1,칵테일 / 와인,만원-2만원,1,,37.518849,127.0310581
672,청담맥주,서울특별시 강남구 언주로148길 33,치킨 / 호프 / 펍,만원-2만원,3,,37.5211313,127.0372234
673,육다시구,서울특별시 강남구 논현로149길 40,칵테일 / 와인,만원-2만원,2,,37.5177012,127.025271
674,주전자,서울특별시 강남구 선릉로129길 9-4,전통 주점 / 포차,만원-2만원,3,,37.5159371,127.0406939
675,온종일,서울특별시 강남구 언주로113길 14 ,일반 주점,만원-2만원,1,,37.5093652,127.0362073
676,유림상회,서울특별시 강남구 봉은사로1길 39,전통 주점 / 포차,만원-2만원,3,,37.5072384,127.0238756
677,봉골레숲,서울특별시 강남구 학동로6길 43,일반 주점,만원-2만원,2,,37.5096687,127.0260812
678,아지트,서울특별시 강남구 도산대로46길 21 한진로즈힐아파트상가 B1,칵테일 / 와인,만원-2만원,1,,37.5206804,127.0371595
679,달잔,서울특별시 강남구 언주로148길 14 라동 113호,일반 주점,만원-2만원,1,,37.5202946,127.0359457
680,황금마차,서울특별시 강남구 도산대로46길 21 한진로즈힐상가 1F,전통 주점 / 포차,만원-2만원,1,,37.5206804,127.0371595
681,백스비어,서울특별시 강남구 강남대로122길 5 3F,치킨 / 호프 / 펍,만원-2만원,1,,37.5076129,127.0237225
682,빨대포차,서울특별시 강남구 봉은사로29길 11 1F,전통 주점 / 포차,만원-2만원,1,,37.5084638,127.034399
683,버들골이야기,서울특별시 강남구 강남대로122길 16,일반 주점,만원-2만원,1,,37.5079012,127.0243691
684,얼짱포차,서울특별시 강남구 강남대로122길 19,일반 주점,만원-2만원,1,,37.5082749,127.0245622
685,엔틱정,서울특별시 강남구 봉은사로1길 37 호서빌딩 2F,일반 주점,만원-2만원,1,,37.507086,127.023968
686,골드레이블매직바,서울특별시 강남구 도산대로12길 6 1F,칵테일 / 와인,만원-2만원,1,,37.5170609,127.0234592
687,용용선생,서울특별시 강남구 학동로2길 54 1-2F,일반 주점,만원-2만원,1,,37.5081092,127.023483
688,생활맥주,서울특별시 강남구 강남대로122길 21,치킨 / 호프 / 펍,만원-2만원,1,,37.5083309,127.024687
689,몽드,서울특별시 강남구 학동로2길 56 402호,치킨 / 호프 / 펍,만원-2만원,1,,37.5078806,127.0236206
690,막걸리전,서울특별시 강남구 학동로4길 38,전통 주점 / 포차,만원-2만원,1,,37.5089147,127.0238006
691,선녀와나무꾼,서울특별시 강남구 학동로2길 55 환희빌딩,전통 주점 / 포차,만원-2만원,1,,37.5080746,127.0238726
692,우리이모네,서울특별시 강남구 강남대로128길 27 104호,전통 주점 / 포차,만원-2만원,1,,37.510383,127.0243029
693,두루두루포차,서울특별시 강남구 학동로4길 28 영동시장,전통 주점 / 포차,만원-2만원,1,,37.5095916,127.023509
694,서울황태,서울특별시 강남구 언주로134길 33,치킨 / 호프 / 펍,만원-2만원,1,,37.5171488,127.0382305
695,노가리슈퍼,서울특별시 강남구 강남대로 520 영동빌딩 1F 105호,치킨 / 호프 / 펍,만원-2만원,1,,37.4872446,127.0327813
696,고씨네고추장찌개,서울특별시 강남구 강남대로122길 16 1F,전통 주점 / 포차,만원-2만원,1,,37.5079012,127.0243691
697,PDR,서울특별시 강남구 언주로134길 24 2F,칵테일 / 와인,2만원-3만원,10,4.4,37.51675520000001,127.0375874
698,우기식당,서울특별시 강남구 학동로2길 39,일반 주점,2만원-3만원,16,4.2,37.508991,127.0234388
699,박고볼래,서울특별시 강남구 선릉로129길 9-6,일반 주점,2만원-3만원,12,3.9,37.5157951,127.0407467
700,송씨해물점,서울특별시 강남구 봉은사로7길 16,전통 주점 / 포차,2만원-3만원,7,3.8,37.5066881,127.0275044
701,메리가든,서울특별시 강남구 봉은사로 113 호텔 더 디자이너스 리즈,칵테일 / 와인,2만원-3만원,4,3.5,37.5052889,127.0258825
702,미래소년,서울특별시 강남구 강남대로146길 7-7,일반 주점,2만원-3만원,5,,37.5152104,127.0205456
703,멜랑즈,서울특별시 강남구 도산대로50길 16 2F,칵테일 / 와인,2만원-3만원,3,,37.5213335,127.0373781
704,곰방대,서울특별시 강남구 학동로6길 53 B1,칵테일 / 와인,2만원-3만원,1,,37.5091781,127.0267957
705,로얄라운지,서울특별시 강남구 논현로 709,칵테일 / 와인,2만원-3만원,1,,37.5152642,127.0297946
706,낰낰,서울특별시 강남구 학동로11길 20-7 B2,칵테일 / 와인,2만원-3만원,2,,37.5139219,127.025121
707,비노쿠스테이블,서울특별시 강남구 학동로44길 26,칵테일 / 와인,2만원-3만원,2,,37.5141083,127.0374132
708,영동포차,서울특별시 강남구 학동로2길 51 2F,전통 주점 / 포차,2만원-3만원,1,,37.5082656,127.0238769
709,명당,서울특별시 강남구 강남대로118길 22  B1,일반 주점,2만원-3만원,1,,37.5066494,127.0252201
710,카페보틀그린,서울특별시 강남구 도산대로16길 13-7,칵테일 / 와인,2만원-3만원,1,,37.5174609,127.0253058
711,츠보나베,서울특별시 강남구 언주로 604 상가 101호,일반 주점,2만원-3만원,1,,37.5093526,127.0388621
712,파워플랜트,서울특별시 강남구 봉은사로 223,칵테일 / 와인,2만원-3만원,1,,37.5083545,127.0363515
713,콰이,서울특별시 강남구 강남대로122길 16 B1,일반 주점,2만원-3만원,1,,37.5079012,127.0243691
714,피헨,서울특별시 강남구 도산대로30길 39,칵테일 / 와인,2만원-3만원,1,,37.5174132,127.0306785
715,르캬바레도산,서울특별시 강남구 도산대로 216 청담에이든호텔 18F,칵테일 / 와인,4만원 이상,14,3.7,37.5200172,127.0304502
716,루프탑바,서울특별시 강남구 봉은사로 155 호텔 카푸치노 17F,칵테일 / 와인,3만원-4만원,4,,37.5067961,127.0315248
717,와인북카페,서울특별시 강남구 논현로149길 5,칵테일 / 와인,4만원 이상,3,,37.5184985,127.0279857
718,비크 이 뮈르달,서울특별시 강남구 봉은사로 123 리체힐신논현오피스텔 F101호,칵테일 / 와인,3만원-4만원,1,,37.5055154,127.0271609
719,누아르,서울특별시 강남구 선릉로133길 16 1F,칵테일 / 와인,3만원-4만원,1,,37.5180752,127.0394663
720,두비두바,서울특별시 강남구 강남대로 524 105호,칵테일 / 와인,3만원-4만원,1,,37.5089907,127.0227567
